College,State,IPEDS ID,2026,2025,2024,2023,2022,2021,2020,2019,2018,2017,2016,2015,2014,2013,2012,2011,2010,2009,2008,2007,2006,2005,2004,2003,2002,2001,2000,1999,1998,1997,1996,1995,1994,1993,1992,1991,1990,1989,1988,1986,1984,Latitude,Longitude,City,ZIP,college_type,Address,Website,Type
Williams College,MA,168342,1,1,1,1,1,1,1,1,1,1,1,1,1,1,1,1,1,1,1,1,1,1,1,2,3,3,3,3,3,3,2,2,2,1,1,3,3,3,1,1,2,42.712725,-73.203132,Williamstown,01267,LAC,NA,NA,NA
Amherst College,MA,164465,2,2,2,2,2,2,2,2,2,2,2,2,2,2,2,2,2,1,2,2,2,2,2,1,1,1,2,1,2,2,1,1,1,2,3,1,2,2,4,3,1,42.372459,-72.518493,Amherst,01002-5000,LAC,NA,NA,NA
United States Naval Academy,MD,164155,3,4,3,6,6,6,17,22,21,12,9,13,12,14,14,16,19,22,20,NA,NA,NA,NA,NA,NA,NA,NA,NA,NA,NA,NA,NA,NA,NA,NA,NA,NA,NA,NA,NA,NA,38.980507,-76.481692,Annapolis,21402-1300,LAC,NA,NA,NA
Swarthmore College,PA,216287,4,3,4,4,3,3,3,3,3,4,3,3,3,3,3,3,3,3,3,3,3,2,3,2,1,2,1,2,1,1,2,3,3,3,2,2,1,1,2,2,2,39.905159,-75.354278,Swarthmore,19081,LAC,NA,NA,NA
Bowdoin College,ME,161004,5,5,9,6,6,6,6,5,3,6,4,5,4,6,6,6,6,6,7,7,6,7,10,7,5,6,9,7,8,8,4,6,6,6,4,4,13,9,12,10,NA,43.907134,-69.963942,Brunswick,04011,LAC,NA,NA,NA
United States Air Force Academy,CO,128328,5,8,7,18,22,28,39,30,26,32,29,27,25,31,33,NA,NA,NA,NA,NA,NA,NA,NA,NA,NA,NA,NA,NA,NA,NA,NA,NA,NA,NA,NA,NA,NA,NA,NA,NA,NA,39.010957,-104.891358,USAF Academy,80840-5002,LAC,NA,NA,NA
Pomona College,CA,121345,7,5,4,3,4,4,5,5,6,7,4,5,4,4,4,6,6,6,7,7,6,5,4,5,5,5,7,5,5,5,8,5,5,5,5,6,4,5,6,7,9,34.099027,-117.714556,Claremont,91711-4434,LAC,NA,NA,NA
Wellesley College,MA,168218,7,7,4,5,5,4,3,3,3,3,4,4,7,6,8,4,4,4,4,4,4,4,4,4,4,4,4,4,3,4,5,4,4,4,6,5,5,4,8,8,6,42.291554,-71.306605,Wellesley,02481-8203,LAC,NA,NA,NA
Claremont McKenna College,CA,112260,7,8,11,9,8,6,7,9,8,9,9,8,9,10,9,11,11,11,11,12,10,13,12,13,17,14,14,15,8,15,16,12,11,16,14,13,21,18,23,NA,NA,34.102154,-117.711188,Claremont,91711-6400,LAC,NA,NA,NA
United States Military Academy,NY,197036,10,8,8,9,11,15,21,18,12,19,22,24,17,18,14,16,14,14,22,NA,NA,NA,NA,NA,NA,NA,NA,NA,NA,NA,NA,NA,NA,NA,NA,NA,NA,NA,NA,NA,NA,41.388988,-73.956772,West  Point,10996,LAC,NA,NA,NA
Carleton College,MN,173258,10,8,9,6,9,9,7,5,8,7,8,8,7,8,6,8,8,8,5,6,5,5,4,5,5,6,8,9,7,9,11,10,13,12,12,10,14,12,3,4,4,44.462318,-93.154666,Northfield,55057,LAC,NA,NA,NA
Harvey Mudd College,CA,115409,10,12,16,29,28,25,23,18,12,21,14,15,16,12,18,18,14,14,15,14,18,16,17,15,14,NA,NA,NA,NA,NA,NA,NA,NA,NA,NA,NA,NA,NA,NA,NA,NA,34.106515,-117.709837,Claremont,91711,LAC,NA,NA,NA
Vassar College,NY,197133,13,12,16,13,22,13,14,11,12,12,12,11,13,10,14,12,11,11,11,12,13,12,14,15,14,16,17,17,17,17,13,16,14,13,13,10,19,15,24,NA,NA,41.686895,-73.895088,Poughkeepsie,12604,LAC,NA,NA,NA
Barnard College,NY,189097,13,14,11,18,17,22,25,25,26,27,29,32,32,28,33,26,30,27,30,26,27,29,38,28,28,29,25,24,27,23,32,T1 (26-40),Q1 (26-35),Q1 (26-35),19,25,25,19,NA,NA,NA,40.810098000000004,-73.963346,New York,10027-6598,LAC,NA,NA,NA
Wesleyan University,CT,130697,13,14,11,18,17,20,17,18,21,21,14,15,17,17,12,12,13,13,11,10,12,9,11,11,11,10,10,9,14,14,12,9,10,7,7,7,8,6,6,NA,7,41.554665,-72.657146,Middletown,06459,LAC,NA,NA,NA
Davidson College,NC,198385,13,14,16,15,13,15,17,10,10,9,9,11,9,12,11,9,8,9,9,10,10,7,7,9,10,11,11,11,8,11,21,8,12,18,21,10,15,20,15,NA,9,35.499767,-80.843979,Davidson,28035,LAC,NA,NA,NA
Hamilton College,NY,191515,13,14,16,15,13,9,14,16,18,12,14,15,14,16,17,18,21,20,17,17,15,19,21,18,21,21,18,21,22,25,23,T1 (26-40),22,21,25,19,23,24,25,NA,NA,43.050245,-75.408195,Clinton,13323,LAC,NA,NA,NA
Smith College,MA,167835,13,14,16,13,17,15,11,11,12,12,14,19,20,18,19,14,18,18,17,19,19,13,15,13,14,12,13,11,14,12,10,13,9,10,10,9,7,7,14,NA,NA,42.318111,-72.638097,Northampton,01063,LAC,NA,NA,NA
Grinnell College,IA,153384,13,19,11,15,13,13,14,11,18,19,19,19,17,22,19,18,14,14,11,14,15,16,15,12,11,14,11,11,14,16,14,17,16,14,16,16,10,8,10,9,NA,41.747952,-92.722094,Grinnell,50112-1690,LAC,NA,NA,NA
Middlebury College,VT,230959,13,19,11,11,9,9,7,5,6,4,4,7,4,4,5,4,4,5,5,5,8,11,7,7,9,6,5,7,8,7,7,11,8,8,9,8,12,14,17,NA,NA,44.009117,-73.176068,Middlebury,05753,LAC,NA,NA,NA
Washington and Lee University,VA,234207,21,19,21,11,11,9,10,11,10,11,14,14,14,14,12,14,14,17,15,17,14,13,12,15,13,12,14,11,8,13,15,15,20,22,22,15,18,23,25,NA,NA,37.788939,-79.443018,Lexington,24450-2116,LAC,NA,NA,NA
Colgate University,NY,190099,22,22,21,18,17,10,17,16,12,12,19,22,20,18,21,21,19,18,17,16,15,16,17,18,17,18,18,21,20,20,17,18,19,17,17,22,16,16,NA,NA,NA,42.819475,-75.536346,Hamilton,13346-1398,LAC,NA,NA,NA
University of Richmond,VA,233374,22,22,25,18,22,22,23,25,23,27,32,30,25,28,27,32,30,33,40,34,34,NA,NA,NA,NA,NA,NA,NA,NA,NA,NA,NA,NA,NA,NA,NA,NA,NA,NA,NA,NA,37.577393,-77.538806,University of Richmond,23173,LAC,NA,NA,NA
Haverford College,PA,212911,24,24,21,18,16,15,11,11,18,12,12,8,9,9,10,9,10,10,10,9,8,9,9,10,5,6,5,5,6,6,5,6,7,9,8,21,11,10,9,5,9,40.007452,-75.305207,Haverford,19041-1392,LAC,NA,NA,NA
Colby College,ME,161086,24,25,25,24,17,15,11,18,12,12,19,15,22,18,21,23,22,23,22,20,20,19,17,18,20,19,18,17,18,18,19,23,17,15,20,18,23,22,NA,NA,NA,44.564211,-69.66337,Waterville,04901-8840,LAC,NA,NA,NA
Bates College,ME,160977,24,26,24,25,25,22,21,22,23,27,25,19,22,22,21,21,25,25,24,23,21,22,23,22,22,19,23,19,20,22,18,21,18,23,Q1 (26-35),19,21,21,NA,NA,NA,44.105299,-70.203333,Lewiston,04240,LAC,NA,NA,NA
College of the Holy Cross,MA,166124,27,28,27,33,35,36,27,35,33,32,32,34,25,32,29,32,36,35,33,32,32,31,27,26,32,29,30,30,25,27,26,24,25,Q1 (26-35),23,Q1 (26-36),NA,NA,NA,NA,NA,42.23752,-71.808214,Worcester,01610-2395,LAC,NA,NA,NA
Macalester College,MN,173902,28,26,27,27,27,27,25,27,26,24,23,24,24,24,25,26,29,25,26,24,25,26,25,26,26,25,24,24,25,32,34,T1 (26-40),Q1 (26-35),Q2 (36-70),Q2 (36-70),Q2 (37-71),NA,NA,NA,NA,NA,44.938565,-93.168053,Saint Paul,55105-1899,LAC,NA,NA,NA
Mount Holyoke College,MA,166939,29,34,34,36,30,34,32,30,36,36,35,41,38,32,29,26,25,27,28,24,23,24,25,23,24,21,16,19,18,19,19,T1 (26-40),23,19,18,17,17,17,17,11,NA,42.25489,-72.573916,South Hadley,01075-1489,LAC,NA,NA,NA
Colorado College,CO,126678,30,29,29,27,26,25,27,27,23,24,25,27,31,28,27,26,24,30,26,26,27,33,27,29,28,29,25,24,31,28,28,20,Q1 (26-35),Q1 (26-35),Q2 (36-70),Q1 (26-36),NA,25,20,11,NA,38.84886,-104.822697,Colorado Springs,80903,LAC,NA,NA,NA
Bryn Mawr College,PA,211273,30,29,30,31,30,28,27,27,32,31,25,27,30,26,25,30,25,23,24,20,21,21,17,21,17,16,18,15,8,10,9,14,15,10,11,23,5,13,11,NA,8,40.02736,-75.313223,Bryn Mawr,19010,LAC,NA,NA,NA
Bucknell University,PA,211291,30,31,30,37,38,34,35,36,33,32,32,32,32,32,29,30,30,30,30,29,27,26,27,29,28,27,30,31,27,31,30,25,Q1 (26-35),Q1 (26-35),Q1 (26-35),Q1 (26-36),NA,NA,NA,NA,NA,40.954317,-76.882616,Lewisburg,17837,LAC,NA,NA,NA
Lafayette College,PA,213385,30,31,30,39,38,40,39,36,36,36,37,35,36,39,40,38,35,35,34,29,27,31,30,29,33,36,33,33,37,39,33,T1 (26-40),Q1 (26-35),25,Q1 (26-35),Q1 (26-36),NA,NA,NA,NA,NA,40.69956,-75.209786,Easton,18042-1768,LAC,NA,NA,NA
Denison University,OH,202523,34,36,39,39,42,44,43,43,46,51,55,51,50,49,49,51,53,53,52,48,51,50,49,T2 (53-112),T2 (52-114),42,T2 (43-80),T2 (41-89),T2 (43-92),T2 (41-80),T2 (41-81),T2 (41-80),Q2 (36-70),Q2 (36-70),Q2 (36-70),Q2 (37-71),NA,NA,NA,NA,NA,40.071505,-82.523272,Granville,43023,LAC,NA,NA,NA
Franklin and Marshall College,PA,212577,35,31,35,39,42,43,38,36,39,47,40,37,45,46,42,41,43,42,40,41,39,38,38,36,36,33,35,33,33,34,29,T1 (26-40),Q1 (26-35),Q1 (26-35),Q1 (26-35),Q1 (26-36),NA,NA,NA,NA,NA,40.048045,-76.319037,Lancaster,17604-3003,LAC,NA,NA,NA
Occidental College,CA,120254,35,34,35,37,42,40,39,39,44,44,43,44,41,39,37,36,33,37,36,36,41,42,40,44,44,39,40,36,33,38,39,T2 (41-80),Q1 (26-35),Q1 (26-35),24,24,NA,NA,NA,NA,NA,34.127124,-118.210908,Los Angeles,90041-3392,LAC,NA,NA,NA
Skidmore College,NY,195526,37,36,38,39,38,36,39,41,41,38,38,37,45,43,49,41,46,47,47,48,41,45,42,41,42,47,T2 (43-80),T2 (41-89),T2 (43-92),T2 (41-80),T2 (41-81),T2 (41-80),Q2 (36-70),Q2 (36-70),Q2 (36-70),Q2 (37-71),NA,NA,NA,NA,NA,43.097035,-73.785335,Saratoga Springs,12866,LAC,NA,NA,NA
Pitzer College,CA,121257,37,36,39,33,35,36,35,41,33,32,36,35,35,43,42,46,49,49,49,51,53,59,70,T2 (53-112),T2 (52-114),T2 (52-80),T2 (43-80),T2 (41-89),T2 (43-92),T2 (41-80),T2 (41-81),T2 (41-80),Q2 (36-70),Q2 (36-70),Q2 (36-70),Q2 (37-71),NA,NA,NA,NA,NA,34.104107,-117.706675,Claremont,91711-6101,LAC,NA,NA,NA
Trinity College,CT,130590,37,36,39,39,46,44,46,46,44,38,43,45,36,38,37,36,36,33,34,29,25,24,22,25,24,23,22,23,22,21,23,22,24,24,Q1 (26-35),Q1 (26-36),20,NA,NA,NA,NA,41.747451,-72.690882,Hartford,06106-3100,LAC,NA,NA,NA
Spelman College,GA,141060,37,40,39,51,54,54,57,51,61,72,72,81,65,68,62,59,68,77,75,74,73,66,81,T2 (53-112),T2 (52-114),T3 (81-120),T3 (81-121),T2 (41-89),T3 (93-127),T3 (81-120),T3 (82-121),T3 (81-120),NA,NA,NA,NA,NA,NA,NA,NA,NA,33.745279,-84.411527,Atlanta,30314-4399,LAC,NA,NA,NA
Trinity University,TX,229267,37,40,59,55,NA,NA,NA,NA,NA,NA,NA,NA,NA,NA,NA,NA,NA,NA,NA,NA,NA,NA,NA,NA,NA,NA,NA,NA,NA,NA,NA,NA,NA,NA,NA,NA,NA,NA,NA,NA,NA,29.462682,-98.48186,San Antonio,78212-7200,LAC,NA,NA,NA
Scripps College,CA,123165,37,44,35,33,30,28,33,30,26,23,29,24,25,24,29,23,25,27,28,26,27,26,34,29,33,37,35,39,37,36,37,T1 (26-40),Q2 (36-70),Q2 (36-70),Q1 (26-35),Q1 (26-36),NA,NA,NA,NA,NA,34.104147,-117.711294,Claremont,91711-3905,LAC,NA,NA,NA
Soka University of America,CA,399911,37,45,56,29,29,28,27,22,39,41,45,41,41,49,64,NA,NA,NA,NA,NA,NA,NA,NA,NA,NA,NA,NA,NA,NA,NA,NA,NA,NA,NA,NA,NA,NA,NA,NA,NA,NA,33.554546,-117.735344,Aliso Viejo,92656-8081,LAC,NA,NA,NA
Union College,NY,196866,44,40,45,48,50,44,45,39,36,38,38,41,41,41,40,41,43,42,40,39,36,40,37,38,38,35,33,33,35,34,31,T1 (26-40),Q1 (26-35),Q1 (26-35),Q1 (26-35),Q1 (26-36),NA,NA,NA,NA,NA,42.818097,-73.928788,Schenectady,12308-2311,LAC,NA,NA,NA
Berea College,KY,156295,45,40,30,26,30,33,46,61,68,60,67,69,76,75,71,67,T3 (127-191),68,75,NA,NA,NA,NA,NA,T2 (52-114),NA,NA,NA,NA,NA,NA,T3 (81-120),NA,NA,NA,NA,NA,NA,NA,NA,NA,37.57202,-84.292893,Berea,40404-2182,LAC,NA,NA,NA
Kenyon College,OH,203535,45,45,39,31,30,28,27,30,26,27,25,30,32,32,33,32,33,32,32,32,32,29,30,29,33,29,32,31,31,33,36,T1 (26-40),Q2 (36-70),Q2 (36-70),Q2 (36-70),Q1 (26-36),NA,NA,NA,NA,NA,40.374408,-82.397977,Gambier,43022,LAC,NA,NA,NA
Dickinson College,PA,212009,45,45,46,51,50,47,46,51,51,41,40,37,45,46,47,47,46,45,44,41,45,40,42,44,44,47,39,T2 (41-89),T2 (43-92),T2 (41-80),40,T2 (41-80),Q2 (36-70),Q2 (36-70),Q2 (36-70),Q1 (26-36),NA,NA,NA,NA,NA,40.202796,-77.197854,Carlisle,17013-2896,LAC,NA,NA,NA
Furman University,SC,218070,45,45,46,45,46,52,46,51,53,53,51,51,52,49,42,41,40,37,37,41,41,38,42,41,44,42,T2 (43-80),T2 (41-89),T2 (43-92),T2 (41-80),T2 (41-81),T2 (41-80),Q2 (36-70),Q2 (36-70),Q2 (36-70),Q2 (37-71),NA,NA,NA,NA,NA,34.924676,-82.440458,Greenville,29613-6162,LAC,NA,NA,NA
Sewanee: The University of the South,TN,221519,45,45,51,51,50,47,43,49,41,47,48,45,38,36,33,32,36,41,40,34,34,33,33,29,28,25,25,24,27,29,27,T1 (26-40),Q1 (26-35),Q1 (26-35),Q1 (26-35),Q2 (37-71),NA,NA,NA,NA,NA,35.204719,-85.920179,Sewanee,37383-1000,LAC,NA,NA,NA
Hillsdale College,MI,170286,50,50,39,48,46,54,64,76,71,83,67,69,82,96,NA,88,89,98,97,T3 (111-162),104,96,97,T2 (53-112),T2 (52-114),NA,NA,NA,NA,NA,NA,NA,NA,NA,NA,NA,NA,NA,NA,NA,NA,41.933682,-84.633195,Hillsdale,49242,LAC,NA,NA,NA
St. Olaf College,MN,174844,50,50,51,63,62,67,62,61,57,53,51,54,52,55,53,51,49,47,54,55,55,62,59,T2 (53-112),T2 (52-114),T2 (52-80),T2 (43-80),T2 (41-89),T2 (43-92),T2 (41-80),T2 (41-81),T2 (41-80),Q2 (36-70),Q2 (36-70),Q2 (36-70),Q2 (37-71),NA,NA,20,NA,NA,44.461529,-93.182039,Northfield,55057-1098,LAC,NA,NA,NA
Wheaton College,IL,149781,50,53,56,63,59,61,58,61,63,62,57,56,57,56,57,55,56,56,59,61,55,51,52,T2 (53-112),T2 (52-114),42,T2 (43-80),T2 (41-89),T2 (43-92),T2 (41-80),T2 (41-81),T2 (41-80),Q2 (36-70),Q2 (36-70),Q3 (71-105),Q3 (72-106),NA,NA,NA,NA,NA,41.870176,-88.099643,Wheaton,60187-5593,LAC,NA,NA,NA
Connecticut College,CT,128902,50,55,46,55,50,51,46,46,46,50,48,45,45,41,37,41,42,42,44,39,36,35,34,29,26,27,25,24,27,26,25,T1 (26-40),Q1 (26-35),Q1 (26-35),Q1 (26-35),Q2 (37-71),NA,NA,NA,NA,NA,41.379833,-72.107321,New London,06320-4196,LAC,NA,NA,NA
Wabash College,IN,152673,50,55,59,55,57,54,53,56,65,65,61,61,57,56,53,58,54,54,52,51,51,48,50,44,48,T2 (52-80),T2 (43-80),T2 (41-89),T2 (43-92),T2 (41-80),38,T2 (41-80),Q2 (36-70),Q2 (36-70),Q2 (36-70),Q2 (37-71),NA,NA,NA,NA,NA,40.037588,-86.906,Crawfordsville,47933-0352,LAC,NA,NA,NA
Centre College,KY,156408,55,59,51,55,59,52,53,46,46,44,45,45,49,52,42,47,46,45,44,44,41,42,45,44,42,42,T2 (43-80),T2 (41-89),40,T2 (41-80),T2 (41-81),T2 (41-80),Q2 (36-70),Q2 (36-70),Q2 (36-70),Q2 (37-71),NA,NA,22,NA,NA,37.645709,-84.779392,Danville,40422-1394,LAC,NA,NA,NA
Rhodes College,TN,221351,55,59,56,55,54,54,53,51,51,44,51,54,54,52,51,47,54,49,49,45,45,45,45,41,44,38,T2 (43-80),T2 (41-89),T2 (43-92),T2 (41-80),T2 (41-81),T1 (26-40),Q2 (36-70),Q2 (36-70),Q2 (36-70),Q2 (37-71),NA,NA,NA,NA,NA,35.154405,-89.990803,Memphis,38112-1690,LAC,NA,NA,NA
Thomas Aquinas College,CA,124292,55,63,67,45,42,40,35,43,58,53,82,77,61,82,71,71,68,60,83,73,88,89,91,T2 (53-112),T2 (52-114),NA,NA,T2 (41-89),T2 (43-92),T2 (41-80),T3 (82-121),T3 (81-120),NA,NA,NA,NA,NA,NA,NA,NA,NA,34.429009,-119.087141,Santa Paula,93060,LAC,NA,NA,NA
DePauw University,IN,150400,58,50,46,45,46,47,46,56,53,53,51,51,54,54,53,51,43,49,49,48,49,42,40,39,40,39,T2 (43-80),T2 (41-89),T2 (43-92),T2 (41-80),T2 (41-81),T2 (41-80),Q2 (36-70),Q2 (36-70),Q2 (36-70),Q2 (37-71),NA,NA,NA,NA,NA,39.640904,-86.860363,Greencastle,46135-1772,LAC,NA,NA,NA
Whitman College,WA,237057,58,53,46,48,38,47,46,43,41,41,40,37,41,43,42,38,36,37,37,36,36,35,34,40,38,33,35,36,40,T2 (41-80),T2 (41-81),T2 (41-80),Q2 (36-70),Q2 (36-70),Q2 (36-70),Q3 (72-106),NA,NA,NA,NA,NA,46.069815,-118.331546,Walla Walla,99362,LAC,NA,NA,NA
Oberlin College and Conservatory,OH,204501,58,55,51,39,37,36,33,30,26,24,23,23,25,26,25,23,22,20,20,22,23,23,24,23,22,23,25,24,22,24,22,19,21,20,15,14,9,11,5,6,5,41.291992,-82.216795,Oberlin,44074,LAC,NA,NA,NA
Gettysburg College,PA,212674,58,55,63,61,54,54,53,49,46,51,48,50,50,46,47,47,49,49,48,45,47,45,45,44,48,T2 (52-80),T2 (43-80),T2 (41-89),T2 (43-92),T2 (41-80),T2 (41-81),T2 (41-80),Q2 (36-70),Q2 (36-70),Q2 (36-70),Q1 (26-36),NA,NA,NA,NA,NA,39.836597,-77.236792,Gettysburg,17325,LAC,NA,NA,NA
St. Lawrence University,NY,195216,58,59,59,68,57,54,58,56,58,53,60,56,56,56,53,55,56,58,56,57,61,62,62,T2 (53-112),T2 (52-114),T2 (52-80),T2 (43-80),T2 (41-89),T2 (43-92),T2 (41-80),T2 (41-81),T2 (41-80),Q2 (36-70),Q2 (36-70),Q2 (36-70),Q2 (37-71),NA,NA,NA,NA,NA,44.589879,-75.161343,Canton,13617,LAC,NA,NA,NA
Reed College,OR,209922,63,63,67,72,62,63,68,90,82,87,93,77,74,75,57,54,49,54,54,52,47,53,56,T2 (53-112),T2 (52-114),T2 (52-80),T2 (43-80),T2 (41-89),T2 (43-92),37,T4 (122-161),T2 (41-80),Q2 (36-70),Q2 (36-70),Q2 (36-70),Q2 (37-71),NA,NA,12,11,9,45.480959,-122.630348,Portland,97202-8199,LAC,NA,NA,NA
Principia College,IL,148016,63,66,51,51,59,93,100,81,112,115,127,139,107,121,112,127,T3 (127-191),T3 (125-189),85,86,84,96,91,T2 (53-112),T2 (52-114),NA,NA,NA,NA,NA,NA,NA,Q4 (106-140),Q4 (106-140),Q3 (71-105),Q3 (72-106),NA,NA,NA,NA,NA,38.948835,-90.350285,Elsah,62028-9799,LAC,NA,NA,NA
Virginia Military Institute,VA,234085,65,59,63,70,67,69,72,81,65,72,82,64,65,70,71,62,62,71,71,86,73,77,70,T2 (53-112),T2 (52-114),T3 (81-120),T3 (81-121),T3 (90-122),T3 (93-127),T3 (81-120),T3 (82-121),T3 (81-120),Q3 (71-105),Q3 (71-105),Q2 (36-70),Q2 (37-71),NA,NA,NA,NA,NA,37.7896,-79.437067,Lexington,24450-0304,LAC,NA,NA,NA
Lawrence University,WI,239017,65,69,75,63,62,63,58,56,58,60,57,59,59,56,60,67,59,56,56,52,53,53,52,50,48,42,40,T2 (41-89),40,T2 (41-80),T2 (41-81),T1 (26-40),Q2 (36-70),Q2 (36-70),Q2 (36-70),Q2 (37-71),NA,NA,NA,NA,NA,44.261323,-88.397822,Appleton,54911,LAC,NA,NA,NA
Agnes Scott College,GA,138600,67,63,63,63,66,61,58,51,61,70,67,73,89,75,68,67,59,60,63,61,55,53,50,T2 (53-112),T2 (52-114),T2 (52-80),T2 (43-80),T2 (41-89),T2 (43-92),T2 (41-80),T2 (41-81),T2 (41-80),Q2 (36-70),Q2 (36-70),Q2 (36-70),Q2 (37-71),NA,NA,NA,NA,NA,33.769268,-84.295459,Decatur,30030-3770,LAC,NA,NA,NA
Wofford College,SC,218973,67,66,59,70,67,69,72,72,71,77,82,77,65,63,64,62,62,60,59,57,55,66,66,T2 (53-112),T2 (52-114),T2 (52-80),T2 (43-80),T2 (41-89),T2 (43-92),T3 (81-120),T2 (41-81),T2 (41-80),NA,NA,NA,NA,NA,NA,NA,NA,NA,34.959411,-81.933568,Spartanburg,29303-3663,LAC,NA,NA,NA
Kalamazoo College,MI,170532,67,69,70,68,71,67,72,65,76,68,66,64,61,68,68,71,68,60,67,57,55,53,66,T2 (53-112),T2 (52-114),T2 (52-80),T2 (43-80),T2 (41-89),T2 (43-92),T2 (41-80),T2 (41-81),T2 (41-80),Q2 (36-70),Q2 (36-70),Q2 (36-70),Q2 (37-71),NA,NA,NA,NA,NA,42.290789,-85.601857,Kalamazoo,49006-3295,LAC,NA,NA,NA
Gustavus Adolphus College,MN,173647,70,66,67,81,79,84,89,90,85,77,79,64,76,85,81,79,80,88,NA,79,73,77,70,T2 (53-112),T2 (52-114),T2 (52-80),T2 (43-80),T2 (41-89),T2 (43-92),T2 (41-80),T2 (41-81),T2 (41-80),Q3 (71-105),Q2 (36-70),Q3 (71-105),Q3 (72-106),NA,NA,NA,NA,NA,44.323626,-93.972196,Saint Peter,56082-1498,LAC,NA,NA,NA
Bard College,NY,189088,70,71,63,60,62,54,62,56,46,49,45,45,38,36,51,38,40,37,37,36,39,35,30,36,38,39,40,39,37,40,T2 (41-81),T1 (26-40),Q2 (36-70),Q2 (36-70),Q2 (36-70),Q2 (37-71),NA,NA,NA,NA,NA,42.020386,-73.909927,Annandale-On-Hudson,12504-5000,LAC,NA,NA,NA
Muhlenberg College,PA,214175,70,71,70,76,67,72,72,81,71,65,72,64,65,70,81,75,68,71,71,74,73,70,70,T2 (53-112),T2 (52-114),T2 (52-80),T2 (43-80),T2 (41-89),T2 (43-92),T3 (81-120),T2 (41-81),T3 (81-120),Q3 (71-105),Q3 (71-105),Q2 (36-70),Q3 (72-106),NA,NA,NA,NA,NA,40.596416,-75.508501999999993,Allentown,18104,LAC,NA,NA,NA
College of St. Benedict,MN,174747,73,71,73,94,92,96,82,86,87,87,90,89,94,96,90,81,80,84,106,95,88,101,97,T2 (53-112),T2 (52-114),T3 (81-120),T3 (81-121),T3 (90-122),T3 (93-127),T3 (81-120),T4 (122-161),T4 (121-160),NA,NA,NA,NA,NA,NA,NA,NA,NA,45.561792,-94.319888,Saint Joseph,56374,LAC,NA,NA,NA
Hobart and William Smith Colleges,NY,191630,73,74,70,72,75,72,72,68,65,65,61,61,61,60,64,67,68,68,63,65,61,68,70,T2 (53-112),T2 (52-114),T3 (81-120),T2 (43-80),T2 (41-89),T2 (43-92),T2 (41-80),T2 (41-81),T2 (41-80),Q2 (36-70),Q2 (36-70),Q2 (36-70),Q2 (37-71),NA,NA,NA,NA,NA,42.858131,-76.985516,Geneva,14456,LAC,NA,NA,NA
Lake Forest College,IL,146481,75,77,73,85,82,84,92,103,101,108,108,120,110,100,99,105,97,94,97,95,T3 (111-164),105,97,T2 (53-112),T2 (52-114),T3 (81-120),T3 (81-121),T3 (90-122),T2 (43-92),T2 (41-80),T2 (41-81),T2 (41-80),Q2 (36-70),Q2 (36-70),Q2 (36-70),Q2 (37-71),NA,NA,NA,NA,NA,42.249574,-87.827454,Lake Forest,60045-2338,LAC,NA,NA,NA
Wheaton College,MA,168281,76,74,75,89,85,84,82,86,76,77,67,69,65,60,62,59,58,58,56,55,66,62,63,T2 (53-112),T2 (52-114),T2 (52-80),T2 (43-80),T2 (41-89),T2 (43-92),T2 (41-80),T2 (41-81),T2 (41-80),Q3 (71-105),Q2 (36-70),Q2 (36-70),Q2 (37-71),NA,NA,NA,NA,NA,41.966637,-71.183979,Norton,02766-2322,LAC,NA,NA,NA
Earlham College,IN,150455,76,74,100,81,92,84,80,81,68,68,61,73,65,82,68,75,62,67,69,65,69,70,63,T2 (53-112),T2 (52-114),T2 (52-80),T2 (43-80),T2 (41-89),T2 (43-92),T2 (41-80),T2 (41-81),T2 (41-80),Q2 (36-70),Q2 (36-70),Q2 (36-70),Q2 (37-71),NA,NA,16,11,NA,39.823431,-84.915037,Richmond,47374-4095,LAC,NA,NA,NA
College of Wooster,OH,206589,76,77,75,76,71,69,66,67,63,62,61,69,65,63,71,71,68,77,71,65,68,59,59,T2 (53-112),T2 (52-114),T2 (52-80),T2 (43-80),T2 (41-89),T2 (43-92),T2 (41-80),T2 (41-81),T2 (41-80),Q3 (71-105),Q2 (36-70),Q2 (36-70),Q2 (37-71),NA,NA,NA,NA,NA,40.81046,-81.934674,Wooster,44691,LAC,NA,NA,NA
Willamette University,OR,210401,76,77,75,76,71,72,68,76,82,72,67,64,61,63,57,59,62,60,63,65,61,51,56,50,T2 (52-114),50,T2 (43-80),T2 (41-89),T2 (43-92),T2 (41-80),T2 (41-81),T2 (41-80),Q2 (36-70),Q3 (71-105),Q3 (71-105),Q3 (72-106),NA,NA,NA,NA,NA,44.935457,-123.030537,Salem,97301,LAC,NA,NA,NA
Allegheny College,PA,210669,76,80,75,76,85,80,82,76,82,77,72,81,82,82,86,93,85,94,85,82,88,83,88,T2 (53-112),T2 (52-114),T2 (52-80),T2 (43-80),T2 (41-89),T2 (43-92),T2 (41-80),T2 (41-81),T2 (41-80),Q2 (36-70),Q3 (71-105),Q3 (71-105),Q3 (72-106),NA,NA,NA,NA,NA,41.64869,-80.147168,Meadville,16335-3902,LAC,NA,NA,NA
Knox College,IL,146427,76,83,75,72,79,72,66,68,71,77,72,81,82,75,71,75,80,88,80,79,73,77,78,T2 (53-112),T2 (52-114),T2 (52-80),T2 (43-80),T2 (41-89),T2 (43-92),T2 (41-80),T2 (41-81),T2 (41-80),Q2 (36-70),Q2 (36-70),Q3 (71-105),Q2 (37-71),NA,NA,NA,NA,NA,40.943064,-90.373165,Galesburg,61401,LAC,NA,NA,NA
St. John's University,MN,174792,82,80,82,94,105,102,92,95,85,77,79,73,76,75,71,62,68,71,75,69,69,77,81,T2 (53-112),T2 (52-114),T3 (81-120),T3 (81-121),T3 (90-122),T3 (93-127),T3 (81-120),T3 (82-121),T3 (81-120),Q4 (106-140),Q4 (106-140),Q4 (106-140),Q3 (72-106),NA,NA,NA,NA,NA,45.580075,-94.393621,Collegeville,56321,LAC,NA,NA,NA
Stonehill College,MA,167996,82,83,86,89,98,113,124,124,111,108,116,105,115,100,112,105,112,115,106,NA,NA,NA,NA,NA,NA,NA,NA,NA,NA,NA,NA,NA,NA,NA,NA,NA,NA,NA,NA,NA,NA,42.05905,-71.080632,Easton,02357-6110,LAC,NA,NA,NA
Saint Mary's College,IN,152390,84,80,82,100,105,96,102,95,101,95,82,96,76,87,90,93,97,104,91,NA,NA,NA,NA,NA,NA,NA,NA,NA,NA,NA,NA,NA,NA,NA,NA,NA,NA,NA,NA,NA,NA,41.707274,-86.256947,Notre Dame,46556,LAC,NA,NA,NA
St. John's College,MD,163976,84,83,75,61,67,63,64,61,53,53,55,56,123,133,139,177,T3 (127-191),T3 (125-189),T3 (126-184),T3 (111-162),T3 (111-164),T3 (111-162),T3 (111-161),T3 (113-161),T2 (52-114),T3 (81-120),T3 (81-121),T2 (41-89),T2 (43-92),T2 (41-80),T3 (82-121),T2 (41-80),Q2 (36-70),Q2 (36-70),Q2 (36-70),Q2 (37-71),NA,NA,19,NA,NA,38.981598,-76.491359,Annapolis,21401,LAC,NA,NA,NA
Ursinus College,PA,216524,84,83,86,89,85,84,82,90,93,95,93,NA,82,75,71,71,77,81,69,69,71,70,70,T2 (53-112),T2 (52-114),T2 (52-80),T2 (43-80),T2 (41-89),T2 (43-92),T3 (81-120),T2 (41-81),T3 (81-120),Q3 (71-105),Q3 (71-105),Q3 (71-105),Q3 (72-106),NA,NA,NA,NA,NA,40.193023,-75.456505,Collegeville,19426-1000,LAC,NA,NA,NA
Southwestern University,TX,228343,84,83,89,85,98,102,92,90,96,95,90,87,65,60,71,62,61,68,59,57,61,62,52,T2 (53-112),T2 (52-114),T2 (52-80),T2 (43-80),T2 (41-89),T2 (43-92),T2 (41-80),T2 (41-81),T3 (81-120),NA,NA,NA,NA,NA,NA,NA,NA,NA,30.634341,-97.665738,Georgetown,78626,LAC,NA,NA,NA
Austin College,TX,222983,84,83,93,107,111,102,117,103,93,105,79,89,82,63,64,81,68,71,75,74,73,70,78,T2 (53-112),T2 (52-114),T3 (81-120),T2 (43-80),T2 (41-89),T2 (43-92),T3 (81-120),T3 (82-121),T3 (81-120),Q3 (71-105),Q3 (71-105),Q3 (71-105),Q3 (72-106),NA,NA,NA,NA,NA,33.646345,-96.596331,Sherman,75090-4400,LAC,NA,NA,NA
Drew University,NJ,184348,84,83,93,111,117,113,117,116,112,108,112,99,107,100,94,79,68,71,63,69,66,59,59,T2 (53-112),T2 (52-114),T2 (52-80),T2 (43-80),T2 (41-89),T2 (43-92),T2 (41-80),T2 (41-81),T2 (41-80),Q2 (36-70),Q2 (36-70),Q2 (36-70),Q3 (72-106),NA,NA,NA,NA,NA,40.761829,-74.424584,Madison,07940,LAC,NA,NA,NA
Washington and Jefferson College,PA,216667,84,90,89,94,92,96,92,103,106,99,100,96,97,90,102,101,92,104,106,104,94,83,91,T2 (53-112),T2 (52-114),T3 (81-120),T3 (81-121),T2 (41-89),T3 (93-127),T3 (81-120),T3 (82-121),T2 (41-80),Q3 (71-105),Q3 (71-105),Q3 (71-105),Q3 (72-106),NA,NA,NA,NA,NA,40.170622,-80.24049,Washington,15301,LAC,NA,NA,NA
Hope College,MI,170301,84,90,100,102,111,112,105,103,106,108,100,99,100,100,94,88,92,88,97,95,94,96,91,T2 (53-112),T2 (52-114),T3 (81-120),T3 (81-121),T2 (41-89),T3 (93-127),T3 (81-120),T2 (41-81),T3 (81-120),Q3 (71-105),Q3 (71-105),Q3 (71-105),Q3 (72-106),NA,NA,NA,NA,NA,42.787247,-86.100971,Holland,49423-9000,LAC,NA,NA,NA
Juniata College,PA,213251,92,90,82,89,75,84,82,86,106,108,105,105,100,100,102,81,85,98,97,95,100,101,106,T2 (53-112),T2 (52-114),T3 (81-120),T3 (81-121),T3 (90-122),T3 (93-127),T3 (81-120),T3 (82-121),T3 (81-120),Q3 (71-105),Q3 (71-105),Q3 (71-105),Q3 (72-106),NA,NA,NA,NA,NA,40.500523,-78.017292,Huntingdon,16652-2196,LAC,NA,NA,NA
Beloit College,WI,238333,92,95,86,81,75,80,82,68,76,62,61,61,59,63,60,55,62,60,67,61,61,53,52,T2 (53-112),48,47,T2 (43-80),T2 (41-89),T2 (43-92),T2 (41-80),T2 (41-81),T2 (41-80),Q2 (36-70),Q3 (71-105),Q3 (71-105),Q3 (72-106),NA,NA,NA,NA,NA,42.504022,-89.029285,Beloit,53511-5595,LAC,NA,NA,NA
Washington College,MD,164216,92,95,93,85,98,96,105,108,96,99,100,105,107,96,110,93,112,94,97,T3 (111-162),104,89,97,T2 (53-112),T3 (115-162),T3 (81-120),T3 (81-121),T3 (90-122),T3 (93-127),T3 (81-120),T3 (82-121),T3 (81-120),Q3 (71-105),Q3 (71-105),Q3 (71-105),Q3 (72-106),NA,NA,NA,NA,NA,39.217329,-76.06878,Chestertown,21620-1438,LAC,NA,NA,NA
Whittier College,CA,125763,92,95,93,107,114,102,105,108,128,132,127,133,126,145,133,137,T3 (127-191),T3 (125-189),T3 (126-184),T3 (111-162),T3 (111-164),T3 (111-162),T3 (111-161),T3 (113-161),T3 (115-162),T3 (81-120),T3 (81-121),T3 (90-122),T3 (93-127),T4 (121-160),T3 (82-121),T3 (81-120),NA,NA,NA,NA,NA,NA,NA,NA,NA,33.978773,-118.032299,Whittier,90601,LAC,NA,NA,NA
Saint Anselm College,NH,183239,96,90,89,111,105,102,114,95,106,115,112,120,120,130,139,122,T3 (127-191),T3 (125-189),T3 (126-184),T3 (111-162),T3 (111-164),T3 (111-162),T3 (111-161),T3 (113-161),T3 (115-162),NA,NA,NA,NA,NA,NA,NA,NA,NA,NA,NA,NA,NA,NA,NA,NA,42.986889,-71.503622,Manchester,03102-1310,LAC,NA,NA,NA
University of Puget Sound,WA,236328,96,95,89,85,85,84,89,72,68,70,72,81,76,85,81,81,80,81,80,82,81,77,81,T2 (53-112),T2 (52-114),T2 (52-80),T3 (81-121),T2 (41-89),T2 (43-92),T3 (81-120),T3 (82-121),T2 (41-80),NA,NA,NA,NA,NA,NA,NA,NA,NA,47.26308,-122.478982,Tacoma,98416,LAC,NA,NA,NA
Morehouse College,GA,140553,96,95,100,124,128,155,154,143,160,159,148,133,126,124,127,127,T3 (127-191),T3 (125-189),T3 (126-184),T3 (111-162),T3 (111-164),T3 (111-162),T3 (111-161),T3 (113-161),T3 (115-162),T4 (121-162),T4 (122-161),T4 (123-162),T3 (93-127),T3 (81-120),T3 (82-121),NA,NA,NA,NA,NA,NA,NA,NA,NA,NA,33.745982,-84.414917,Atlanta,30314,LAC,NA,NA,NA
St. Mary's College of Maryland,MD,163912,96,100,82,89,89,80,92,95,96,99,93,89,89,87,90,88,92,84,87,95,84,87,78,T2 (53-112),T2 (52-114),T2 (52-80),T2 (43-80),T2 (41-89),T2 (43-92),T2 (41-80),T3 (82-121),T3 (81-120),NA,NA,NA,NA,NA,NA,NA,NA,NA,38.188047,-76.430994,St. Mary's City,20686,LAC,NA,NA,NA
Augustana College,IL,143084,96,100,100,94,92,96,92,95,101,99,105,105,100,96,86,88,97,88,91,104,94,89,88,T2 (53-112),T2 (52-114),T3 (81-120),T3 (81-121),T2 (41-89),T2 (43-92),T3 (81-120),T3 (82-121),T3 (81-120),Q3 (71-105),Q4 (106-140),Q4 (106-140),Q3 (72-106),NA,NA,NA,NA,NA,41.502365,-90.55057,Rock Island,61201-2296,LAC,NA,NA,NA
Lycoming College,PA,213668,96,100,107,111,124,120,117,131,147,154,164,159,161,156,151,144,T3 (127-191),T3 (125-189),T3 (126-184),T3 (111-162),T3 (111-164),T3 (111-162),T3 (111-161),T3 (113-161),T3 (115-162),NA,NA,NA,NA,NA,NA,NA,NA,NA,NA,NA,NA,NA,NA,NA,NA,41.24666,-77,Williamsport,17701-5192,LAC,NA,NA,NA
Lewis & Clark College,OR,209056,96,103,93,94,82,76,72,68,76,87,72,77,74,70,71,75,79,71,80,79,81,77,85,T2 (53-112),T2 (52-114),T3 (81-120),T3 (81-121),T2 (41-89),T2 (43-92),T3 (81-120),T2 (41-81),T3 (81-120),Q2 (36-70),Q3 (71-105),Q3 (71-105),Q3 (72-106),NA,NA,NA,NA,NA,45.450882,-122.669137,Portland,97219-7899,LAC,NA,NA,NA
Randolph-Macon College,VA,233295,96,103,107,107,111,102,111,120,126,132,125,124,134,112,127,131,T3 (127-191),T3 (125-189),122,104,104,105,97,T3 (113-161),T2 (52-114),T3 (81-120),T3 (81-121),T3 (90-122),T3 (93-127),T3 (81-120),T3 (82-121),T4 (121-160),Q4 (106-140),Q3 (71-105),Q3 (71-105),Q3 (72-106),NA,NA,NA,NA,NA,37.76043,-77.478416,Ashland,23005-5505,LAC,NA,NA,NA
Susquehanna University,PA,216278,96,103,107,111,117,113,117,135,141,132,120,116,115,124,116,114,112,115,106,104,T3 (111-164),T3 (111-162),T3 (111-161),T3 (113-161),T3 (115-162),NA,NA,NA,NA,NA,NA,NA,NA,NA,NA,NA,NA,NA,NA,NA,NA,40.797502,-76.875329,Selinsgrove,17870-1025,LAC,NA,NA,NA
St. John's College,NM,245652,96,114,93,63,75,76,72,72,76,83,100,89,NA,NA,NA,187,122,122,T3 (126-184),T3 (111-162),T3 (111-164),T3 (111-162),T3 (111-161),T3 (113-161),T3 (115-162),T4 (121-162),T3 (81-121),T3 (90-122),T2 (43-92),T2 (41-80),T2 (41-81),T3 (81-120),Q3 (71-105),Q3 (71-105),Q2 (36-70),Q2 (37-71),NA,NA,NA,NA,NA,35.666974,-105.912478,Santa Fe,87505-4599,LAC,NA,NA,NA
Hendrix College,AR,107080,96,114,112,102,98,93,92,76,76,72,82,81,82,70,86,81,80,77,71,69,73,70,70,T2 (53-112),T2 (52-114),T3 (81-120),T3 (81-121),T3 (90-122),T2 (43-92),T3 (81-120),T2 (41-81),T2 (41-80),Q3 (71-105),Q3 (71-105),Q3 (71-105),Q3 (72-106),NA,NA,NA,NA,NA,35.101565,-92.443256,Conway,72032-3080,LAC,NA,NA,NA
Hampden-Sydney College,VA,232256,107,103,116,94,98,102,111,113,96,105,108,105,97,108,94,111,97,98,106,104,104,T3 (111-162),106,T3 (113-161),T2 (52-114),T3 (81-120),T3 (81-121),T3 (90-122),T3 (93-127),T2 (41-80),T3 (82-121),T3 (81-120),Q3 (71-105),Q3 (71-105),Q3 (71-105),Q2 (37-71),NA,NA,NA,NA,NA,37.240615,-78.464216,Hampden-Sydney,23943-0128,LAC,NA,NA,NA
Patrick Henry College,VA,451927,107,136,NA,NA,NA,NA,NA,NA,NA,NA,NA,NA,NA,NA,NA,NA,NA,NA,NA,NA,NA,NA,NA,NA,NA,NA,NA,NA,NA,NA,NA,NA,NA,NA,NA,NA,NA,NA,NA,NA,NA,39.138687,-77.690939,Purcellville,20132,LAC,NA,NA,NA
Sarah Lawrence College,NY,195304,109,108,100,72,71,63,68,65,53,59,57,59,NA,NA,NA,NA,NA,NA,NA,45,49,48,48,49,40,50,38,36,35,29,35,T1 (26-40),Q2 (36-70),Q1 (26-35),Q1 (26-35),Q2 (37-71),NA,NA,NA,NA,NA,40.9355,-73.843727,Bronxville,10708,LAC,NA,NA,NA
Transylvania University,KY,157818,109,108,121,102,92,84,72,76,87,83,82,81,76,75,81,88,85,77,87,95,104,105,97,T2 (53-112),T2 (52-114),T3 (81-120),T3 (81-121),T2 (41-89),T3 (93-127),T3 (81-120),T3 (82-121),T3 (81-120),NA,NA,NA,NA,NA,NA,NA,NA,NA,38.052983,-84.493202,Lexington,40508-1797,LAC,NA,NA,NA
St. Norbert College,WI,239716,111,90,93,111,117,130,145,127,134,132,127,123,134,138,127,127,T3 (127-191),T3 (125-189),T3 (126-184),NA,NA,NA,NA,NA,NA,NA,NA,NA,NA,NA,NA,NA,NA,NA,NA,NA,NA,NA,NA,NA,NA,44.44483,-88.067812,De Pere,54115-2099,LAC,NA,NA,NA
Linfield College,OR,209065,111,108,107,120,117,120,117,108,117,128,120,124,123,112,121,105,118,118,122,NA,NA,NA,NA,NA,NA,NA,NA,NA,NA,NA,NA,NA,NA,NA,NA,NA,NA,NA,NA,NA,NA,45.201173,-123.199642,McMinnville,97128-6894,LAC,NA,NA,NA
Luther College,IA,153834,111,108,116,107,105,102,100,89,87,90,90,89,94,100,86,81,89,88,97,95,T3 (111-164),101,106,T2 (53-112),T2 (52-114),T3 (81-120),T3 (81-121),T3 (90-122),T3 (93-127),T3 (81-120),T3 (82-121),T3 (81-120),Q3 (71-105),Q3 (71-105),Q4 (106-140),Q4 (107-141),NA,NA,NA,NA,NA,43.312304,-91.802809,Decorah,52101-1045,LAC,NA,NA,NA
Illinois College,IL,145691,111,114,124,130,146,140,136,143,138,128,136,155,156,156,133,158,T3 (127-191),T3 (125-189),T3 (126-184),NA,NA,NA,NA,NA,NA,T4 (121-162),T4 (122-161),T4 (123-162),T4 (128-158),T4 (121-160),T4 (122-161),T4 (121-160),NA,NA,NA,NA,NA,NA,NA,NA,NA,39.7313,-90.246171,Jacksonville,62650-2299,LAC,NA,NA,NA
Hanover College,IN,150756,115,103,112,102,98,102,105,113,112,122,116,113,115,112,116,114,105,98,91,86,94,89,90,T2 (53-112),T2 (52-114),T4 (121-162),T3 (81-121),T3 (90-122),T3 (93-127),T3 (81-120),T3 (82-121),T4 (121-160),Q3 (71-105),Q3 (71-105),Q3 (71-105),Q3 (72-106),NA,NA,NA,NA,NA,38.715642,-85.460051000000007,Hanover,47243,LAC,NA,NA,NA
Westmont College,CA,125727,115,108,107,124,114,113,117,108,96,99,93,96,94,90,90,99,92,111,106,104,104,T3 (111-162),97,T3 (113-161),T3 (115-162),T3 (81-120),T4 (122-161),T4 (123-162),T4 (128-158),T4 (121-160),T3 (82-121),T3 (81-120),Q4 (106-140),Q4 (106-140),Q4 (106-140),Q4 (107-141),NA,NA,NA,NA,NA,34.450151,-119.662517,Santa Barbara,93108-1089,LAC,NA,NA,NA
Massachusetts College of Liberal Arts,MA,167288,115,119,121,130,128,149,140,162,T2 (173-229),T2 (179-232),T2 (177-235),165,176,T2 (182-240),178,T2 (190-250),T3 (127-191),T4 (190-248),T4 (187-248),T4 (163-213),T4 (165-215),T4 (163-215),T4 (162-214),T4 (162-214),T4 (163-214),NA,NA,NA,NA,NA,NA,NA,NA,NA,NA,NA,NA,NA,NA,NA,NA,42.691361,-73.102817,North Adams,01247-4100,LAC,NA,NA,NA
Saint Michael's College,VT,231059,115,122,116,119,126,120,124,116,106,99,105,99,89,90,99,93,105,104,106,NA,NA,NA,NA,NA,NA,NA,NA,NA,NA,NA,NA,NA,NA,NA,NA,NA,NA,NA,NA,NA,NA,44.494558,-73.167069,Colchester,05439,LAC,NA,NA,NA
University of Minnesota Morris,MN,174251,115,122,130,136,141,140,148,155,141,140,136,139,154,161,144,152,T3 (127-191),T3 (125-189),T3 (126-184),T3 (111-162),T3 (111-164),T3 (111-162),T3 (111-161),T3 (113-161),T3 (115-162),T4 (121-162),T4 (122-161),T4 (123-162),T4 (128-158),T4 (121-160),T4 (122-161),T3 (81-120),NA,NA,NA,NA,NA,NA,NA,NA,NA,45.589775,-95.899729,Morris,56267,LAC,NA,NA,NA
Meredith College,NC,198950,115,126,130,130,136,136,148,162,163,154,NA,NA,NA,NA,NA,180,T3 (127-191),T3 (125-189),T3 (126-184),NA,NA,NA,NA,NA,NA,NA,NA,NA,NA,NA,NA,NA,NA,NA,NA,NA,NA,NA,NA,NA,NA,35.799351,-78.689995,Raleigh,27607-5298,LAC,NA,NA,NA
Westminster College,PA,216807,121,108,112,124,117,120,114,120,128,119,125,116,115,124,121,119,122,122,T3 (126-184),T3 (111-162),T3 (111-164),T3 (111-162),T3 (111-161),T2 (53-112),T3 (115-162),T3 (81-120),T3 (81-121),T4 (123-162),T4 (128-158),T4 (121-160),T4 (122-161),T4 (121-160),NA,NA,NA,NA,NA,NA,NA,NA,NA,41.119272,-80.331017,New Wilmington,16172,LAC,NA,NA,NA
Bennington College,VT,230816,121,114,112,84,79,76,89,95,87,90,93,89,100,100,102,122,112,104,106,91,100,96,70,T2 (53-112),T2 (52-114),T3 (81-120),T4 (122-161),T3 (90-122),T2 (43-92),T3 (81-120),T3 (82-121),T3 (81-120),Q3 (71-105),Q3 (71-105),Q2 (36-70),Q2 (37-71),NA,NA,NA,NA,NA,42.919547,-73.237799,Bennington,05201-6003,LAC,NA,NA,NA
Saint Vincent College,PA,215798,121,114,124,120,146,140,132,152,147,149,154,NA,NA,NA,NA,NA,NA,NA,NA,NA,NA,NA,NA,NA,NA,NA,NA,NA,NA,NA,NA,NA,NA,NA,NA,NA,NA,NA,NA,NA,NA,40.29265,-79.403762,Latrobe,15650-2690,LAC,NA,NA,NA
Ohio Wesleyan University,OH,204909,121,119,116,111,98,93,92,95,101,95,108,99,100,108,102,105,105,111,97,95,100,89,97,T2 (53-112),T2 (52-114),T3 (81-120),T3 (81-121),T3 (90-122),T2 (43-92),T2 (41-80),T2 (41-81),T2 (41-80),NA,NA,NA,NA,NA,NA,NA,NA,NA,40.295963,-83.069757,Delaware,43015-2370,LAC,NA,NA,NA
Cornell College,IA,153162,121,132,116,100,89,76,68,81,87,90,93,105,97,90,94,81,85,88,97,T3 (111-162),T3 (111-164),T3 (111-162),T3 (111-161),T2 (53-112),T3 (115-162),T3 (81-120),T3 (81-121),T3 (90-122),T3 (93-127),T3 (81-120),T3 (82-121),T3 (81-120),Q3 (71-105),Q3 (71-105),Q3 (71-105),Q3 (72-106),NA,NA,NA,NA,NA,41.924554,-91.423741,Mount Vernon,52314-1098,LAC,NA,NA,NA
Covenant College,GA,139393,126,119,135,147,146,140,148,168,168,159,NA,NA,NA,NA,NA,NA,NA,NA,NA,NA,NA,NA,NA,NA,NA,NA,NA,NA,NA,NA,NA,NA,NA,NA,NA,NA,NA,NA,NA,NA,NA,34.965161,-85.375066,Lookout Mountain,30750-4164,LAC,NA,NA,NA
Roanoke College,VA,233426,126,122,130,120,128,130,130,135,138,140,143,133,126,133,133,158,T3 (127-191),T3 (125-189),T3 (126-184),T3 (111-162),T3 (111-164),T3 (111-162),T3 (111-161),T3 (113-161),T3 (115-162),NA,NA,NA,NA,NA,NA,NA,NA,NA,NA,NA,NA,NA,NA,NA,NA,37.294861,-80.055467,Salem,24153-3794,LAC,NA,NA,NA
Goucher College,MD,162654,126,126,124,111,117,120,111,116,112,113,112,105,110,110,121,111,105,111,91,91,94,96,91,T2 (53-112),T2 (52-114),T3 (81-120),T3 (81-121),T3 (90-122),T3 (93-127),T3 (81-120),T3 (82-121),T2 (41-80),Q2 (36-70),Q2 (36-70),Q3 (71-105),Q3 (72-106),NA,NA,NA,NA,NA,39.410175,-76.594843,Baltimore,21204-2794,LAC,NA,NA,NA
Coe College,IA,153144,126,136,130,142,136,130,130,124,123,119,116,120,120,112,102,101,97,98,106,95,T3 (111-164),105,T3 (111-161),T2 (53-112),T2 (52-114),T3 (81-120),T3 (81-121),T4 (123-162),T3 (93-127),T3 (81-120),T3 (82-121),T3 (81-120),Q3 (71-105),Q3 (71-105),Q3 (71-105),Q3 (72-106),NA,NA,NA,NA,NA,41.988263,-91.658192,Cedar Rapids,52402-5092,LAC,NA,NA,NA
College of the Atlantic,ME,160959,126,136,156,NA,92,101,82,95,93,83,82,99,93,90,116,131,T3 (127-191),T3 (125-189),T3 (126-184),T3 (111-162),T3 (111-164),T3 (111-162),T4 (162-214),T4 (162-214),T3 (115-162),NA,NA,NA,NA,T4 (121-160),T4 (122-161),T4 (121-160),NA,NA,NA,NA,NA,NA,NA,NA,NA,44.395258,-68.221517,Bar Harbor,04609,LAC,NA,NA,NA
Albion College,MI,168546,131,126,124,136,128,130,140,152,128,122,100,99,100,112,102,111,97,104,116,91,84,83,85,T2 (53-112),T2 (52-114),T3 (81-120),T3 (81-121),T3 (90-122),T3 (93-127),T3 (81-120),T2 (41-81),T2 (41-80),Q3 (71-105),Q3 (71-105),Q3 (71-105),Q3 (72-106),NA,NA,NA,NA,NA,42.245049,-84.745639,Albion,49224,LAC,NA,NA,NA
Central College,IA,153108,131,126,135,145,136,140,160,141,128,132,136,139,134,151,144,144,122,122,T3 (126-184),NA,NA,NA,NA,NA,NA,T4 (121-162),T4 (122-161),T4 (123-162),T3 (93-127),T4 (121-160),T4 (122-161),T4 (121-160),NA,NA,NA,NA,NA,NA,NA,NA,NA,41.401539,-92.922199,Pella,50219,LAC,NA,NA,NA
University of Mary Washington,VA,232681,131,132,154,149,NA,NA,NA,NA,NA,NA,NA,NA,NA,NA,NA,NA,NA,NA,NA,NA,NA,NA,NA,T3 (113-161),T3 (115-162),NA,NA,NA,NA,NA,NA,NA,NA,NA,NA,NA,NA,NA,NA,NA,NA,38.302492,-77.476055,Fredericksburg,22401-5300,LAC,NA,NA,NA
State University of New York at Purchase College,NY,196219,131,136,139,136,155,155,T2 (164-215),172,T2 (173-229),T2 (179-232),171,171,156,175,177,187,T4 (192-249),T4 (190-248),T4 (187-248),NA,NA,NA,NA,NA,NA,NA,NA,NA,NA,NA,NA,NA,Q4 (106-140),Q4 (106-140),Q4 (106-140),Q4 (107-141),NA,NA,NA,NA,NA,41.047223,-73.701955,Purchase,10577-1400,LAC,NA,NA,NA
New College of Florida,FL,262129,135,122,100,76,82,84,102,90,101,90,82,87,89,87,94,99,97,94,87,86,88,NA,NA,NA,NA,NA,NA,NA,NA,NA,NA,NA,NA,NA,NA,NA,NA,NA,NA,NA,NA,27.384925,-82.55858,Sarasota,34243-2109,LAC,NA,NA,NA
Eckerd College,FL,133492,135,126,130,130,128,136,140,135,128,122,127,124,141,138,144,137,T3 (127-191),T3 (125-189),T3 (126-184),T3 (111-162),T3 (111-164),T3 (111-162),T3 (111-161),T3 (113-161),T3 (115-162),T4 (121-162),T3 (81-121),T3 (90-122),T3 (93-127),T3 (81-120),T3 (82-121),T3 (81-120),Q3 (71-105),Q3 (71-105),Q3 (71-105),Q3 (72-106),NA,NA,NA,NA,NA,27.715798,-82.687043,Saint Petersburg,33711-4700,LAC,NA,NA,NA
Concordia College at Moorhead,MN,173300,135,126,146,145,141,130,132,127,117,115,120,129,138,133,139,137,T3 (127-191),T3 (125-189),T3 (126-184),T3 (111-162),T3 (111-164),T3 (111-162),T3 (111-161),T3 (113-161),T3 (115-162),T4 (121-162),T4 (122-161),T4 (123-162),T4 (128-158),T4 (121-160),T4 (122-161),T4 (121-160),NA,NA,NA,NA,NA,NA,NA,NA,NA,46.862482,-96.76749,Moorhead,56562,LAC,NA,NA,NA
University of North Carolina at Asheville,NC,199111,135,132,139,136,146,140,148,143,141,159,148,159,146,156,165,158,T3 (127-191),T3 (125-189),T3 (126-184),T3 (111-162),T3 (111-164),T3 (111-162),T3 (111-161),T3 (113-161),T3 (115-162),NA,NA,NA,NA,T4 (121-160),T4 (122-161),T4 (121-160),NA,NA,NA,NA,NA,NA,NA,NA,NA,35.617068,-82.565392,Asheville,28804-8510,LAC,NA,NA,NA
Hollins University,VA,232308,135,136,124,102,105,102,102,103,112,105,108,112,110,112,116,105,105,98,97,104,88,87,85,T2 (53-112),T2 (52-114),T2 (52-80),T2 (43-80),T2 (41-89),T2 (43-92),T3 (81-120),T3 (82-121),T3 (81-120),Q3 (71-105),Q3 (71-105),Q3 (71-105),Q3 (72-106),NA,NA,NA,NA,NA,37.354201,-79.943277,Roanoke,24020,LAC,NA,NA,NA
Emmanuel College,MA,165671,135,145,152,151,T2 (168-222),T2 (171-221),T2 (164-215),T2 (173-229),T2 (173-229),T2 (179-232),NA,NA,NA,NA,NA,NA,NA,NA,NA,NA,NA,NA,NA,NA,NA,NA,NA,NA,NA,NA,NA,NA,Q4 (106-140),Q4 (106-140),Q4 (106-140),Q4 (107-141),NA,NA,NA,NA,NA,42.340602,-71.103634,Boston,02115,LAC,NA,NA,NA
University of New Hampshire at Manchester,NH,183071,135,147,154,NA,NA,NA,NA,NA,NA,NA,NA,NA,NA,NA,NA,NA,NA,NA,NA,NA,NA,NA,NA,NA,NA,NA,NA,NA,NA,NA,NA,NA,NA,NA,NA,NA,NA,NA,NA,NA,NA,42.987209,-71.468755,Manchester,03101-1113,LAC,NA,NA,NA
Claflin University,SC,217873,135,153,159,T2 (156-201),NA,NA,NA,162,T2 (173-229),T2 (179-232),174,T2 (182-236),T2 (183-240),T2 (182-240),178,NA,NA,NA,NA,NA,NA,NA,NA,NA,NA,NA,NA,NA,NA,NA,NA,NA,NA,NA,NA,NA,NA,NA,NA,NA,NA,33.498444,-80.854319,Orangeburg,29115-4498,LAC,NA,NA,NA
Salem College,NC,199607,143,132,139,124,136,140,132,131,117,122,136,148,156,T2 (182-240),T2 (183-236),166,T3 (127-191),T3 (125-189),T3 (126-184),T3 (111-162),T3 (111-164),T3 (111-162),T3 (111-161),T3 (113-161),T3 (115-162),T4 (121-162),T4 (122-161),T4 (123-162),T4 (128-158),T4 (121-160),T4 (122-161),T4 (121-160),Q4 (106-140),Q4 (106-140),Q4 (106-140),Q4 (107-141),NA,NA,NA,NA,NA,36.086271000000004,-80.241297,Winston-Salem,27101,LAC,NA,NA,NA
Centenary College of Louisiana,LA,158477,143,136,139,T2 (156-201),164,155,157,168,147,146,148,148,167,170,171,T2 (190-250),T3 (127-191),T3 (125-189),T3 (126-184),NA,NA,NA,NA,NA,NA,NA,NA,NA,NA,NA,NA,NA,Q4 (106-140),Q4 (106-140),Q4 (106-140),Q4 (107-141),NA,NA,NA,NA,NA,32.483335,-93.730834,Shreveport,71104,LAC,NA,NA,NA
Ripon College,WI,239628,143,136,146,136,128,120,105,120,117,113,116,113,120,124,116,105,122,T3 (125-189),T3 (126-184),T3 (111-162),T3 (111-164),T3 (111-162),T3 (111-161),T3 (113-161),T2 (52-114),T3 (81-120),T3 (81-121),T3 (90-122),T2 (43-92),T3 (81-120),T3 (82-121),T3 (81-120),Q3 (71-105),Q3 (71-105),Q3 (71-105),Q3 (72-106),NA,NA,NA,NA,NA,43.844135,-88.842333,Ripon,54971-0248,LAC,NA,NA,NA
Millsaps College,MS,175980,146,136,124,136,114,113,124,108,87,90,93,89,82,90,85,93,89,84,87,82,81,89,91,T2 (53-112),T2 (52-114),T2 (52-80),T2 (43-80),T2 (41-89),T2 (43-92),T3 (81-120),T3 (82-121),T3 (81-120),Q3 (71-105),Q3 (71-105),Q3 (71-105),Q3 (72-106),NA,NA,NA,NA,NA,32.322746,-90.179957,Jackson,39210-0001,LAC,NA,NA,NA
Franklin College,IN,150604,146,147,139,142,146,136,145,143,147,168,NA,NA,NA,NA,NA,NA,NA,NA,NA,NA,NA,NA,NA,NA,NA,T4 (121-162),T4 (122-161),T4 (123-162),T4 (128-158),T4 (121-160),T4 (122-161),T4 (121-160),NA,NA,NA,NA,NA,NA,NA,NA,NA,39.478298,-86.047182,Franklin,46131-2623,LAC,NA,NA,NA
Aquinas College,MI,168786,146,147,156,149,158,T2 (171-221),T2 (164-215),NA,NA,NA,NA,NA,NA,NA,NA,NA,NA,NA,NA,NA,NA,NA,NA,NA,NA,NA,NA,NA,NA,NA,NA,NA,NA,NA,NA,NA,NA,NA,NA,NA,NA,42.96019,-85.628785,Grand Rapids,49506-1801,LAC,NA,NA,NA
Houghton College,NY,191676,146,153,146,130,124,127,124,143,147,144,136,139,141,140,133,137,T3 (127-191),T3 (125-189),T3 (126-184),T3 (111-162),T3 (111-164),T3 (111-162),T3 (111-161),T3 (113-161),T3 (115-162),T4 (121-162),T3 (81-121),T4 (123-162),T4 (128-158),T4 (121-160),T4 (122-161),T4 (121-160),Q4 (106-140),Q4 (106-140),Q4 (106-140),Q4 (107-141),NA,NA,NA,NA,NA,42.426137,-78.155426,Houghton,14744,LAC,NA,NA,NA
New Saint Andrews College,ID,440396,146,165,NA,NA,NA,NA,NA,NA,NA,NA,NA,NA,NA,NA,NA,NA,NA,NA,NA,NA,NA,NA,NA,NA,NA,NA,NA,NA,NA,NA,NA,NA,NA,NA,NA,NA,NA,NA,NA,NA,NA,46.731422,-117.001804,Moscow,83843-1525,LAC,NA,NA,NA
Hartwick College,NY,191533,151,136,121,142,146,149,160,T2 (173-229),165,159,164,165,161,164,171,174,T3 (127-191),T3 (125-189),T3 (126-184),T3 (111-162),T3 (111-164),T3 (111-162),T4 (162-214),T3 (113-161),T3 (115-162),T4 (121-162),T4 (122-161),T4 (123-162),T3 (93-127),T3 (81-120),T4 (122-161),T4 (121-160),Q4 (106-140),Q4 (106-140),Q4 (106-140),Q4 (107-141),NA,NA,NA,NA,NA,42.457599,-75.071994,Oneonta,13820-4020,LAC,NA,NA,NA
Ouachita Baptist University,AR,107512,151,158,178,T2 (156-201),NA,NA,NA,T2 (173-229),T2 (173-229),171,170,176,173,170,165,NA,NA,NA,NA,NA,NA,NA,NA,NA,NA,NA,NA,NA,NA,NA,NA,NA,NA,NA,NA,NA,NA,NA,NA,NA,NA,34.126093,-93.052471,Arkadelphia,71998-0001,LAC,NA,NA,NA
University of Puerto Rico in Cayey,PR,243151,151,162,159,T2 (156-201),T2 (168-222),166,NA,NA,NA,NA,NA,NA,NA,NA,NA,NA,NA,NA,NA,NA,NA,NA,NA,NA,NA,NA,NA,NA,NA,NA,NA,NA,NA,NA,NA,NA,NA,NA,NA,NA,NA,18.11882,-66.162066,Cayey,00737-2230,LAC,NA,NA,NA
Monmouth College,IL,147341,154,147,135,130,126,127,124,135,147,159,167,165,165,172,162,174,T3 (127-191),T3 (125-189),T3 (126-184),T3 (111-162),T3 (111-164),T3 (111-162),T3 (111-161),T3 (113-161),T4 (163-214),T4 (121-162),T4 (122-161),T4 (123-162),T4 (128-158),T4 (121-160),T4 (122-161),T4 (121-160),NA,NA,NA,NA,NA,NA,NA,NA,NA,40.914824,-90.63731,Monmouth,61462-1998,LAC,NA,NA,NA
Bethany Lutheran College,MN,173142,154,147,159,T2 (156-201),T2 (168-222),T2 (171-221),T2 (164-215),T2 (173-229),T2 (173-229),T2 (179-232),T2 (177-235),T2 (182-236),T2 (183-240),T2 (182-240),178,NA,NA,NA,NA,NA,NA,NA,NA,NA,NA,NA,NA,NA,NA,NA,NA,NA,NA,NA,NA,NA,NA,NA,NA,NA,NA,44.166649,-93.990805,Mankato,56001,LAC,NA,NA,NA
Hampshire College,MA,166018,156,145,139,120,141,T2 (171-221),NA,NA,NA,NA,NA,NA,110,112,110,119,105,104,118,91,104,101,T3 (111-161),T2 (53-112),T2 (52-114),T3 (81-120),T3 (81-121),T3 (90-122),T3 (93-127),T3 (81-120),T3 (82-121),T3 (81-120),Q2 (36-70),Q2 (36-70),Q2 (36-70),Q2 (37-71),NA,NA,NA,NA,NA,42.325852,-72.531469,Amherst,01002-5001,LAC,NA,NA,NA
Dillard University,LA,158802,156,153,159,T2 (156-201),T2 (168-222),T2 (171-221),T2 (164-215),T2 (173-229),T2 (173-229),T2 (179-232),T2 (177-235),T2 (182-236),T2 (183-240),T2 (182-240),T2 (183-236),T2 (190-250),T3 (127-191),T3 (125-189),T3 (126-184),NA,NA,NA,NA,NA,NA,NA,NA,NA,NA,NA,NA,NA,NA,NA,NA,NA,NA,NA,NA,NA,NA,29.996587,-90.06464,New Orleans,70122,LAC,NA,NA,NA
Oglethorpe University,GA,140696,156,153,163,T2 (156-201),165,166,T2 (164-215),T2 (173-229),T2 (173-229),159,167,148,165,164,157,166,T3 (127-191),T3 (125-189),T3 (126-184),T3 (111-162),T3 (111-164),T3 (111-162),T3 (111-161),T3 (113-161),T3 (115-162),T3 (81-120),T3 (81-121),T3 (90-122),T3 (93-127),T4 (121-160),T3 (82-121),T3 (81-120),Q3 (71-105),Q4 (106-140),Q4 (106-140),Q4 (107-141),NA,NA,NA,NA,NA,33.875441,-84.333687,Atlanta,30319-2797,LAC,NA,NA,NA
Fisk University,TN,220181,156,158,146,151,146,T2 (171-221),T2 (164-215),152,T2 (173-229),171,171,165,146,145,144,122,T3 (127-191),T3 (125-189),118,T3 (111-162),T3 (111-164),T3 (111-162),T3 (111-161),T3 (113-161),T3 (115-162),NA,NA,NA,NA,NA,NA,NA,NA,NA,NA,NA,NA,NA,NA,NA,NA,36.167087,-86.804805,Nashville,37208-4501,LAC,NA,NA,NA
Wartburg College,IA,154527,156,158,156,T2 (156-201),165,162,148,143,128,132,143,159,146,151,151,152,T3 (127-191),T3 (125-189),T3 (126-184),NA,NA,NA,NA,NA,NA,T4 (121-162),T4 (122-161),T4 (123-162),T4 (128-158),T4 (121-160),T4 (122-161),T4 (121-160),Q4 (106-140),Q4 (106-140),Q4 (106-140),Q4 (107-141),NA,NA,NA,NA,NA,42.7277,-92.483387,Waverly,50677-0903,LAC,NA,NA,NA
Gordon College,MA,165936,156,162,163,151,158,155,T2 (164-215),162,168,171,158,139,138,130,144,131,T3 (127-191),T3 (125-189),T3 (126-184),T3 (111-162),T3 (111-164),T3 (111-162),T3 (111-161),T3 (113-161),T3 (115-162),T4 (121-162),T4 (122-161),T4 (123-162),T4 (128-158),T4 (121-160),T4 (122-161),T4 (121-160),Q4 (106-140),Q4 (106-140),Q4 (106-140),Q4 (107-141),NA,NA,NA,NA,NA,42.590567,-70.82151,Wenham,01984,LAC,NA,NA,NA
Randolph College,VA,233301,156,162,165,124,141,140,132,141,138,132,158,133,134,112,112,114,118,118,91,86,84,83,81,T2 (53-112),T2 (52-114),T2 (52-80),T2 (43-80),T2 (41-89),T2 (43-92),T2 (41-80),T2 (41-81),T3 (81-120),Q3 (71-105),Q3 (71-105),Q3 (71-105),Q3 (72-106),NA,NA,NA,NA,NA,37.437315,-79.171887,Lynchburg,24503-1555,LAC,NA,NA,NA
Presbyterian College,SC,218539,163,147,139,124,128,127,140,127,123,119,127,124,126,121,121,119,105,104,106,T3 (111-162),100,89,106,T2 (53-112),T2 (52-114),T2 (52-80),T3 (81-121),T3 (90-122),T3 (93-127),T3 (81-120),T3 (82-121),T3 (81-120),NA,NA,NA,NA,NA,NA,NA,NA,NA,34.465834,-81.87448,Clinton,29325,LAC,NA,NA,NA
Wittenberg University,OH,206525,164,153,152,147,155,153,160,168,158,154,148,139,123,121,121,114,118,T3 (125-189),118,T3 (111-162),T3 (111-164),105,97,T2 (53-112),T2 (52-114),T3 (81-120),NA,T3 (90-122),T2 (43-92),T3 (81-120),T2 (41-81),T2 (41-80),NA,NA,NA,NA,NA,NA,NA,NA,NA,39.934029,-83.815445,Springfield,45504,LAC,NA,NA,NA
Westminster College,MO,179946,164,169,167,T2 (156-201),158,155,157,155,147,149,148,159,146,151,162,166,T3 (127-191),T3 (125-189),T3 (126-184),T3 (111-162),T3 (111-164),T3 (111-162),T3 (111-161),T3 (113-161),T3 (115-162),T4 (121-162),T4 (122-161),T4 (123-162),T4 (128-158),T4 (121-160),T4 (122-161),T4 (121-160),NA,NA,NA,NA,NA,NA,NA,NA,NA,38.849354,-91.955273,Fulton,65251-1299,LAC,NA,NA,NA
Sweet Briar College,VA,233718,164,173,180,T2 (156-201),165,162,154,127,134,140,NA,116,110,100,99,101,77,84,83,74,71,68,63,T2 (53-112),T2 (52-114),T2 (52-80),T2 (43-80),T2 (41-89),T2 (43-92),T2 (41-80),T3 (82-121),T2 (41-80),Q3 (71-105),Q2 (36-70),Q2 (36-70),Q2 (37-71),NA,NA,NA,NA,NA,37.556725,-79.081014,Sweet Briar,24595-9998,LAC,NA,NA,NA
Bridgewater College,VA,231581,167,165,167,T2 (156-201),T2 (168-222),T2 (171-221),T2 (164-215),T2 (173-229),T2 (173-229),T2 (179-232),T2 (177-235),178,T2 (183-240),T2 (182-240),178,187,T3 (127-191),T3 (125-189),T4 (187-248),T4 (163-213),T4 (165-215),T4 (163-215),T4 (162-214),T4 (162-214),T4 (163-214),NA,NA,NA,NA,NA,NA,NA,NA,NA,NA,NA,NA,NA,NA,NA,NA,38.378484,-78.969007,Bridgewater,22812-1599,LAC,NA,NA,NA
Lyon College,AR,106342,167,169,167,T2 (156-201),T2 (168-222),166,T2 (164-215),T2 (173-229),T2 (173-229),T2 (179-232),T2 (177-235),165,167,156,157,144,97,111,91,T3 (111-162),T3 (111-164),T3 (111-162),T3 (111-161),T3 (113-161),T3 (115-162),NA,NA,NA,NA,NA,NA,NA,NA,NA,NA,NA,NA,NA,NA,NA,NA,35.777619,-91.625354,Batesville,72501,LAC,NA,NA,NA
University of Virginia's College at Wise,VA,233897,167,173,165,T2 (156-201),158,166,T2 (164-215),T2 (173-229),T2 (173-229),T2 (179-232),T2 (177-235),T2 (182-236),T2 (183-240),T2 (182-240),T2 (183-236),T2 (190-250),T4 (192-249),T4 (190-248),T4 (187-248),T4 (163-213),T4 (165-215),T4 (163-215),T4 (162-214),T4 (162-214),T4 (163-214),NA,NA,NA,NA,NA,NA,NA,NA,NA,NA,NA,NA,NA,NA,NA,NA,36.970602,-82.559656,Wise,24293-4400,LAC,NA,NA,NA
Albright College,PA,210571,170,158,146,T2 (156-201),T2 (168-222),T2 (171-221),T2 (164-215),T2 (173-229),T2 (173-229),T2 (179-232),T2 (177-235),177,176,172,165,166,T3 (127-191),T3 (125-189),T3 (126-184),T3 (111-162),T3 (111-164),T3 (111-162),T3 (111-161),T3 (113-161),T3 (115-162),T4 (121-162),T4 (122-161),T4 (123-162),T4 (128-158),T4 (121-160),T3 (82-121),T4 (121-160),Q4 (106-140),Q3 (71-105),Q3 (71-105),Q3 (72-106),NA,NA,NA,NA,NA,40.361351,-75.909742,Reading,19612-5234,LAC,NA,NA,NA
Maryville College,TN,220710,170,169,172,T2 (156-201),NA,NA,NA,T2 (173-229),T2 (173-229),T2 (179-232),T2 (177-235),T2 (182-236),176,161,171,174,T3 (127-191),T3 (125-189),T3 (126-184),NA,NA,NA,NA,NA,NA,NA,NA,NA,NA,NA,NA,NA,NA,NA,NA,NA,NA,NA,NA,NA,NA,35.751505,-83.964223,Maryville,37804-5907,LAC,NA,NA,NA
Guilford College,NC,198613,172,165,167,T2 (156-201),T2 (168-222),155,154,168,160,146,158,172,173,167,157,166,T3 (127-191),T3 (125-189),T3 (126-184),T4 (163-213),T3 (111-164),T3 (111-162),T3 (111-161),T3 (113-161),T3 (115-162),T3 (81-120),T3 (81-121),T3 (90-122),T3 (93-127),T3 (81-120),T4 (122-161),T4 (121-160),Q4 (106-140),Q4 (106-140),Q4 (106-140),Q3 (72-106),NA,NA,NA,NA,NA,36.094233,-79.887737,Greensboro,27410-4108,LAC,NA,NA,NA
Johnson C. Smith University,NC,198756,173,175,172,T2 (156-201),T2 (168-222),T2 (171-221),T2 (164-215),T2 (173-229),T2 (173-229),T2 (179-232),T2 (177-235),T2 (182-236),T2 (183-240),T2 (182-240),T2 (183-236),T2 (190-250),T4 (192-249),T4 (190-248),T4 (187-248),NA,NA,NA,NA,NA,NA,NA,NA,NA,NA,NA,NA,NA,NA,NA,NA,NA,NA,NA,NA,NA,NA,35.243033,-80.857251,Charlotte,28216-5398,LAC,NA,NA,NA
Simpson University,CA,123457,173,NA,NA,NA,NA,NA,NA,NA,NA,NA,T2 (177-235),T2 (182-236),T2 (183-240),T2 (182-240),T2 (183-236),T2 (190-250),T4 (192-249),T4 (190-248),T4 (187-248),NA,NA,NA,NA,NA,NA,NA,NA,NA,NA,NA,NA,NA,NA,NA,NA,NA,NA,NA,NA,NA,NA,40.61334,-122.332981,Redding,96003-8606,LAC,NA,NA,NA
Ava Maria University,FL,442295,175,178,182,T2 (156-201),T2 (168-222),T2 (171-221),T2 (164-215),T2 (173-229),T2 (173-229),T2 (179-232),T2 (177-235),T2 (182-236),T2 (183-240),T2 (182-240),T2 (183-236),NA,NA,NA,NA,NA,NA,NA,NA,NA,NA,NA,NA,NA,NA,NA,NA,NA,NA,NA,NA,NA,NA,NA,NA,NA,NA,26.242138,-81.731358,Naples,34119,LAC,NA,NA,NA
Medgar Evers College-CUNY,NY,190646,176,181,182,NA,NA,NA,NA,NA,NA,NA,NA,NA,NA,NA,NA,NA,NA,NA,NA,NA,NA,NA,NA,NA,NA,NA,NA,NA,NA,NA,NA,NA,NA,NA,NA,NA,NA,NA,NA,NA,NA,40.666256,-73.957076,Brooklyn,11225,LAC,NA,NA,NA
Providence Christian College,CA,455770,176,T2 (187-204),T2 (185-204),NA,T2 (168-222),T2 (171-221),T2 (164-215),T2 (173-229),T2 (173-229),NA,NA,NA,NA,T2 (182-240),T2 (183-236),NA,NA,NA,NA,NA,NA,NA,NA,NA,NA,NA,NA,NA,NA,NA,NA,NA,NA,NA,NA,NA,NA,NA,NA,NA,NA,34.149327,-118.141062,Pasadena,91101,LAC,NA,NA,NA
Virginia Wesleyan University,VA,234173,178,175,174,T2 (156-201),T2 (168-222),T2 (171-221),T2 (164-215),T2 (173-229),T2 (173-229),T2 (179-232),T2 (177-235),T2 (182-236),176,T2 (182-240),T2 (183-236),T2 (190-250),T4 (192-249),T4 (190-248),T4 (187-248),T4 (163-213),T4 (165-215),T4 (163-215),T4 (162-214),T4 (162-214),T4 (163-214),T4 (121-162),T4 (122-161),T4 (123-162),T4 (128-158),T4 (121-160),T4 (122-161),T4 (121-160),NA,NA,NA,NA,NA,NA,NA,NA,NA,36.868417,-76.18606,Virginia Beach,23455,LAC,NA,NA,NA
Marymount Manhattan College,NY,192864,178,178,174,151,T2 (168-222),T2 (171-221),T2 (164-215),T2 (173-229),T2 (173-229),T2 (179-232),T2 (177-235),T2 (182-236),T2 (183-240),T2 (182-240),T2 (183-236),T2 (190-250),T4 (192-249),T4 (190-248),T4 (187-248),T4 (163-213),T4 (165-215),T4 (163-215),T4 (162-214),T4 (162-214),T4 (163-214),NA,NA,NA,NA,NA,NA,NA,Q4 (106-140),Q4 (106-140),Q4 (106-140),Q4 (107-141),NA,NA,NA,NA,NA,40.768787,-73.959767,New York,10021-4597,LAC,NA,NA,NA
Georgetown College,KY,156745,180,178,T2 (185-204),T2 (156-201),T2 (168-222),T2 (171-221),157,T2 (173-229),147,168,154,155,146,151,151,162,T3 (127-191),T3 (125-189),T3 (126-184),T3 (111-162),T3 (111-164),T3 (111-162),T3 (111-161),T3 (113-161),T3 (115-162),T4 (121-162),T4 (122-161),T4 (123-162),T4 (128-158),T4 (121-160),T4 (122-161),NA,NA,NA,NA,NA,NA,NA,NA,NA,NA,38.207615,-84.553767,Georgetown,40324-1696,LAC,NA,NA,NA
Bryn Athyn College of the New Church,PA,210492,180,182,174,T2 (156-201),T2 (168-222),162,T2 (164-215),T2 (173-229),T2 (173-229),T2 (179-232),T2 (177-235),T2 (182-236),T2 (183-240),T2 (182-240),T2 (183-236),NA,NA,NA,NA,NA,NA,NA,NA,NA,NA,NA,NA,NA,NA,NA,NA,NA,NA,NA,NA,NA,NA,NA,NA,NA,NA,40.134393,-75.060808,Bryn Athyn,19009-0717,LAC,NA,NA,NA
Tougaloo College,MS,176406,180,T2 (187-204),181,151,T2 (168-222),T2 (171-221),T2 (164-215),T2 (173-229),T2 (173-229),T2 (179-232),T2 (177-235),T2 (182-236),T2 (183-240),T2 (182-240),T2 (183-236),166,T3 (127-191),T4 (190-248),T4 (187-248),T4 (163-213),T4 (165-215),T4 (163-215),T4 (162-214),T4 (162-214),T4 (163-214),NA,NA,NA,NA,NA,NA,NA,NA,NA,NA,NA,NA,NA,NA,NA,NA,32.403014,-90.16076,Tougaloo,39174,LAC,NA,NA,NA
Antioch College,OH,245892,T2 (183-201),165,100,NA,NA,NA,NA,NA,NA,NA,NA,NA,NA,NA,NA,NA,NA,NA,NA,T3 (111-162),T3 (111-164),T4 (163-215),T3 (111-161),T3 (113-161),T3 (115-162),T4 (121-162),T4 (122-161),T4 (123-162),T3 (93-127),T4 (121-160),T4 (122-161),T4 (121-160),Q4 (106-140),Q4 (106-140),Q4 (106-140),Q3 (72-106),NA,NA,NA,NA,NA,39.80321,-83.908684,Yellow Springs,45387,LAC,NA,NA,NA
Oakwood University,AL,101912,T2 (183-201),182,178,T2 (156-201),NA,NA,NA,NA,NA,NA,NA,NA,NA,NA,NA,NA,NA,NA,NA,NA,NA,NA,NA,NA,NA,NA,NA,NA,NA,NA,NA,NA,NA,NA,NA,NA,NA,NA,NA,NA,NA,34.756344,-86.652705,Huntsville,35896,LAC,NA,NA,NA
Bethune-Cookman University,FL,132602,T2 (183-201),182,T2 (185-204),T2 (156-201),T2 (168-222),T2 (171-221),T2 (164-215),T2 (173-229),T2 (173-229),T2 (179-232),NA,NA,NA,NA,NA,NA,NA,NA,NA,NA,NA,NA,NA,NA,NA,NA,NA,NA,NA,NA,NA,NA,NA,NA,NA,NA,NA,NA,NA,NA,NA,29.207195,-81.032946,Daytona Beach,32114-3099,LAC,NA,NA,NA
"Holy Cross College at Notre Dame, Indiana",IN,150774,T2 (183-201),182,T2 (185-204),T2 (156-201),NA,NA,NA,T2 (173-229),T2 (173-229),T2 (179-232),T2 (177-235),T2 (182-236),T2 (183-240),T2 (182-240),T2 (183-236),NA,NA,NA,NA,NA,NA,NA,NA,NA,NA,NA,NA,NA,NA,NA,NA,NA,NA,NA,NA,NA,NA,NA,NA,NA,NA,41.698996,-86.253822,Notre Dame,46556-0308,LAC,NA,NA,NA
Southern Virginia University,VA,233611,T2 (183-201),182,T2 (185-204),T2 (156-201),T2 (168-222),T2 (171-221),T2 (164-215),T2 (173-229),T2 (173-229),T2 (179-232),NA,NA,NA,NA,NA,NA,NA,NA,NA,NA,NA,NA,NA,NA,NA,NA,NA,NA,NA,NA,NA,NA,NA,NA,NA,NA,NA,NA,NA,NA,NA,37.740368,-79.35037,Buena Vista,24416,LAC,NA,NA,NA
Bennett College,NC,197993,T2 (183-201),T2 (187-204),182,T2 (156-201),T2 (168-222),T2 (171-221),T2 (164-215),NA,NA,NA,T2 (177-235),T2 (182-236),T2 (183-240),T2 (182-240),T2 (183-236),T2 (190-250),T4 (192-249),T4 (190-248),T4 (187-248),T4 (163-213),T4 (165-215),T4 (163-215),T4 (162-214),T4 (162-214),T4 (163-214),NA,NA,NA,NA,NA,NA,NA,NA,NA,NA,NA,NA,NA,NA,NA,NA,36.067531,-79.77998,Greensboro,27401-3239,LAC,NA,NA,NA
Allen University,SC,217624,T2 (183-201),T2 (187-204),T2 (185-204),T2 (156-201),T2 (168-222),T2 (171-221),T2 (164-215),T2 (173-229),T2 (173-229),T2 (179-232),T2 (177-235),T2 (182-236),T2 (183-240),T2 (182-240),T2 (183-236),T2 (190-250),NA,NA,NA,NA,NA,NA,NA,NA,NA,NA,NA,NA,NA,NA,NA,NA,NA,NA,NA,NA,NA,NA,NA,NA,NA,34.010348,-81.020045,Columbia,29204,LAC,NA,NA,NA
Bethany College,WV,237181,T2 (183-201),T2 (187-204),T2 (185-204),T2 (156-201),T2 (168-222),T2 (171-221),T2 (164-215),T2 (173-229),T2 (173-229),T2 (179-232),T2 (177-235),T2 (182-236),T2 (183-240),178,165,162,T3 (127-191),T3 (125-189),T3 (126-184),T4 (163-213),T4 (165-215),T4 (163-215),T4 (162-214),T3 (113-161),T3 (115-162),T4 (121-162),T4 (122-161),T4 (123-162),T3 (93-127),T4 (121-160),T4 (122-161),T4 (121-160),Q4 (106-140),Q4 (106-140),Q4 (106-140),Q4 (107-141),NA,NA,NA,NA,NA,40.205819,-80.560056,Bethany,26032,LAC,NA,NA,NA
Cheyney University of Pennsylvania,PA,211608,T2 (183-201),T2 (187-204),T2 (185-204),T2 (156-201),T2 (168-222),T2 (171-221),T2 (164-215),T2 (173-229),T2 (173-229),T2 (179-232),NA,NA,NA,NA,NA,NA,NA,NA,NA,NA,NA,NA,NA,NA,NA,NA,T4 (122-161),NA,NA,NA,NA,NA,NA,NA,NA,NA,NA,NA,NA,NA,NA,39.932274,-75.529262,Cheyney,19319-0200,LAC,NA,NA,NA
East-West University,IL,144883,T2 (183-201),T2 (187-204),T2 (185-204),T2 (156-201),T2 (168-222),T2 (171-221),T2 (164-215),T2 (173-229),T2 (173-229),T2 (179-232),T2 (177-235),NA,T2 (183-240),T2 (182-240),T2 (183-236),NA,NA,NA,NA,NA,NA,NA,NA,NA,NA,NA,NA,NA,NA,NA,NA,NA,NA,NA,NA,NA,NA,NA,NA,NA,NA,41.871309,-87.624793,Chicago,60605,LAC,NA,NA,NA
Hebrew Theological College,IL,145497,T2 (183-201),T2 (187-204),T2 (185-204),NA,NA,NA,NA,NA,NA,NA,NA,NA,NA,NA,NA,NA,NA,NA,NA,NA,NA,NA,NA,NA,NA,NA,NA,NA,NA,NA,NA,NA,NA,NA,NA,NA,NA,NA,NA,NA,NA,42.010103,-87.760874,Skokie,60077,LAC,NA,NA,NA
Lane College,TN,220598,T2 (183-201),T2 (187-204),T2 (185-204),T2 (156-201),T2 (168-222),T2 (171-221),T2 (164-215),NA,NA,NA,T2 (177-235),T2 (182-236),T2 (183-240),T2 (182-240),T2 (183-236),T2 (190-250),T4 (192-249),T4 (190-248),T4 (187-248),T4 (163-213),T4 (165-215),T4 (163-215),T4 (162-214),T4 (162-214),T4 (163-214),NA,NA,NA,NA,NA,NA,NA,NA,NA,NA,NA,NA,NA,NA,NA,NA,35.627378,-88.806535,Jackson,38301-4598,LAC,NA,NA,NA
Rust College,MS,176318,T2 (183-201),T2 (187-204),T2 (185-204),T2 (156-201),T2 (168-222),T2 (171-221),T2 (164-215),NA,NA,NA,T2 (177-235),T2 (182-236),T2 (183-240),T2 (182-240),T2 (183-236),T2 (190-250),T4 (192-249),NA,NA,NA,NA,NA,NA,NA,NA,NA,NA,NA,NA,NA,NA,NA,NA,NA,NA,NA,NA,NA,NA,NA,NA,34.776862,-89.446999,Holly Springs,38635,LAC,NA,NA,NA
University of Pittsburgh at Greensburg,PA,215275,T2 (183-201),T2 (187-204),T2 (185-204),T2 (156-201),T2 (168-222),NA,NA,NA,NA,NA,NA,NA,NA,NA,NA,NA,NA,NA,NA,T4 (163-213),T4 (165-215),T4 (163-215),T4 (162-214),T4 (162-214),T4 (163-214),NA,NA,NA,NA,NA,NA,NA,NA,NA,NA,NA,NA,NA,NA,NA,NA,40.276447,-79.532676,Greensburg,15601-5860,LAC,NA,NA,NA
University of Science and Arts of Oklahoma,OK,207722,T2 (183-201),T2 (187-204),T2 (185-204),T2 (156-201),T2 (168-222),T2 (171-221),T2 (164-215),T2 (173-229),T2 (173-229),T2 (179-232),T2 (177-235),T2 (182-236),T2 (183-240),T2 (182-240),T2 (183-236),NA,NA,NA,NA,NA,NA,NA,NA,NA,NA,NA,NA,NA,NA,NA,NA,NA,NA,NA,NA,NA,NA,NA,NA,NA,NA,35.031392,-97.95641,Chickasha,73018-5322,LAC,NA,NA,NA
Virginia Union University,VA,234164,T2 (183-201),T2 (187-204),T2 (185-204),T2 (156-201),T2 (168-222),T2 (171-221),T2 (164-215),T2 (173-229),T2 (173-229),T2 (179-232),NA,NA,NA,NA,NA,NA,NA,NA,NA,T4 (163-213),T4 (165-215),T4 (163-215),T4 (162-214),T4 (162-214),NA,NA,NA,NA,NA,NA,NA,NA,NA,NA,NA,NA,NA,NA,NA,NA,NA,37.562405,-77.450903,Richmond,23220,LAC,NA,NA,NA
Warren Wilson College,NC,199865,T2 (183-201),T2 (187-204),T2 (185-204),T2 (156-201),T2 (168-222),162,160,143,160,159,164,165,167,175,162,183,T3 (127-191),T3 (125-189),T3 (126-184),NA,NA,NA,NA,NA,NA,NA,NA,NA,NA,NA,NA,NA,NA,NA,NA,NA,NA,NA,NA,NA,NA,35.610328,-82.442619,Swannanoa,28778-2099,LAC,NA,NA,NA
Young Harris College,GA,141361,T2 (183-201),T2 (187-204),T2 (185-204),T2 (156-201),T2 (168-222),T2 (171-221),T2 (164-215),T2 (173-229),T2 (173-229),174,NA,NA,NA,NA,NA,NA,NA,NA,NA,NA,NA,NA,NA,NA,NA,NA,NA,NA,NA,NA,NA,NA,NA,NA,NA,NA,NA,NA,NA,NA,NA,34.933523,-83.84587,Young Harris,30582,LAC,NA,NA,NA
Pennsylvania State University at Brandywine,PA,214731,T2 (183-201),T2 (187-204),NA,NA,NA,NA,NA,NA,NA,NA,NA,NA,NA,NA,NA,NA,NA,NA,NA,NA,NA,NA,NA,NA,NA,NA,NA,NA,NA,NA,NA,NA,NA,NA,NA,NA,NA,NA,NA,NA,NA,39.927123,-75.449704,Media,19063-5522,LAC,NA,NA,NA
The King's College,NY,454184,NA,169,167,T2 (156-201),T2 (168-222),T2 (171-221),T2 (164-215),T2 (173-229),T2 (173-229),T2 (179-232),T2 (177-235),T2 (182-236),T2 (183-240),T2 (182-240),NA,NA,NA,NA,NA,NA,NA,NA,NA,NA,NA,NA,NA,NA,NA,NA,NA,NA,NA,NA,NA,NA,NA,NA,NA,NA,NA,40.706677,-74.012342,New York,10004,LAC,NA,NA,NA
Simpson College,IA,154350,NA,177,174,T2 (156-201),146,149,136,135,147,149,143,139,154,145,151,144,T3 (127-191),T3 (125-189),T3 (126-184),NA,NA,NA,NA,NA,NA,NA,NA,NA,NA,NA,NA,NA,NA,NA,NA,NA,NA,NA,NA,NA,NA,41.365503,-93.563471,Indianola,50125,LAC,NA,NA,NA
Paine College,GA,140720,NA,T2 (187-204),T2 (185-204),NA,NA,NA,NA,T2 (173-229),T2 (173-229),T2 (179-232),NA,NA,NA,NA,NA,T2 (190-250),T4 (192-249),T4 (190-248),T4 (187-248),T4 (163-213),T4 (165-215),T4 (163-215),T4 (162-214),T4 (162-214),T4 (163-214),NA,NA,NA,NA,NA,NA,NA,NA,NA,NA,NA,NA,NA,NA,NA,NA,33.469545,-81.993225,Augusta,30901-3182,LAC,NA,NA,NA
Pillar College,NJ,440794,NA,T2 (187-204),T2 (185-204),T2 (156-201),NA,NA,NA,NA,NA,NA,NA,NA,NA,NA,NA,NA,NA,NA,NA,NA,NA,NA,NA,NA,NA,NA,NA,NA,NA,NA,NA,NA,NA,NA,NA,NA,NA,NA,NA,NA,NA,40.738539,-74.169153,Newark,07102,LAC,NA,NA,NA
Birmingham-Southern College,AL,100937,NA,NA,135,111,128,130,140,131,123,132,120,124,115,124,102,93,92,81,76,74,88,70,66,T2 (53-112),T2 (52-114),T2 (52-80),T2 (43-80),T2 (41-89),T2 (43-92),T2 (41-80),T2 (41-81),T2 (41-80),Q3 (71-105),Q3 (71-105),Q3 (71-105),Q4 (107-141),NA,NA,NA,NA,NA,33.513774,-86.850552,Birmingham,35254,LAC,NA,NA,NA
Wells College,NY,197230,NA,NA,146,T2 (156-201),146,136,124,T2 (173-229),168,174,136,148,141,133,127,144,T3 (127-191),T3 (125-189),122,T3 (111-162),94,105,106,T2 (53-112),T2 (52-114),T3 (81-120),T3 (81-121),T2 (41-89),T2 (43-92),T3 (81-120),T3 (82-121),T3 (81-120),Q2 (36-70),Q2 (36-70),Q3 (71-105),Q2 (37-71),NA,NA,NA,NA,NA,42.742943,-76.696028,Aurora,13026-0500,LAC,NA,NA,NA
Martin University,IN,151810,NA,NA,T2 (185-204),T2 (156-201),NA,NA,NA,NA,NA,NA,NA,NA,NA,NA,NA,NA,NA,NA,NA,NA,NA,NA,NA,NA,NA,NA,NA,NA,NA,NA,NA,NA,NA,NA,NA,NA,NA,NA,NA,NA,NA,39.798144,-86.103953,Indianapolis,46218-0567,LAC,NA,NA,NA
Adrian College,MI,168528,NA,NA,NA,NA,NA,NA,NA,NA,NA,NA,NA,NA,NA,NA,NA,NA,NA,NA,NA,T4 (163-213),T4 (165-215),T4 (163-215),T4 (162-214),T4 (162-214),NA,NA,NA,NA,NA,NA,NA,NA,NA,NA,NA,NA,NA,NA,NA,NA,NA,41.898591,-84.061481,Adrian,49221-2575,LAC,NA,NA,NA
Albert Magnus College,CT,128498,NA,NA,NA,NA,NA,NA,NA,NA,NA,NA,NA,NA,NA,NA,NA,T2 (190-250),T4 (192-249),T4 (190-248),T4 (187-248),NA,NA,NA,NA,NA,T3 (115-162),NA,NA,NA,NA,NA,NA,NA,NA,NA,NA,NA,NA,NA,NA,NA,NA,41.332519,-72.923848,New Haven,06511-1189,LAC,NA,NA,NA
Albertson College,ID,142294,NA,NA,NA,NA,NA,NA,NA,NA,NA,NA,NA,NA,NA,NA,NA,NA,NA,NA,T3 (126-184),T4 (163-213),T3 (111-164),T3 (111-162),T3 (111-161),T3 (113-161),T4 (163-214),NA,NA,NA,NA,NA,NA,NA,NA,NA,NA,NA,NA,NA,NA,NA,NA,43.652284,-116.677992,Caldwell,83605-4432,LAC,NA,NA,NA
Alfred University,NY,188641,NA,NA,NA,NA,NA,NA,NA,NA,NA,159,NA,NA,NA,NA,NA,NA,NA,NA,NA,NA,NA,NA,NA,NA,NA,NA,NA,NA,NA,NA,NA,NA,NA,NA,NA,NA,NA,NA,NA,NA,NA,42.254476,-77.788106,Alfred,14802-1205,LAC,NA,NA,NA
Alice Lloyd College,KY,156189,NA,NA,NA,NA,NA,NA,NA,NA,NA,T2 (179-232),NA,NA,NA,NA,T2 (183-236),NA,NA,NA,NA,NA,NA,NA,NA,NA,NA,NA,NA,NA,NA,NA,NA,NA,NA,NA,NA,NA,NA,NA,NA,NA,NA,37.335087,-82.875068,Pippa Passes,41844,LAC,NA,NA,NA
Alma College,MI,168591,NA,NA,NA,NA,NA,NA,NA,143,141,146,143,139,126,130,133,137,T3 (127-191),T3 (125-189),T3 (126-184),T3 (111-162),T3 (111-164),T3 (111-162),T3 (111-161),T2 (53-112),T2 (52-114),T3 (81-120),T3 (81-121),T3 (90-122),T3 (93-127),T3 (81-120),T3 (82-121),T3 (81-120),Q3 (71-105),Q3 (71-105),Q3 (71-105),Q3 (72-106),NA,NA,NA,NA,NA,43.38004,-84.672053,Alma,48801-1599,LAC,NA,NA,NA
American Jewish University,CA,116846,NA,NA,NA,NA,NA,NA,NA,T2 (173-229),T2 (173-229),T2 (179-232),T2 (177-235),T2 (182-236),167,151,T2 (183-236),NA,T3 (127-191),T3 (125-189),T3 (126-184),NA,NA,NA,NA,NA,NA,NA,NA,NA,NA,NA,NA,NA,NA,NA,NA,NA,NA,NA,NA,NA,NA,34.128153,-118.471706,Los Angeles,90077-1519,LAC,NA,NA,NA
Amridge University,AL,100690,NA,NA,NA,NA,NA,NA,NA,NA,NA,NA,T2 (177-235),T2 (182-236),T2 (183-240),T2 (182-240),T2 (183-236),NA,NA,NA,NA,NA,NA,NA,NA,NA,NA,NA,NA,NA,NA,NA,NA,NA,NA,NA,NA,NA,NA,NA,NA,NA,NA,32.362609,-86.17401,Montgomery,36117-3553,LAC,NA,NA,NA
Arkansas Baptist College,AR,106306,NA,NA,NA,NA,NA,NA,NA,NA,NA,NA,NA,NA,NA,NA,NA,NA,NA,NA,NA,T4 (163-213),T4 (165-215),T4 (163-215),T4 (162-214),T4 (162-214),T4 (163-214),NA,NA,NA,NA,NA,NA,NA,NA,NA,NA,NA,NA,NA,NA,NA,NA,34.734751,-92.290555,Little Rock,72202-6068,LAC,NA,NA,NA
Asbury University,KY,156213,NA,NA,NA,NA,NA,NA,NA,NA,NA,NA,NA,NA,NA,NA,NA,162,T3 (127-191),T3 (125-189),T3 (126-184),NA,NA,NA,NA,NA,NA,NA,NA,NA,NA,NA,NA,NA,NA,NA,NA,NA,NA,NA,NA,NA,NA,37.862029,-84.662606,Wilmore,40390-1198,LAC,NA,NA,NA
Atlantic Union College,MA,164571,NA,NA,NA,NA,NA,NA,NA,NA,NA,NA,NA,NA,NA,NA,NA,T2 (190-250),T4 (192-249),T4 (190-248),T4 (187-248),NA,NA,NA,NA,NA,NA,NA,NA,NA,NA,NA,NA,NA,NA,NA,NA,NA,NA,NA,NA,NA,NA,NA,NA,NA,NA,LAC,NA,NA,NA
Baker University,KS,154688,NA,NA,NA,NA,NA,NA,NA,NA,NA,NA,NA,NA,NA,NA,NA,144,T3 (127-191),T3 (125-189),T4 (187-248),NA,NA,NA,NA,NA,NA,NA,NA,NA,NA,NA,NA,NA,NA,NA,NA,NA,NA,NA,NA,NA,NA,38.778712,-95.187346,Baldwin City,66006-0065,LAC,NA,NA,NA
Barat College,IL,143163,NA,NA,NA,NA,NA,NA,NA,NA,NA,NA,NA,NA,NA,NA,NA,NA,NA,NA,NA,NA,NA,NA,NA,NA,NA,NA,NA,NA,NA,NA,NA,NA,Q4 (106-140),Q4 (106-140),Q4 (106-140),Q4 (107-141),NA,NA,NA,NA,NA,NA,NA,NA,NA,LAC,NA,NA,NA
Barber Scotia College,NC,197948,NA,NA,NA,NA,NA,NA,NA,NA,NA,NA,NA,NA,NA,NA,NA,NA,NA,NA,NA,NA,T4 (165-215),T4 (163-215),T4 (162-214),T4 (162-214),T4 (163-214),NA,NA,NA,NA,NA,NA,NA,NA,NA,NA,NA,NA,NA,NA,NA,NA,NA,NA,NA,NA,LAC,NA,NA,NA
Bard College at Simon's Rock,MA,167792,NA,NA,NA,NA,NA,NA,NA,T2 (173-229),147,144,NA,NA,NA,NA,NA,NA,NA,NA,NA,NA,NA,NA,NA,NA,NA,T4 (121-162),T4 (122-161),T3 (90-122),T4 (128-158),T4 (121-160),T4 (122-161),T3 (81-120),NA,NA,NA,NA,NA,NA,NA,NA,NA,42.208803,-73.379201,Great Barrington,01230-9702,LAC,NA,NA,NA
Bay Path University,MA,164632,NA,NA,NA,NA,NA,NA,NA,NA,NA,NA,T2 (177-235),T2 (182-236),T2 (183-240),T2 (182-240),T2 (183-236),NA,NA,NA,NA,NA,NA,NA,NA,NA,NA,NA,NA,NA,NA,NA,NA,NA,NA,NA,NA,NA,NA,NA,NA,NA,NA,42.055088,-72.583382,Longmeadow,01106,LAC,NA,NA,NA
Benedictine College,KS,154712,NA,NA,NA,NA,NA,NA,NA,NA,NA,NA,NA,NA,NA,NA,NA,NA,NA,NA,NA,NA,NA,NA,NA,NA,NA,NA,NA,NA,NA,NA,NA,NA,Q4 (106-140),Q4 (106-140),Q4 (106-140),Q4 (107-141),NA,NA,NA,NA,NA,39.573079,-95.113858,Atchison,66002-1499,LAC,NA,NA,NA
Berry College,GA,139144,NA,NA,NA,NA,NA,NA,NA,NA,NA,NA,127,129,126,124,121,122,112,118,118,NA,NA,NA,NA,NA,NA,NA,NA,NA,NA,NA,NA,NA,NA,NA,NA,NA,NA,NA,NA,NA,NA,34.290414,-85.189202,Mount Berry,30149,LAC,NA,NA,NA
Bethel College,KS,154749,NA,NA,NA,NA,NA,NA,NA,T2 (173-229),T2 (173-229),T2 (179-232),NA,NA,NA,NA,NA,137,T3 (127-191),T4 (190-248),T3 (126-184),NA,NA,NA,NA,NA,T4 (163-214),NA,NA,NA,NA,NA,NA,NA,NA,NA,NA,NA,NA,NA,NA,NA,NA,38.075169,-97.343256,North Newton,67117-1716,LAC,NA,NA,NA
Bethel University,TN,219718,NA,NA,NA,NA,NA,NA,NA,NA,NA,NA,NA,NA,NA,NA,NA,NA,NA,NA,NA,T4 (163-213),T4 (165-215),T4 (163-215),T4 (162-214),T4 (162-214),NA,NA,NA,NA,NA,NA,NA,NA,NA,NA,NA,NA,NA,NA,NA,NA,NA,36.137848,-88.516762,McKenzie,38201,LAC,NA,NA,NA
Blackburn College,IL,143288,NA,NA,NA,NA,T2 (168-222),T2 (171-221),T2 (164-215),NA,NA,NA,NA,NA,NA,NA,NA,NA,NA,NA,NA,T4 (163-213),T4 (165-215),T4 (163-215),T4 (162-214),T4 (162-214),T4 (163-214),NA,NA,NA,NA,NA,NA,NA,Q4 (106-140),Q4 (106-140),Q4 (106-140),Q4 (107-141),NA,NA,NA,NA,NA,39.287896,-89.870241,Carlinville,62626,LAC,NA,NA,NA
Bloomfield College,NJ,183822,NA,NA,NA,T2 (156-201),T2 (168-222),T2 (171-221),T2 (164-215),T2 (173-229),T2 (173-229),T2 (179-232),T2 (177-235),T2 (182-236),T2 (183-240),T2 (182-240),T2 (183-236),T2 (190-250),T4 (192-249),T4 (190-248),T4 (187-248),NA,NA,NA,NA,NA,NA,NA,NA,NA,NA,NA,NA,NA,NA,NA,NA,NA,NA,NA,NA,NA,NA,40.795105,-74.194309,Bloomfield,07003,LAC,NA,NA,NA
Borromeo College of Ohio,OH,203368,NA,NA,NA,NA,NA,NA,NA,NA,NA,NA,NA,NA,NA,NA,NA,NA,NA,NA,NA,NA,NA,NA,NA,NA,NA,NA,NA,NA,NA,NA,NA,NA,NA,NA,NA,Q4 (107-141),NA,NA,NA,NA,NA,41.490259,-81.531224,University Heights,44118-4538,LAC,NA,NA,NA
Brevard College,NC,198066,NA,NA,NA,NA,NA,NA,NA,NA,NA,NA,NA,T2 (182-236),T2 (183-240),T2 (182-240),T2 (183-236),T2 (190-250),T4 (192-249),T4 (190-248),T4 (187-248),NA,NA,NA,NA,NA,NA,NA,NA,NA,NA,NA,NA,NA,NA,NA,NA,NA,NA,NA,NA,NA,NA,35.236763,-82.729494,Brevard,28712,LAC,NA,NA,NA
Brewton-Parker College,GA,139205,NA,NA,NA,NA,T2 (168-222),T2 (171-221),T2 (164-215),NA,NA,NA,NA,NA,NA,NA,NA,NA,NA,NA,NA,NA,NA,NA,NA,NA,NA,NA,NA,NA,NA,NA,NA,NA,NA,NA,NA,NA,NA,NA,NA,NA,NA,32.185718,-82.586136,Mount Vernon,30445,LAC,NA,NA,NA
Brigham Young University-Hawaii,HI,230047,NA,NA,NA,NA,NA,NA,NA,NA,NA,NA,NA,NA,NA,NA,NA,T2 (190-250),T4 (192-249),T4 (190-248),T4 (187-248),NA,NA,NA,NA,NA,NA,NA,NA,NA,NA,NA,NA,NA,NA,NA,NA,NA,NA,NA,NA,NA,NA,21.642074,-157.926586,Laie,96762-1294,LAC,NA,NA,NA
Burlington College,VT,230825,NA,NA,NA,NA,NA,NA,NA,NA,NA,T2 (179-232),T2 (177-235),T2 (182-236),T2 (183-240),NA,NA,NA,NA,NA,NA,NA,NA,T4 (163-215),T4 (162-214),T4 (162-214),T4 (163-214),NA,NA,NA,NA,NA,NA,NA,NA,NA,NA,NA,NA,NA,NA,NA,NA,NA,NA,NA,NA,LAC,NA,NA,NA
"California State University, Monterey Bay",CA,409698,NA,NA,NA,NA,NA,NA,NA,NA,NA,NA,NA,NA,NA,NA,NA,T2 (190-250),T4 (192-249),T4 (190-248),T4 (187-248),T4 (163-213),T4 (165-215),T4 (163-215),NA,NA,NA,NA,NA,NA,NA,NA,NA,NA,NA,NA,NA,NA,NA,NA,NA,NA,NA,36.652397,-121.796178,Seaside,93955-8001,LAC,NA,NA,NA
Calvin College,MI,169080,NA,NA,NA,NA,NA,NA,NA,NA,NA,NA,120,116,100,110,102,101,112,115,116,NA,NA,NA,NA,NA,NA,NA,NA,NA,NA,NA,NA,NA,NA,NA,NA,NA,NA,NA,NA,NA,NA,42.929916,-85.587548,Grand Rapids,49546,LAC,NA,NA,NA
Carroll College,MT,180106,NA,NA,NA,NA,NA,NA,NA,NA,NA,NA,NA,NA,NA,NA,NA,181,T3 (127-191),T3 (125-189),T3 (126-184),NA,NA,NA,NA,NA,NA,NA,NA,NA,NA,NA,NA,NA,NA,NA,NA,NA,NA,NA,NA,NA,NA,46.600771,-112.040285,Helena,59625-0002,LAC,NA,NA,NA
Carroll University,WI,238458,NA,NA,NA,NA,NA,NA,NA,NA,NA,NA,NA,NA,NA,NA,NA,NA,NA,NA,NA,NA,NA,NA,NA,NA,NA,NA,NA,NA,NA,NA,NA,NA,Q4 (106-140),Q4 (106-140),Q4 (106-140),Q4 (107-141),NA,NA,NA,NA,NA,43.004527,-88.228114,Waukesha,53186,LAC,NA,NA,NA
Carson-Newman College,TN,219806,NA,NA,NA,NA,NA,NA,NA,NA,NA,NA,NA,NA,NA,NA,NA,183,T4 (192-249),T3 (125-189),T3 (126-184),NA,NA,NA,NA,NA,NA,NA,NA,NA,NA,NA,NA,NA,NA,NA,NA,NA,NA,NA,NA,NA,NA,36.122934,-83.491709,Jefferson City,37760,LAC,NA,NA,NA
Carthage College,WI,238476,NA,NA,NA,NA,NA,NA,NA,T2 (173-229),163,154,154,155,167,161,165,NA,NA,NA,NA,NA,NA,NA,NA,NA,NA,NA,NA,NA,NA,NA,NA,NA,NA,NA,NA,NA,NA,NA,NA,NA,NA,42.622969,-87.820924,Kenosha,53140-1994,LAC,NA,NA,NA
Castleton State College,VT,230834,NA,NA,NA,NA,NA,NA,NA,NA,NA,NA,T2 (177-235),T2 (182-236),T2 (183-240),T2 (182-240),T2 (183-236),NA,NA,NA,NA,NA,NA,NA,NA,NA,NA,NA,NA,NA,NA,NA,NA,NA,NA,NA,NA,NA,NA,NA,NA,NA,NA,43.608397,-73.180842,Castleton,05735,LAC,NA,NA,NA
Cedar Crest College,PA,211468,NA,NA,NA,NA,NA,NA,NA,NA,NA,NA,NA,NA,NA,NA,NA,T2 (190-250),T3 (127-191),T3 (125-189),T3 (126-184),NA,NA,NA,NA,NA,NA,NA,NA,NA,NA,NA,NA,NA,NA,NA,NA,NA,NA,NA,NA,NA,NA,40.586318,-75.519221,Allentown,18104-6196,LAC,NA,NA,NA
Chatham College,PA,211556,NA,NA,NA,NA,NA,NA,NA,NA,NA,NA,NA,NA,NA,NA,NA,NA,NA,NA,NA,T3 (111-162),T3 (111-164),T3 (111-162),T3 (111-161),T3 (113-161),T3 (115-162),T4 (121-162),T4 (122-161),T4 (123-162),T4 (128-158),T4 (121-160),T3 (82-121),T4 (121-160),Q3 (71-105),Q3 (71-105),Q2 (36-70),Q2 (37-71),NA,NA,NA,NA,NA,40.448432,-79.926083,Pittsburgh,15232,LAC,NA,NA,NA
Chestnut Hill College,PA,211583,NA,NA,NA,NA,NA,NA,NA,NA,NA,NA,NA,NA,NA,NA,NA,NA,NA,NA,NA,NA,NA,NA,NA,NA,NA,NA,NA,NA,NA,NA,NA,NA,Q4 (106-140),Q4 (106-140),Q4 (106-140),Q4 (107-141),NA,NA,NA,NA,NA,40.08678,-75.228742,Philadelphia,19118-2693,LAC,NA,NA,NA
Chowan University,NC,198303,NA,NA,NA,NA,T2 (168-222),T2 (171-221),T2 (164-215),NA,NA,NA,NA,NA,NA,NA,NA,NA,NA,NA,NA,NA,NA,NA,NA,NA,NA,NA,NA,NA,NA,NA,NA,NA,NA,NA,NA,NA,NA,NA,NA,NA,NA,36.436258,-77.099141,Murfreesboro,27855,LAC,NA,NA,NA
Christendom College,VA,231703,NA,NA,NA,NA,NA,NA,NA,NA,NA,NA,NA,NA,NA,NA,NA,NA,NA,NA,NA,T4 (163-213),T3 (111-164),T4 (163-215),T4 (162-214),T4 (162-214),T4 (163-214),T4 (121-162),NA,NA,NA,NA,NA,NA,NA,NA,NA,NA,NA,NA,NA,NA,NA,NA,NA,NA,NA,LAC,NA,NA,NA
Christian Heritage College,CA,112084,NA,NA,NA,NA,NA,NA,NA,NA,NA,NA,NA,NA,NA,NA,NA,NA,NA,NA,NA,NA,T4 (165-215),T4 (163-215),T4 (162-214),T4 (162-214),T4 (163-214),NA,NA,NA,NA,NA,NA,NA,NA,NA,NA,NA,NA,NA,NA,NA,NA,32.843454,-116.978089,Santee,92071,LAC,NA,NA,NA
Christopher Newport University,VA,231712,NA,NA,NA,NA,NA,NA,NA,NA,NA,NA,NA,NA,NA,NA,NA,T2 (190-250),T4 (192-249),T4 (190-248),T4 (187-248),T4 (163-213),T4 (165-215),T4 (163-215),T4 (162-214),T4 (162-214),T4 (163-214),NA,NA,NA,NA,NA,NA,NA,NA,NA,NA,NA,NA,NA,NA,NA,NA,37.062495,-76.494364,Newport News,23606-3072,LAC,NA,NA,NA
Clarke University,IA,153126,NA,NA,NA,NA,NA,NA,NA,NA,NA,NA,NA,NA,NA,NA,NA,162,T3 (127-191),T3 (125-189),T3 (126-184),NA,NA,NA,NA,NA,NA,NA,NA,NA,NA,NA,NA,NA,NA,NA,NA,NA,NA,NA,NA,NA,NA,42.509475,-90.690487,Dubuque,52001-3198,LAC,NA,NA,NA
Clearwater Christian College,FL,133085,NA,NA,NA,NA,NA,NA,NA,NA,NA,NA,NA,T2 (182-236),T2 (183-240),T2 (182-240),T2 (183-236),NA,NA,NA,NA,NA,NA,NA,NA,NA,NA,NA,NA,NA,NA,NA,NA,NA,NA,NA,NA,NA,NA,NA,NA,NA,NA,NA,NA,NA,NA,LAC,NA,NA,NA
Coastal Carolina University,SC,218724,NA,NA,NA,NA,NA,NA,NA,NA,NA,NA,NA,NA,NA,NA,NA,T2 (190-250),T4 (192-249),T4 (190-248),T4 (187-248),T4 (163-213),T4 (165-215),T4 (163-215),T4 (162-214),T4 (162-214),T4 (163-214),NA,NA,NA,NA,NA,NA,NA,NA,NA,NA,NA,NA,NA,NA,NA,NA,33.794995,-79.011767,Conway,29526,LAC,NA,NA,NA
College of Idaho,ID,142294,NA,NA,NA,NA,136,120,117,131,168,168,169,159,167,164,171,174,T3 (127-191),T3 (125-189),NA,NA,NA,NA,NA,NA,NA,NA,NA,NA,NA,NA,NA,NA,NA,NA,NA,NA,NA,NA,NA,NA,NA,43.652284,-116.677992,Caldwell,83605-4432,LAC,NA,NA,NA
College of Mount St. Vincent,NY,193399,NA,NA,NA,NA,NA,NA,NA,NA,NA,NA,NA,NA,NA,NA,NA,NA,NA,NA,NA,NA,NA,NA,NA,NA,NA,NA,NA,NA,NA,NA,NA,NA,Q4 (106-140),Q4 (106-140),Q4 (106-140),Q4 (107-141),NA,NA,NA,NA,NA,40.913657,-73.908886999999993,Bronx,10471-1093,LAC,NA,NA,NA
The College of Saints John Fisher and Thomas More,TX,420352,NA,NA,NA,NA,NA,NA,NA,NA,NA,NA,NA,T2 (182-236),T2 (183-240),T2 (182-240),T2 (183-236),NA,NA,NA,NA,NA,NA,NA,NA,NA,NA,NA,NA,NA,NA,NA,NA,NA,NA,NA,NA,NA,NA,NA,NA,NA,NA,NA,NA,NA,NA,LAC,NA,NA,NA
Colorado State University Pueblo,CO,128106,NA,NA,NA,NA,NA,NA,NA,NA,NA,NA,NA,NA,NA,NA,NA,T2 (190-250),T4 (192-249),T4 (190-248),T4 (187-248),NA,NA,NA,NA,NA,NA,NA,NA,NA,NA,NA,NA,NA,NA,NA,NA,NA,NA,NA,NA,NA,NA,38.30859,-104.579033,Pueblo,81001-4901,LAC,NA,NA,NA
Concordia College,NY,190248,NA,NA,NA,NA,NA,NA,NA,NA,NA,NA,NA,NA,NA,NA,NA,T2 (190-250),T4 (192-249),T4 (190-248),T4 (187-248),NA,NA,NA,NA,NA,NA,NA,NA,NA,NA,NA,NA,NA,NA,NA,NA,NA,NA,NA,NA,NA,NA,NA,NA,NA,NA,LAC,NA,NA,NA
Davis and Elkins College,WV,237258,NA,NA,NA,NA,NA,NA,NA,T2 (173-229),T2 (173-229),T2 (179-232),NA,NA,NA,NA,NA,NA,NA,NA,NA,NA,NA,NA,NA,NA,NA,NA,NA,NA,NA,NA,NA,NA,NA,NA,NA,NA,NA,NA,NA,NA,NA,NA,NA,NA,NA,LAC,NA,NA,NA
Doane University,NE,181020,NA,NA,NA,NA,T2 (168-222),166,NA,155,158,149,158,164,156,167,165,152,T3 (127-191),T3 (125-189),T3 (126-184),NA,NA,NA,NA,NA,NA,NA,NA,NA,NA,NA,NA,NA,NA,NA,NA,NA,NA,NA,NA,NA,NA,40.622952,-96.950932,Crete,68333,LAC,NA,NA,NA
Eastern Mennonite University,VA,232043,NA,NA,NA,NA,NA,NA,NA,NA,NA,NA,171,172,180,175,175,181,T3 (127-191),T3 (125-189),T4 (187-248),T3 (111-162),T4 (165-215),T3 (111-162),T4 (162-214),T4 (162-214),T4 (163-214),NA,NA,NA,NA,NA,NA,NA,NA,NA,NA,NA,NA,NA,NA,NA,NA,38.471134,-78.880326,Harrisonburg,22802-2462,LAC,NA,NA,NA
Eastern Nazarene College,MA,165644,NA,NA,NA,NA,NA,NA,NA,NA,NA,NA,T2 (177-235),T2 (182-236),T2 (183-240),T2 (182-240),T2 (183-236),NA,NA,NA,NA,NA,NA,NA,NA,NA,NA,NA,NA,NA,NA,NA,NA,NA,NA,NA,NA,NA,NA,NA,NA,NA,NA,42.271228,-71.011079,Quincy,02170-2999,LAC,NA,NA,NA
Elizabethtown College,PA,212197,NA,NA,NA,NA,117,113,105,113,117,115,NA,NA,NA,NA,NA,NA,NA,NA,NA,NA,NA,NA,NA,NA,NA,NA,NA,NA,NA,NA,NA,NA,NA,NA,NA,NA,NA,NA,NA,NA,NA,40.149236,-76.593224,Elizabethtown,17022-2298,LAC,NA,NA,NA
Elmira College,NY,190983,NA,NA,NA,NA,NA,NA,NA,155,165,174,NA,NA,NA,NA,NA,NA,NA,NA,NA,NA,NA,NA,NA,NA,NA,NA,NA,NA,NA,NA,NA,NA,NA,NA,NA,NA,NA,NA,NA,NA,NA,42.0961,-76.813459,Elmira,14901,LAC,NA,NA,NA
Emory and Henry College,VA,232025,NA,NA,NA,NA,158,154,148,162,168,174,174,172,173,172,157,144,T3 (127-191),T3 (125-189),T3 (126-184),T3 (111-162),T3 (111-164),T3 (111-162),T3 (111-161),T3 (113-161),T3 (115-162),NA,NA,NA,NA,NA,NA,NA,NA,NA,NA,NA,NA,NA,NA,NA,NA,36.772857,-81.829142,Emory,24327-0947,LAC,NA,NA,NA
Erskine College,SC,217998,NA,NA,NA,NA,NA,NA,NA,T2 (173-229),T2 (173-229),T2 (179-232),T2 (177-235),178,180,156,144,NA,NA,NA,NA,T3 (111-162),T3 (111-164),T3 (111-162),T3 (111-161),T3 (113-161),T3 (115-162),T4 (121-162),T4 (122-161),T3 (90-122),T3 (93-127),T4 (121-160),T4 (122-161),T4 (121-160),NA,NA,NA,NA,NA,NA,NA,NA,NA,34.332087,-82.39095,Due West,29639,LAC,NA,NA,NA
Evangel University,MO,177339,NA,NA,NA,NA,NA,NA,NA,NA,NA,NA,NA,NA,NA,NA,NA,T2 (190-250),T4 (192-249),T4 (190-248),T4 (187-248),NA,NA,NA,NA,NA,NA,NA,NA,NA,NA,NA,NA,NA,NA,NA,NA,NA,NA,NA,NA,NA,NA,37.220956,-93.262614,Springfield,65802-2125,LAC,NA,NA,NA
Evergreen State College,WA,235167,NA,NA,NA,NA,NA,NA,NA,NA,NA,NA,NA,NA,NA,NA,NA,NA,NA,NA,NA,T4 (163-213),T4 (165-215),T4 (163-215),T4 (162-214),T4 (162-214),T3 (115-162),NA,NA,NA,NA,NA,NA,NA,NA,NA,NA,NA,NA,NA,NA,NA,NA,47.07382,-122.977492,Olympia,98505-0001,LAC,NA,NA,NA
Ferrum College,VA,232089,NA,NA,NA,NA,NA,NA,NA,NA,NA,NA,NA,NA,NA,NA,NA,T2 (190-250),T4 (192-249),T4 (190-248),T4 (187-248),NA,NA,NA,NA,NA,NA,NA,NA,NA,NA,NA,NA,NA,NA,NA,NA,NA,NA,NA,NA,NA,NA,36.926431,-80.020614,Ferrum,24088-9000,LAC,NA,NA,NA
Fort Lewis College,CO,127185,NA,NA,NA,NA,T2 (168-222),T2 (171-221),T2 (164-215),T2 (173-229),T2 (173-229),T2 (179-232),T2 (177-235),T2 (182-236),T2 (183-240),T2 (182-240),T2 (183-236),T2 (190-250),T4 (192-249),T4 (190-248),T4 (187-248),T4 (163-213),T4 (165-215),T4 (163-215),T4 (162-214),T4 (162-214),T4 (163-214),NA,NA,NA,NA,NA,NA,NA,NA,NA,NA,NA,NA,NA,NA,NA,NA,37.275939,-107.867422,Durango,81301-3999,LAC,NA,NA,NA
Franklin Pierce University,NH,182795,NA,NA,NA,NA,NA,NA,NA,NA,NA,NA,NA,NA,NA,NA,NA,T2 (190-250),T4 (192-249),T4 (190-248),T4 (187-248),T4 (163-213),T4 (165-215),T4 (163-215),T4 (162-214),T4 (162-214),T4 (163-214),NA,NA,NA,NA,NA,NA,NA,NA,NA,NA,NA,NA,NA,NA,NA,NA,42.78014,-72.058011,Rindge,03461-0060,LAC,NA,NA,NA
Goddard College,VT,230889,NA,NA,NA,NA,NA,NA,NA,NA,NA,NA,NA,NA,NA,NA,NA,NA,NA,NA,NA,NA,NA,NA,NA,NA,NA,NA,NA,NA,NA,NA,NA,NA,Q4 (106-140),Q4 (106-140),Q4 (106-140),Q4 (107-141),NA,NA,NA,NA,NA,44.279087,-72.438388,Plainfield,05667-9432,LAC,NA,NA,NA
Goshen College,IN,150668,NA,NA,NA,NA,NA,NA,NA,NA,NA,NA,127,129,141,140,139,137,T3 (127-191),T3 (125-189),T3 (126-184),T3 (111-162),T3 (111-164),T3 (111-162),T3 (111-161),T3 (113-161),T3 (115-162),T4 (121-162),T4 (122-161),T4 (123-162),T4 (128-158),T4 (121-160),T4 (122-161),T4 (121-160),Q4 (106-140),Q4 (106-140),Q4 (106-140),Q4 (107-141),NA,NA,NA,NA,NA,41.563582,-85.827795,Goshen,46526-4794,LAC,NA,NA,NA
Green Mountain College,VT,230898,NA,NA,NA,NA,NA,NA,NA,NA,NA,NA,T2 (177-235),T2 (182-236),T2 (183-240),T2 (182-240),T2 (183-236),T2 (190-250),T4 (192-249),T4 (190-248),T4 (187-248),NA,NA,NA,NA,NA,NA,NA,NA,NA,NA,NA,NA,NA,NA,NA,NA,NA,NA,NA,NA,NA,NA,NA,NA,NA,NA,LAC,NA,NA,NA
Greensboro College,NC,198598,NA,NA,NA,NA,NA,NA,NA,NA,NA,NA,NA,NA,NA,NA,NA,T2 (190-250),T4 (192-249),T4 (190-248),T4 (187-248),T4 (163-213),T4 (165-215),T4 (163-215),T4 (162-214),T4 (162-214),T4 (163-214),NA,NA,NA,NA,NA,NA,NA,NA,NA,NA,NA,NA,NA,NA,NA,NA,36.071082,-79.800232,Greensboro,27401-1875,LAC,NA,NA,NA
Grove City College,PA,212805,NA,NA,NA,NA,105,113,114,120,126,122,134,139,141,133,133,127,T3 (127-191),T3 (125-189),T3 (126-184),NA,NA,NA,NA,NA,NA,NA,NA,NA,NA,NA,NA,NA,NA,NA,NA,NA,NA,NA,NA,NA,NA,41.1558,-80.081481,Grove City,16127-2104,LAC,NA,NA,NA
Hamline University,MN,173665,NA,NA,NA,NA,NA,NA,NA,NA,NA,NA,NA,NA,NA,NA,NA,NA,NA,NA,NA,NA,NA,NA,NA,NA,NA,T3 (81-120),T3 (81-121),T3 (90-122),T3 (93-127),T3 (81-120),T3 (82-121),T3 (81-120),Q3 (71-105),Q3 (71-105),Q3 (71-105),Q4 (107-141),NA,NA,NA,NA,NA,44.966246,-93.164479,Saint Paul,55104-1284,LAC,NA,NA,NA
Harrisburg University of Science and Technology,PA,446640,NA,NA,NA,NA,NA,NA,NA,NA,NA,NA,T2 (177-235),T2 (182-236),T2 (183-240),T2 (182-240),NA,NA,NA,NA,NA,NA,NA,NA,NA,NA,NA,NA,NA,NA,NA,NA,NA,NA,NA,NA,NA,NA,NA,NA,NA,NA,NA,40.26193,-76.880261,Harrisburg,17101-2208,LAC,NA,NA,NA
Hastings College,NE,181127,NA,NA,NA,NA,NA,NA,NA,NA,NA,NA,NA,NA,NA,NA,NA,174,T3 (127-191),T3 (125-189),T3 (126-184),T4 (163-213),T3 (111-164),T3 (111-162),T3 (111-161),T4 (162-214),T4 (163-214),T4 (121-162),T4 (122-161),T4 (123-162),T4 (128-158),T4 (121-160),T4 (122-161),T4 (121-160),NA,NA,NA,NA,NA,NA,NA,NA,NA,40.59025,-98.374403,Hastings,68901,LAC,NA,NA,NA
Heidelberg University,OH,203085,NA,NA,NA,NA,NA,NA,NA,NA,NA,T2 (179-232),NA,NA,NA,NA,NA,NA,NA,NA,NA,NA,NA,NA,NA,NA,NA,NA,NA,NA,NA,NA,NA,NA,NA,NA,NA,NA,NA,NA,NA,NA,NA,41.114833,-83.168387,Tiffin,44883-2462,LAC,NA,NA,NA
Hiram College,OH,203128,NA,NA,NA,NA,NA,NA,NA,155,141,149,154,148,156,167,156,152,T3 (127-191),T3 (125-189),T3 (126-184),T3 (111-162),T3 (111-164),T3 (111-162),T3 (111-161),T3 (113-161),T3 (115-162),T3 (81-120),T3 (81-121),T3 (90-122),T3 (93-127),T3 (81-120),T3 (82-121),T3 (81-120),NA,NA,NA,NA,NA,NA,NA,NA,NA,41.3107,-81.143981,Hiram,44234-0067,LAC,NA,NA,NA
Huntingdon College,AL,101435,NA,NA,NA,NA,NA,NA,NA,NA,NA,NA,NA,NA,NA,NA,NA,T2 (190-250),T4 (192-249),T4 (190-248),T4 (187-248),T4 (163-213),T4 (165-215),T3 (111-162),T3 (111-161),T3 (113-161),T4 (163-214),T4 (121-162),T4 (122-161),T4 (123-162),T4 (128-158),T4 (121-160),T4 (122-161),T4 (121-160),NA,NA,NA,NA,NA,NA,NA,NA,NA,32.351034,-86.284366,Montgomery,36106-2148,LAC,NA,NA,NA
Huston-Tillotson University,TX,225575,NA,NA,NA,NA,NA,NA,NA,NA,NA,NA,T2 (177-235),T2 (182-236),T2 (183-240),T2 (182-240),T2 (183-236),T2 (190-250),T4 (192-249),T4 (190-248),T4 (187-248),NA,NA,NA,NA,NA,NA,NA,NA,NA,NA,NA,NA,NA,NA,NA,NA,NA,NA,NA,NA,NA,NA,30.264667,-97.721691,Austin,78702-2795,LAC,NA,NA,NA
Illinois Wesleyan University,IL,145646,NA,NA,NA,NA,89,80,80,72,71,72,72,73,65,70,71,62,62,60,59,61,55,53,56,50,T2 (52-114),T2 (52-80),T2 (43-80),T2 (41-89),T2 (43-92),T2 (41-80),T2 (41-81),T2 (41-80),NA,NA,NA,NA,NA,NA,NA,NA,NA,40.489901,-88.992014,Bloomington,61702-2900,LAC,NA,NA,NA
Jarvis Christian College,TX,225885,NA,NA,NA,NA,NA,NA,NA,NA,NA,NA,NA,NA,NA,NA,NA,T2 (190-250),T4 (192-249),T4 (190-248),T4 (187-248),NA,NA,NA,NA,NA,NA,NA,NA,NA,NA,NA,NA,NA,NA,NA,NA,NA,NA,NA,NA,NA,NA,32.587942,-95.181513,Hawkins,75765-1470,LAC,NA,NA,NA
Judson College,AL,101541,NA,NA,NA,NA,T2 (168-222),T2 (171-221),T2 (164-215),T2 (173-229),T2 (173-229),T2 (179-232),T2 (177-235),T2 (182-236),T2 (183-240),T2 (182-240),T2 (183-236),T2 (190-250),T4 (192-249),T4 (190-248),T4 (187-248),T4 (163-213),T4 (165-215),T4 (163-215),T4 (162-214),T4 (162-214),T4 (163-214),T4 (121-162),T4 (122-161),T4 (123-162),T4 (128-158),T4 (121-160),T4 (122-161),T4 (121-160),NA,NA,NA,NA,NA,NA,NA,NA,NA,NA,NA,NA,NA,LAC,NA,NA,NA
Kentucky State University,KY,157058,NA,NA,NA,NA,NA,NA,NA,NA,NA,NA,T2 (177-235),T2 (182-236),T2 (183-240),T2 (182-240),T2 (183-236),NA,NA,NA,NA,NA,NA,NA,NA,NA,NA,NA,NA,NA,NA,NA,NA,NA,NA,NA,NA,NA,NA,NA,NA,NA,NA,38.201427,-84.855402,Frankfort,40601-2355,LAC,NA,NA,NA
Kentucky Wesleyan College,KY,157076,NA,NA,NA,NA,NA,NA,NA,NA,NA,NA,NA,NA,NA,NA,NA,T2 (190-250),T4 (192-249),T4 (190-248),T4 (187-248),NA,NA,NA,NA,NA,NA,NA,NA,NA,NA,NA,NA,NA,NA,NA,NA,NA,NA,NA,NA,NA,NA,37.744489,-87.119658,Owensboro,42301,LAC,NA,NA,NA
King College,TN,220516,NA,NA,NA,NA,NA,NA,NA,NA,NA,NA,NA,NA,NA,NA,NA,NA,NA,NA,NA,T4 (163-213),T4 (165-215),T4 (163-215),T4 (162-214),T4 (162-214),T4 (163-214),NA,NA,NA,NA,NA,NA,NA,Q4 (106-140),Q4 (106-140),Q4 (106-140),Q4 (107-141),NA,NA,NA,NA,NA,36.585309,-82.159421,Bristol,37620-2699,LAC,NA,NA,NA
LaGrange College,GA,140234,NA,NA,NA,NA,NA,NA,NA,T2 (173-229),T2 (173-229),T2 (179-232),NA,NA,NA,NA,NA,NA,NA,NA,NA,NA,NA,NA,NA,NA,NA,NA,NA,NA,NA,NA,NA,NA,NA,NA,NA,NA,NA,NA,NA,NA,NA,33.038564,-85.043113,Lagrange,30240-2999,LAC,NA,NA,NA
Lambuth University,TN,220589,NA,NA,NA,NA,NA,NA,NA,NA,NA,NA,NA,NA,NA,NA,T2 (183-236),T2 (190-250),T4 (192-249),T4 (190-248),T4 (187-248),NA,NA,NA,NA,NA,NA,NA,NA,NA,NA,NA,NA,NA,NA,NA,NA,NA,NA,NA,NA,NA,NA,NA,NA,NA,NA,LAC,NA,NA,NA
Lebanon Valley College,PA,213507,NA,NA,NA,NA,NA,NA,NA,NA,NA,NA,NA,NA,NA,NA,NA,NA,NA,NA,NA,NA,NA,NA,NA,NA,NA,NA,NA,NA,NA,NA,NA,NA,Q4 (106-140),Q4 (106-140),Q4 (106-140),Q4 (107-141),NA,NA,NA,NA,NA,40.330604,-76.514431,Annville,17003-1400,LAC,NA,NA,NA
Lees-McRae College,NC,198808,NA,NA,NA,NA,NA,NA,NA,NA,NA,NA,NA,NA,NA,NA,NA,NA,NA,NA,NA,T4 (163-213),T4 (165-215),T4 (163-215),T4 (162-214),T4 (162-214),T4 (163-214),NA,NA,NA,NA,NA,NA,NA,NA,NA,NA,NA,NA,NA,NA,NA,NA,36.162477,-81.873371,Banner Elk,28604,LAC,NA,NA,NA
Life University,GA,140252,NA,NA,NA,NA,NA,NA,NA,NA,NA,NA,T2 (177-235),T2 (182-236),T2 (183-240),T2 (182-240),T2 (183-236),NA,NA,NA,NA,NA,NA,NA,NA,NA,NA,NA,NA,NA,NA,NA,NA,NA,NA,NA,NA,NA,NA,NA,NA,NA,NA,33.932781,-84.514729,Marietta,30060,LAC,NA,NA,NA
Lindsey Wilson College,KY,157216,NA,NA,NA,NA,NA,NA,NA,NA,NA,NA,NA,NA,NA,NA,NA,T2 (190-250),T4 (192-249),T4 (190-248),T4 (187-248),T4 (163-213),T4 (165-215),T4 (163-215),T4 (162-214),T4 (162-214),T4 (163-214),NA,NA,NA,NA,NA,NA,NA,NA,NA,NA,NA,NA,NA,NA,NA,NA,37.101502,-85.299997,Columbia,42728-1223,LAC,NA,NA,NA
Southampton College of Long Island University,NY,192466,NA,NA,NA,NA,NA,NA,NA,NA,NA,NA,NA,NA,NA,NA,NA,NA,NA,NA,NA,NA,NA,T4 (163-215),T4 (162-214),T4 (162-214),T4 (163-214),NA,NA,NA,NA,NA,NA,NA,NA,NA,NA,NA,NA,NA,NA,NA,NA,NA,NA,NA,NA,LAC,NA,NA,NA
Louisiana State University of Alexandria,LA,159382,NA,NA,NA,NA,T2 (168-222),T2 (171-221),T2 (164-215),T2 (173-229),T2 (173-229),T2 (179-232),T2 (177-235),T2 (182-236),T2 (183-240),T2 (182-240),T2 (183-236),NA,NA,NA,NA,NA,NA,NA,NA,NA,NA,NA,NA,NA,NA,NA,NA,NA,NA,NA,NA,NA,NA,NA,NA,NA,NA,31.178616,-92.414409,Alexandria,71302-9121,LAC,NA,NA,NA
MacMurray College,IL,146825,NA,NA,NA,NA,NA,NA,NA,NA,NA,NA,NA,NA,NA,NA,NA,NA,NA,NA,NA,NA,NA,NA,NA,NA,NA,NA,NA,NA,NA,NA,NA,NA,Q4 (106-140),Q4 (106-140),Q4 (106-140),Q4 (107-141),NA,NA,NA,NA,NA,NA,NA,NA,NA,LAC,NA,NA,NA
Manhattanville College,NY,192749,NA,NA,NA,NA,NA,NA,NA,NA,NA,T2 (179-232),NA,NA,NA,NA,NA,NA,NA,NA,NA,NA,NA,NA,NA,NA,NA,T4 (121-162),T4 (122-161),T4 (123-162),T4 (128-158),T4 (121-160),T4 (122-161),T4 (121-160),Q4 (106-140),Q4 (106-140),Q4 (106-140),Q4 (107-141),NA,NA,NA,NA,NA,41.032187,-73.715645,Purchase,10577,LAC,NA,NA,NA
Mansfield University of Pennsylvania,PA,213783,NA,NA,NA,NA,T2 (168-222),T2 (171-221),T2 (164-215),NA,NA,NA,NA,NA,NA,NA,NA,NA,NA,NA,NA,NA,NA,NA,NA,NA,NA,NA,NA,NA,NA,NA,NA,NA,NA,NA,NA,NA,NA,NA,NA,NA,NA,NA,NA,NA,NA,LAC,NA,NA,NA
Marlboro College,VT,230940,NA,NA,NA,NA,T2 (168-222),155,136,116,117,128,136,NA,T2 (183-240),T2 (182-240),NA,T2 (190-250),T4 (192-249),T4 (190-248),T3 (126-184),T3 (111-162),T3 (111-164),T3 (111-162),T3 (111-161),T3 (113-161),T3 (115-162),T4 (121-162),T4 (122-161),T4 (123-162),T4 (128-158),T4 (121-160),T4 (122-161),T4 (121-160),Q3 (71-105),Q3 (71-105),Q3 (71-105),Q3 (72-106),NA,NA,NA,NA,NA,NA,NA,NA,NA,LAC,NA,NA,NA
Marymount California University,CA,118541,NA,NA,NA,NA,T2 (168-222),T2 (171-221),T2 (164-215),NA,NA,NA,NA,NA,NA,NA,NA,NA,NA,NA,NA,NA,NA,NA,NA,NA,NA,NA,NA,NA,NA,NA,NA,NA,NA,NA,NA,NA,NA,NA,NA,NA,NA,NA,NA,NA,NA,LAC,NA,NA,NA
McDaniel College,MD,164270,NA,NA,NA,NA,NA,NA,NA,124,134,128,134,129,126,140,139,122,T3 (127-191),T3 (125-189),NA,T3 (111-162),T3 (111-164),T3 (111-162),T3 (111-161),T3 (113-161),T3 (115-162),T3 (81-120),T3 (81-121),T4 (123-162),T4 (128-158),T4 (121-160),T4 (122-161),T4 (121-160),Q4 (106-140),Q4 (106-140),Q4 (106-140),Q4 (107-141),NA,NA,NA,NA,NA,39.584231,-77.001992,Westminster,21157,LAC,NA,NA,NA
McPherson College,KS,155511,NA,NA,NA,NA,NA,NA,NA,NA,NA,NA,NA,NA,NA,NA,NA,T2 (190-250),T4 (192-249),T4 (190-248),T4 (187-248),NA,NA,NA,NA,NA,NA,NA,NA,NA,NA,NA,NA,NA,NA,NA,NA,NA,NA,NA,NA,NA,NA,38.371422,-97.642996,McPherson,67460-1402,LAC,NA,NA,NA
Merrimack College,MA,166850,NA,NA,NA,NA,NA,NA,NA,NA,NA,NA,NA,NA,NA,NA,NA,174,T3 (127-191),T3 (125-189),T3 (126-184),NA,NA,NA,NA,NA,NA,NA,NA,NA,NA,NA,NA,NA,NA,NA,NA,NA,NA,NA,NA,NA,NA,42.668344,-71.124216,North Andover,01845,LAC,NA,NA,NA
Colorado Mesa University,CO,127556,NA,NA,NA,NA,NA,NA,NA,NA,NA,NA,T2 (177-235),T2 (182-236),T2 (183-240),T2 (182-240),T2 (183-236),T2 (190-250),T4 (192-249),T4 (190-248),T4 (187-248),T4 (163-213),T4 (165-215),T4 (163-215),T4 (162-214),T4 (162-214),T4 (163-214),NA,NA,NA,NA,NA,NA,NA,NA,NA,NA,NA,NA,NA,NA,NA,NA,39.080643,-108.553275,Grand Junction,81501-3122,LAC,NA,NA,NA
Metropolitan State College of Denver,CO,127565,NA,NA,NA,NA,NA,NA,NA,NA,NA,NA,NA,NA,NA,NA,NA,T2 (190-250),T4 (192-249),T4 (190-248),T4 (187-248),NA,NA,NA,NA,NA,NA,NA,NA,NA,NA,NA,NA,NA,NA,NA,NA,NA,NA,NA,NA,NA,NA,39.744202,-105.00504,Denver,80217-3362,LAC,NA,NA,NA
Millikin University,IL,147244,NA,NA,NA,NA,NA,NA,NA,NA,NA,NA,NA,NA,NA,NA,NA,144,T3 (127-191),T3 (125-189),T3 (126-184),NA,NA,NA,NA,NA,NA,NA,NA,NA,NA,NA,NA,NA,NA,NA,NA,NA,NA,NA,NA,NA,NA,39.842612,-88.976298,Decatur,62522-2084,LAC,NA,NA,NA
Mills College,CA,118888,NA,NA,NA,NA,NA,NA,NA,NA,NA,NA,NA,NA,NA,NA,NA,NA,NA,NA,NA,82,73,70,66,T2 (53-112),T2 (52-114),T2 (52-80),T2 (43-80),T3 (90-122),T3 (93-127),T2 (41-80),T3 (82-121),T3 (81-120),Q3 (71-105),Q3 (71-105),Q3 (71-105),Q2 (37-71),NA,NA,NA,NA,NA,37.781425,-122.182294,Oakland,94613,LAC,NA,NA,NA
Moravian University,PA,214157,NA,NA,NA,NA,141,140,136,155,165,159,148,133,138,140,127,131,122,T3 (125-189),T3 (126-184),T3 (111-162),T3 (111-164),T3 (111-162),T3 (111-161),T3 (113-161),T3 (115-162),T3 (81-120),T3 (81-121),T3 (90-122),T4 (128-158),T4 (121-160),T4 (122-161),T4 (121-160),NA,NA,NA,NA,NA,NA,NA,NA,NA,40.630947,-75.383638,Bethlehem,18018-6650,LAC,NA,NA,NA
Muskingum College,OH,204264,NA,NA,NA,NA,NA,NA,NA,NA,NA,NA,NA,NA,NA,NA,NA,NA,NA,NA,NA,T3 (111-162),T3 (111-164),T3 (111-162),T3 (111-161),T4 (162-214),T4 (163-214),NA,NA,NA,NA,NA,NA,NA,NA,NA,NA,NA,NA,NA,NA,NA,NA,39.996585,-81.737127,New Concord,43762-1837,LAC,NA,NA,NA
National Hispanic University,CA,119544,NA,NA,NA,NA,NA,NA,NA,NA,NA,NA,NA,NA,NA,NA,NA,NA,NA,NA,NA,T4 (163-213),T4 (165-215),T4 (163-215),T4 (162-214),NA,NA,NA,NA,NA,NA,NA,NA,NA,NA,NA,NA,NA,NA,NA,NA,NA,NA,NA,NA,NA,NA,LAC,NA,NA,NA
Nebraska Wesleyan University,NE,181446,NA,NA,NA,NA,NA,NA,NA,NA,NA,NA,143,148,146,145,144,152,T3 (127-191),T3 (125-189),T3 (126-184),T3 (111-162),T3 (111-164),T3 (111-162),T3 (111-161),T3 (113-161),T3 (115-162),T4 (121-162),T4 (122-161),T4 (123-162),T4 (128-158),T4 (121-160),T4 (122-161),T4 (121-160),Q4 (106-140),Q4 (106-140),Q4 (106-140),Q4 (107-141),NA,NA,NA,NA,NA,40.839098,-96.64831,Lincoln,68504-2794,LAC,NA,NA,NA
Neumann College,PA,214272,NA,NA,NA,NA,NA,NA,NA,NA,NA,NA,NA,NA,NA,NA,NA,NA,NA,NA,NA,NA,NA,NA,NA,NA,NA,NA,NA,NA,NA,NA,NA,NA,Q4 (106-140),Q4 (106-140),Q4 (106-140),Q4 (107-141),NA,NA,NA,NA,NA,39.874876,-75.440022,Aston,19014-1298,LAC,NA,NA,NA
North Greenville University,SC,218441,NA,NA,NA,NA,NA,NA,NA,NA,NA,NA,NA,NA,NA,NA,NA,T2 (190-250),T4 (192-249),T4 (190-248),T4 (187-248),NA,NA,NA,NA,NA,NA,NA,NA,NA,NA,NA,NA,NA,NA,NA,NA,NA,NA,NA,NA,NA,NA,35.069758,-82.37026,Tigerville,29688-1892,LAC,NA,NA,NA
Northland College,WI,239512,NA,NA,NA,NA,NA,NA,NA,162,T2 (173-229),174,T2 (177-235),172,180,178,176,183,T4 (192-249),T4 (190-248),T4 (187-248),NA,NA,NA,NA,NA,NA,NA,NA,NA,NA,NA,NA,NA,NA,NA,NA,NA,NA,NA,NA,NA,NA,46.579087,-90.87476,Ashland,54806-3999,LAC,NA,NA,NA
Olivet College,MI,171599,NA,NA,NA,NA,NA,NA,NA,NA,NA,NA,NA,NA,NA,NA,NA,T2 (190-250),T4 (192-249),T4 (190-248),T4 (187-248),T4 (163-213),T4 (165-215),T4 (163-215),T4 (162-214),T4 (162-214),T4 (163-214),NA,NA,NA,NA,NA,NA,NA,NA,NA,NA,NA,NA,NA,NA,NA,NA,42.442891,-84.923891,Olivet,49076,LAC,NA,NA,NA
Pacific Union College,CA,120865,NA,NA,NA,NA,NA,NA,NA,T2 (173-229),T2 (173-229),T2 (179-232),T2 (177-235),T2 (182-236),T2 (183-240),T2 (182-240),T2 (183-236),NA,NA,NA,NA,NA,NA,NA,NA,NA,NA,NA,NA,NA,NA,NA,NA,NA,NA,NA,NA,NA,NA,NA,NA,NA,NA,38.570585,-122.440308,Angwin,94508-9707,LAC,NA,NA,NA
Peace College,NC,199272,NA,NA,NA,NA,NA,NA,NA,NA,NA,NA,NA,NA,NA,NA,T2 (183-236),T2 (190-250),T4 (192-249),T4 (190-248),T4 (187-248),NA,NA,NA,NA,NA,NA,NA,NA,NA,NA,NA,NA,NA,NA,NA,NA,NA,NA,NA,NA,NA,NA,35.789139,-78.637697,Raleigh,27604-1194,LAC,NA,NA,NA
Philander Smith College,AR,107600,NA,NA,NA,NA,NA,NA,NA,T2 (173-229),T2 (173-229),T2 (179-232),NA,NA,NA,NA,NA,NA,NA,NA,NA,NA,NA,NA,NA,NA,NA,NA,NA,NA,NA,NA,NA,NA,NA,NA,NA,NA,NA,NA,NA,NA,NA,34.737131,-92.283015,Little Rock,72202-3799,LAC,NA,NA,NA
Pine Manor College,MA,167455,NA,NA,NA,NA,NA,T2 (171-221),T2 (164-215),T2 (173-229),T2 (173-229),T2 (179-232),T2 (177-235),T2 (182-236),T2 (183-240),T2 (182-240),T2 (183-236),T2 (190-250),T4 (192-249),T4 (190-248),T4 (187-248),T4 (163-213),T4 (165-215),T4 (163-215),T4 (162-214),T4 (162-214),T4 (163-214),NA,NA,NA,NA,NA,NA,NA,NA,NA,NA,NA,NA,NA,NA,NA,NA,NA,NA,NA,NA,LAC,NA,NA,NA
Providence College,RI,217402,NA,NA,NA,NA,NA,NA,NA,NA,NA,NA,NA,NA,NA,NA,NA,NA,NA,NA,NA,NA,NA,NA,NA,NA,NA,NA,NA,NA,NA,NA,NA,T4 (121-160),NA,NA,NA,NA,NA,NA,NA,NA,NA,41.842742,-71.437446,Providence,02918-0001,LAC,NA,NA,NA
Regis College,MA,167598,NA,NA,NA,NA,NA,NA,NA,NA,NA,NA,NA,NA,NA,NA,NA,NA,NA,NA,NA,NA,NA,NA,NA,NA,NA,NA,NA,NA,NA,NA,NA,NA,Q4 (106-140),Q4 (106-140),Q4 (106-140),Q4 (107-141),NA,NA,NA,NA,NA,42.351291,-71.310561,Weston,02493-1571,LAC,NA,NA,NA
Richard Stockton College of New Jersey,NJ,186876,NA,NA,NA,NA,NA,NA,NA,NA,NA,NA,NA,NA,NA,NA,NA,NA,NA,NA,NA,T3 (111-162),T3 (111-164),T4 (163-215),T4 (162-214),T4 (162-214),T4 (163-214),T4 (121-162),T4 (122-161),T4 (123-162),T4 (128-158),T4 (121-160),T4 (122-161),T4 (121-160),NA,NA,NA,NA,NA,NA,NA,NA,NA,39.492036,-74.531087,Galloway,08205-9441,LAC,NA,NA,NA
Rockford College,IL,148405,NA,NA,NA,NA,NA,NA,NA,NA,NA,NA,NA,NA,NA,NA,NA,NA,NA,NA,NA,NA,NA,NA,NA,NA,NA,NA,NA,NA,NA,NA,NA,NA,Q4 (106-140),Q4 (106-140),Q4 (106-140),Q4 (107-141),NA,NA,NA,NA,NA,42.270639,-89.019536,Rockford,61108-2311,LAC,NA,NA,NA
Rosemont College,PA,215691,NA,NA,NA,NA,NA,NA,NA,NA,NA,NA,NA,NA,NA,NA,NA,NA,NA,NA,NA,T3 (111-162),T3 (111-164),T3 (111-162),T3 (111-161),T3 (113-161),T3 (115-162),NA,NA,NA,NA,NA,NA,NA,NA,NA,NA,NA,NA,NA,NA,NA,NA,40.033417,-75.32925,Rosemont,19010-1699,LAC,NA,NA,NA
Russell Sage College,NY,195128,NA,NA,NA,NA,NA,NA,NA,NA,NA,NA,NA,NA,NA,NA,NA,131,T3 (127-191),T3 (125-189),T3 (126-184),NA,NA,NA,NA,NA,NA,NA,NA,NA,NA,NA,NA,NA,NA,NA,NA,NA,NA,NA,NA,NA,NA,42.72822,-73.693711,Troy,12180,LAC,NA,NA,NA
San Diego Christian College,CA,112084,NA,NA,NA,NA,NA,NA,NA,NA,NA,NA,T2 (177-235),T2 (182-236),T2 (183-240),T2 (182-240),T2 (183-236),NA,NA,NA,NA,T4 (163-213),NA,NA,NA,NA,NA,NA,NA,NA,NA,NA,NA,NA,NA,NA,NA,NA,NA,NA,NA,NA,NA,32.843454,-116.978089,Santee,92071,LAC,NA,NA,NA
Savannah State University,GA,140960,NA,NA,NA,NA,NA,NA,NA,NA,NA,NA,T2 (177-235),T2 (182-236),T2 (183-240),T2 (182-240),T2 (183-236),NA,NA,NA,NA,NA,NA,NA,NA,NA,NA,NA,NA,NA,NA,NA,NA,NA,NA,NA,NA,NA,NA,NA,NA,NA,NA,32.024781,-81.063377,Savannah,31404-5310,LAC,NA,NA,NA
Schreiner University,TX,228042,NA,NA,NA,NA,NA,NA,NA,T2 (173-229),T2 (173-229),T2 (179-232),NA,NA,NA,NA,NA,NA,NA,NA,NA,T4 (163-213),T4 (165-215),T4 (163-215),T4 (162-214),T4 (162-214),T4 (163-214),NA,NA,NA,NA,NA,NA,NA,NA,NA,NA,NA,NA,NA,NA,NA,NA,30.031458,-99.130586,Kerrville,78028-5697,LAC,NA,NA,NA
Seton Hill University,PA,215947,NA,NA,NA,NA,NA,NA,NA,NA,NA,NA,NA,NA,NA,NA,NA,NA,NA,NA,NA,T4 (163-213),T4 (165-215),T4 (163-215),T4 (162-214),T4 (162-214),T4 (163-214),NA,NA,NA,NA,NA,NA,NA,NA,NA,NA,NA,NA,NA,NA,NA,NA,40.309407,-79.557433,Greensburg,15601,LAC,NA,NA,NA
Shawnee State University,OH,205443,NA,NA,NA,NA,NA,NA,NA,NA,NA,NA,T2 (177-235),T2 (182-236),T2 (183-240),T2 (182-240),T2 (183-236),NA,NA,NA,NA,T4 (163-213),T4 (165-215),T4 (163-215),T4 (162-214),T4 (162-214),T4 (163-214),NA,NA,NA,NA,NA,NA,NA,NA,NA,NA,NA,NA,NA,NA,NA,NA,38.730867,-82.993769,Portsmouth,45662,LAC,NA,NA,NA
Shepherd University,WV,237792,NA,NA,NA,NA,T2 (168-222),T2 (171-221),T2 (164-215),T2 (173-229),T2 (173-229),T2 (179-232),NA,NA,NA,NA,NA,NA,NA,NA,NA,NA,NA,NA,NA,NA,NA,T4 (121-162),T4 (122-161),T4 (123-162),T4 (128-158),T4 (121-160),T4 (122-161),T4 (121-160),NA,NA,NA,NA,NA,NA,NA,NA,NA,39.433071,-77.804101,Shepherdstown,25443,LAC,NA,NA,NA
Shimer College,IL,148849,NA,NA,NA,NA,NA,NA,NA,NA,NA,NA,NA,NA,T2 (183-240),T2 (182-240),T2 (183-236),NA,NA,NA,NA,NA,NA,NA,NA,NA,NA,NA,NA,NA,NA,NA,NA,NA,NA,NA,NA,NA,NA,NA,NA,NA,NA,NA,NA,NA,NA,LAC,NA,NA,NA
Shorter University,GA,140988,NA,NA,NA,NA,NA,NA,NA,NA,NA,NA,T2 (177-235),T2 (182-236),T2 (183-240),T2 (182-240),T2 (183-236),NA,NA,NA,NA,NA,NA,NA,NA,NA,NA,NA,NA,NA,NA,NA,NA,NA,NA,NA,NA,NA,NA,NA,NA,NA,NA,34.257543,-85.196529,Rome,30165,LAC,NA,NA,NA
Siena College,NY,195474,NA,NA,NA,NA,NA,NA,NA,135,134,122,112,113,126,112,112,114,121,118,122,T3 (111-162),T3 (111-164),T3 (111-162),T3 (111-161),T3 (113-161),T3 (115-162),T3 (81-120),T3 (81-121),T3 (90-122),T3 (93-127),T3 (81-120),T4 (122-161),NA,NA,NA,NA,NA,NA,NA,NA,NA,NA,42.717602,-73.7526,Loudonville,12211-1462,LAC,NA,NA,NA
Sierra Nevada College,NV,182458,NA,NA,NA,NA,NA,NA,NA,NA,NA,NA,NA,NA,NA,NA,NA,T2 (190-250),T4 (192-249),T4 (190-248),T4 (187-248),NA,NA,NA,NA,NA,NA,NA,NA,NA,NA,NA,NA,NA,NA,NA,NA,NA,NA,NA,NA,NA,NA,NA,NA,NA,NA,LAC,NA,NA,NA
Spring Hill College,AL,102234,NA,NA,NA,NA,T2 (168-222),T2 (171-221),T2 (164-215),T2 (173-229),T2 (173-229),T2 (179-232),NA,NA,NA,NA,NA,NA,NA,NA,NA,NA,NA,NA,NA,NA,NA,NA,NA,NA,NA,NA,NA,NA,NA,NA,NA,NA,NA,NA,NA,NA,NA,30.694751,-88.138199,Mobile,36608-1780,LAC,NA,NA,NA
St. Andrews Presbyterian College,NC,199698,NA,NA,NA,NA,NA,NA,NA,NA,NA,NA,NA,NA,NA,NA,NA,T2 (190-250),T4 (192-249),T4 (190-248),T4 (187-248),T4 (163-213),T4 (165-215),T4 (163-215),T4 (162-214),T4 (162-214),T4 (163-214),T4 (121-162),T4 (122-161),T4 (123-162),T4 (128-158),T4 (121-160),T4 (122-161),T4 (121-160),NA,NA,NA,NA,NA,NA,NA,NA,NA,34.74563,-79.478567,Laurinburg,28352,LAC,NA,NA,NA
St. Augustine's College,NC,199582,NA,NA,NA,NA,NA,NA,NA,NA,NA,NA,NA,NA,NA,NA,NA,NA,NA,NA,T3 (126-184),T4 (163-213),T4 (165-215),T4 (163-215),T4 (162-214),T4 (162-214),T4 (163-214),NA,NA,NA,NA,NA,NA,NA,NA,NA,NA,NA,NA,NA,NA,NA,NA,35.785468,-78.621301,Raleigh,27610-2298,LAC,NA,NA,NA
St. Francis College,NY,195173,NA,NA,NA,NA,NA,NA,NA,NA,NA,NA,NA,NA,NA,NA,NA,NA,NA,NA,T4 (187-248),NA,NA,NA,NA,NA,NA,NA,NA,NA,NA,NA,NA,NA,NA,NA,NA,NA,NA,NA,NA,NA,NA,40.690233,-73.986559,Brooklyn,11201,LAC,NA,NA,NA
St. Vincent College,PA,215798,NA,NA,NA,NA,NA,NA,NA,NA,NA,NA,NA,148,146,145,157,152,T3 (127-191),T3 (125-189),T3 (126-184),T3 (111-162),T3 (111-164),T3 (111-162),T3 (111-161),T3 (113-161),T3 (115-162),NA,NA,NA,NA,NA,NA,NA,NA,NA,NA,NA,NA,NA,NA,NA,NA,40.29265,-79.403762,Latrobe,15650-2690,LAC,NA,NA,NA
State University of New York at Old Westbury,NY,196237,NA,NA,NA,NA,NA,NA,NA,NA,NA,NA,T2 (177-235),T2 (182-236),T2 (183-240),T2 (182-240),T2 (183-236),T2 (190-250),T4 (192-249),T4 (190-248),T4 (187-248),NA,NA,NA,NA,NA,NA,NA,NA,NA,NA,NA,NA,NA,NA,NA,NA,NA,NA,NA,NA,NA,NA,40.799021,-73.571907,Old Westbury,11568-0210,LAC,NA,NA,NA
Stephens College,MO,179548,NA,NA,NA,NA,NA,NA,NA,NA,NA,NA,NA,NA,NA,NA,NA,T2 (190-250),T4 (192-249),T4 (190-248),T4 (187-248),T4 (163-213),T4 (165-215),T4 (163-215),T3 (111-161),T4 (162-214),T3 (115-162),NA,NA,NA,NA,NA,NA,NA,NA,NA,NA,NA,NA,NA,NA,NA,NA,38.95204,-92.319204,Columbia,65215,LAC,NA,NA,NA
Sterling College,VT,231095,NA,NA,NA,NA,T2 (168-222),NA,NA,NA,NA,NA,NA,NA,NA,NA,NA,NA,NA,NA,NA,NA,NA,NA,NA,NA,NA,NA,NA,NA,NA,NA,NA,NA,NA,NA,NA,NA,NA,NA,NA,NA,NA,44.65225,-72.382372,Craftsbury Common,05827-0072,LAC,NA,NA,NA
Sterling College,KS,155937,NA,NA,NA,NA,NA,NA,NA,NA,NA,NA,NA,NA,NA,NA,NA,T2 (190-250),T4 (192-249),T4 (190-248),T4 (187-248),NA,NA,NA,NA,NA,NA,NA,NA,NA,NA,NA,NA,NA,NA,NA,NA,NA,NA,NA,NA,NA,NA,38.219937,-98.208644,Sterling,67579,LAC,NA,NA,NA
