museum_url,category,museum_name,street_address,state,country,full_address,website_link,latitude,longitude
https://whichmuseum.com/museum/fort-stevens-state-park-warrenton-13187,History & Anthropology,Fort Stevens State Park,Peter Iredale Road 1675,Oregon,United States,"Peter Iredale Road 1675, Oregon, United States",https://stateparks.oregon.gov/index.cfm?do=park.profile&parkId=129,46.1799755,-123.9701172
https://whichmuseum.com/museum/fruitlands-museum-the-trustees-of-reservations-harvard-13845,History & Anthropology,Fruitlands Museum - The Trustees of Reservations,Prospect Hill Road 102,Massachusetts,United States,"Prospect Hill Road 102, Massachusetts, United States",https://thetrustees.org/place/fruitlands-museum/,42.5055706,-71.6128298
https://whichmuseum.com/museum/national-september-11-memorial-museum-new-york-9273,Specialized & Alternative,National September 11 Memorial & Museum,Greenwich Street 180,New York,United States,"Greenwich Street 180, New York, United States",https://www.911memorial.org/,40.7113675,-74.0132704
https://whichmuseum.com/museum/empire-state-building-new-york-21191,Specialized & Alternative,Empire State Building,20 West 34th Street,New York,United States,"20 West 34th Street, New York, United States",https://www.esbnyc.com/,40.7486538,-73.9853043
https://whichmuseum.com/museum/national-museum-of-american-history-washington-d-c-9202,History & Anthropology,National Museum of American History,1400 Constitution Ave. NW,Washington DC,United States,"1400 Constitution Ave. NW, Washington DC, United States",http://americanhistory.si.edu/,38.891067,-77.032704
https://whichmuseum.com/museum/san-diego-zoo-safari-park-21187,Nature & Natural History,San Diego Zoo Safari Park,",San Pasqual Valley Road",California,United States,",San Pasqual Valley Road, California, United States",https://sandiegozoowildlifealliance.org/,33.0946885,-116.9584152
https://whichmuseum.com/museum/ellis-island-national-museum-of-immigration-jersey-city-11544,History & Anthropology,Ellis Island National Museum of Immigration,Ellis Island Bridge,New Jersey,United States,"Ellis Island Bridge, New Jersey, United States",https://www.nps.gov/elis/index.htm,40.7014779,-74.0431943
https://whichmuseum.com/museum/the-dali-museum-saint-petersburg-48477,NA,The Dalí Museum,1 Dali Blvd,Florida,United States,"1 Dali Blvd, Florida, United States",https://thedali.org/,27.7659874,-82.6314611
https://whichmuseum.com/museum/milwaukee-county-zoo-9546,Nature & Natural History,Milwaukee County Zoo,W. Bluemound Rd. Milwaukee,Wisconsin,United States,"W. Bluemound Rd. Milwaukee, Wisconsin, United States",http://www.milwaukeezoo.org,43.0368252,-87.9758944
https://whichmuseum.com/museum/national-museum-of-african-american-history-and-culture-washington-d-c-9209,History & Anthropology,National Museum of African American History and Culture,Constitution Avenue Northwest 1400,Washington DC,United States,"Constitution Avenue Northwest 1400, Washington DC, United States",http://nmaahc.si.edu/,38.891067,-77.032704
https://whichmuseum.com/museum/american-museum-of-natural-history-new-york-9274,Nature & Natural History,American Museum of Natural History,Central Park West 180,New York,United States,"Central Park West 180, New York, United States",http://www.amnh.org/,40.779168,-73.9739233
https://whichmuseum.com/museum/the-metropolitan-museum-of-art-new-york-9275,Art & Design,The Metropolitan Museum of Art,5th Avenue 1000,New York,United States,"5th Avenue 1000, New York, United States",http://www.metmuseum.org,40.7794396,-73.9633825
https://whichmuseum.com/museum/wells-fargo-history-museum-san-francisco-9043,History & Anthropology,Wells Fargo History Museum,Montgomery Street 420,California,United States,"Montgomery Street 420, California, United States",https://www.wellsfargohistory.com/museums/san-francisco/,37.7933794,-122.4027
https://whichmuseum.com/museum/austin-zoo-10862,Nature & Natural History,Austin Zoo,Rawhide Trail,Texas,United States,"Rawhide Trail, Texas, United States",http://www.austinzoo.org/,33.7182939,-96.5144883
https://whichmuseum.com/museum/newport-art-museum-8144,Art & Design,Newport Art Museum,76 Bellevue Avenue,Rhode Island,United States,"76 Bellevue Avenue, Rhode Island, United States",https://newportartmuseum.org/,41.4855153,-71.3081382
https://whichmuseum.com/museum/lemoyne-center-for-the-visual-arts-tallahassee-8180,Art & Design,Lemoyne Center For the Visual Arts,125 North Gadsden Street,Florida,United States,"125 North Gadsden Street, Florida, United States",http://www.lemoyne.org/,30.4432062,-84.2780223
https://whichmuseum.com/museum/portland-puppet-museum-8284,Specialized & Alternative,Portland Puppet Museum,Southeast Umatilla Street 906,Oregon,United States,"Southeast Umatilla Street 906, Oregon, United States",http://www.puppetmuseum.com/,45.4627266,-122.6567391
https://whichmuseum.com/museum/san-jose-museum-of-quilts-8333,Specialized & Alternative,San Jose Museum of Quilts,520 S First Street,California,United States,"520 S First Street, California, United States",http://www.sjquiltmuseum.org/,36.2100389,-121.1198431
https://whichmuseum.com/museum/international-gymnastics-hall-of-fame-oklahoma-city-8354,Specialized & Alternative,International Gymnastics Hall of Fame,120 N Robinson Ave,Oklahoma,United States,"120 N Robinson Ave, Oklahoma, United States",http://www.ighof.com/,35.4685106,-97.5160114
https://whichmuseum.com/museum/key-west-tropical-forest-and-botanical-garden-8368,Nature & Natural History,Key West Tropical Forest and Botanical Garden,College Road 5210,Florida,United States,"College Road 5210, Florida, United States",http://kwbgs.org,24.5730396,-81.7496278
https://whichmuseum.com/museum/san-carlos-institute-key-west-8376,History & Anthropology,San Carlos Institute,516 Duval St,Florida,United States,"516 Duval St, Florida, United States",http://www.institutosancarlos.org/,29.886393,-81.3408313
https://whichmuseum.com/museum/cattle-raisers-museum-fort-worth-8740,Nature & Natural History,Cattle Raisers Museum,1600 Gendy St,Texas,United States,"1600 Gendy St, Texas, United States",https://cattleraisersmuseum.org/,32.7442441,-97.3692589
https://whichmuseum.com/museum/bayou-bend-collection-and-gardens-museum-of-fine-arts-houston-8842,Art & Design,Bayou Bend Collection and Gardens - Museum of Fine Arts,6003 Memorial Dr,Texas,United States,"6003 Memorial Dr, Texas, United States",https://www.mfah.org/visit/bayou-bend-collection-and-gardens,29.7605479,-95.4217404
https://whichmuseum.com/museum/edith-l-moore-nature-sanctuary-houston-8877,Nature & Natural History,Edith L. Moore Nature Sanctuary,440 Wilchester Blvd,Texas,United States,"440 Wilchester Blvd, Texas, United States",https://houstonaudubon.org/sanctuaries/edith-moore/visitor.html,29.7710976,-95.5702937
https://whichmuseum.com/museum/coast-guard-museum-northwest-seattle-8906,Specialized & Alternative,Coast Guard Museum Northwest,Alaskan Way South 1519,Washington,United States,"Alaskan Way South 1519, Washington, United States",http://www.rexmwess.com/cgpatchs/cogardmuseum.html,47.5906404,-122.3377317
https://whichmuseum.com/museum/benjamin-franklin-museum-philadelphia-8939,History & Anthropology,Benjamin Franklin Museum,317 Chestnut St,Pennsylvania,United States,"317 Chestnut St, Pennsylvania, United States",http://www.nps.gov/inde/planyourvisit/benjaminfranklinmuseum.htm,40.1864676,-75.4536371
https://whichmuseum.com/museum/fraunces-tavern-museum-new-york-9282,History & Anthropology,Fraunces Tavern Museum,54 Pearl Street New York,New York,United States,"54 Pearl Street New York, New York, United States",http://www.frauncestavernmuseum.org/,40.7427787,-73.6852269
https://whichmuseum.com/museum/bronx-museum-of-the-arts-new-york-9336,Art & Design,Bronx Museum of the Arts,Grand Concourse 1040,New York,United States,"Grand Concourse 1040, New York, United States",http://bronxmuseum.org,40.8310911,-73.9199471
https://whichmuseum.com/museum/poster-house-new-york-9364,Art & Design,Poster House,West 23rd Street 119,New York,United States,"West 23rd Street 119, New York, United States",https://posterhouse.org/,40.7435881,-73.9933365
https://whichmuseum.com/museum/la-plaza-de-culturas-y-artes-los-angeles-9473,History & Anthropology,La Plaza De Culturas Y Artes,501 N Main St,California,United States,"501 N Main St, California, United States",http://lapca.org,38.4057626,-122.8260883
https://whichmuseum.com/museum/science-spectrum-omni-theater-lubbock-9678,Science & Technology,Science Spectrum & Omni Theater,2579 S. Loop 289,Texas,United States,"2579 S. Loop 289, Texas, United States",https://www.sciencespectrum.org/,33.5283242,-101.8767065
https://whichmuseum.com/museum/tulsa-historical-society-museum-9707,History & Anthropology,Tulsa Historical Society & Museum,South Peoria Avenue 2445,Oklahoma,United States,"South Peoria Avenue 2445, Oklahoma, United States",http://www.tulsahistory.org,36.098228,-95.9754251
https://whichmuseum.com/museum/catty-shack-ranch-wildlife-sanctuary-jacksonville-9853,Nature & Natural History,Catty Shack Ranch Wildlife Sanctuary,Starratt Road 1860,Florida,United States,"Starratt Road 1860, Florida, United States",https://cattyshack.org/,30.4929584,-81.5863068
https://whichmuseum.com/museum/nevada-historical-society-reno-10049,History & Anthropology,Nevada Historical Society,1650 North Virginia Street,Nevada,United States,"1650 North Virginia Street, Nevada, United States",https://www.nvhistoricalsociety.org/,39.5458891,-119.8193963
https://whichmuseum.com/museum/conde-charlotte-museum-mobile-10141,History & Anthropology,Conde Charlotte Museum,Theatre Street 104,Alabama,United States,"Theatre Street 104, Alabama, United States",https://condecharlotte.com/,30.6884108,-88.0400872
https://whichmuseum.com/museum/amarillo-museum-of-art-10178,Art & Design,Amarillo Museum of Art,2200 S Van Buren St,Texas,United States,"2200 S Van Buren St, Texas, United States",http://www.amarilloart.org,35.1885841,-101.8451037
https://whichmuseum.com/museum/moma-new-york-9276,Art & Design,Moma,West 53rd Street 11,New York,United States,"West 53rd Street 11, New York, United States",http://www.moma.org,40.7616124,-73.9774992
https://whichmuseum.com/museum/olana-ny-state-historic-site-greenport-16500,History & Anthropology,Olana NY State Historic Site,5720 State Route 9G,New York,United States,"5720 State Route 9G, New York, United States",https://www.olana.org/,NA,NA
https://whichmuseum.com/museum/white-house-washington-d-c-9198,Specialized & Alternative,White House,Pennsylvania Avenue Northwest 1600,Washington DC,United States,"Pennsylvania Avenue Northwest 1600, Washington DC, United States",https://www.whitehouse.gov/,38.8976387,-77.0365528
https://whichmuseum.com/museum/california-citrus-state-park-visitor-center-riverside-10277,History & Anthropology,California Citrus State Park Visitor Center,9400 Dufferin Ave,California,United States,"9400 Dufferin Ave, California, United States",http://www.parks.ca.gov/?page_id=649,33.8998504,-117.4250316
https://whichmuseum.com/museum/oklahoma-city-national-memorial-museum-8345,History & Anthropology,Oklahoma City National Memorial & Museum,620 N Harvey Ave,Oklahoma,United States,"620 N Harvey Ave, Oklahoma, United States",https://www.nps.gov/okci/,35.4737199,-97.5172885
https://whichmuseum.com/museum/gatorland-orlando-21209,Nature & Natural History,Gatorland Orlando,S. Orange Blossom Trail,Florida,United States,"S. Orange Blossom Trail, Florida, United States",https://www.gatorland.com/,28.5412211,-81.3972692
https://whichmuseum.com/museum/titanic-museum-attraction-pigeon-forge-21257,Specialized & Alternative,Titanic Museum Attraction,"2134 Parkway, Nashville & Smoky Mountains",Tennessee,United States,"2134 Parkway, Nashville & Smoky Mountains, Tennessee, United States",https://titanicpigeonforge.com/,NA,NA
https://whichmuseum.com/museum/niagara-falls-butterfly-conservatory-21239,Nature & Natural History,#6 Nature & Natural History in United States #5 Animal museums in United States #4 Zoos in United States #1 Nature & Natural History in Niagara Falls #1 Animal museums in Niagara Falls #2 Nature & Natural History in New York State #2 Animal museums in New York State #1 Zoos in New York State,Niagara Falls Butterfly Conservatory,L2E 2S7 Niagara Falls,United States,"Niagara Falls Butterfly Conservatory, L2E 2S7 Niagara Falls, United States",https://www.niagaraparks.com/visit/attractions/butterfly-conservatory/,NA,NA
https://whichmuseum.com/museum/the-getty-center-los-angeles-9418,Art & Design,The Getty Center,1200 Getty Center Drive,California,United States,"1200 Getty Center Drive, California, United States",http://www.getty.edu/art/,34.0769513,-118.475712
https://whichmuseum.com/museum/eric-sloane-museum-kent-15583,History & Anthropology,Eric Sloane Museum,31 Kent-Cornwall Road,Connecticut,United States,"31 Kent-Cornwall Road, Connecticut, United States",https://portal.ct.gov/DECD/Content/Historic-Preservation/04_State_Museums/Eric-Sloane-Museum-and-Kent-Iron-Furnace,41.7386049,-73.4694357
https://whichmuseum.com/museum/pittsburgh-botanic-garden-north-fayette-township-18519,Nature & Natural History,Pittsburgh Botanic Garden,799 Pinkerton Run Rd,Pennsylvania,United States,"799 Pinkerton Run Rd, Pennsylvania, United States",https://pittsburghbotanicgarden.org/,40.4254002,-80.1760096
https://whichmuseum.com/museum/seaworld-orlando-21211,Nature & Natural History,SeaWorld Orlando,7007 Sea World Drive,Florida,United States,"7007 Sea World Drive, Florida, United States",https://seaworld.com/orlando/,28.4120776,-81.4616701
https://whichmuseum.com/museum/guggenheim-museum-new-york-9277,Art & Design,Guggenheim Museum,5th Avenue 1071,New York,United States,"5th Avenue 1071, New York, United States",http://www.guggenheim.org,40.7829932,-73.958925
https://whichmuseum.com/museum/national-air-and-space-museum-washington-d-c-9199,Science & Technology,National Air and Space Museum,Jefferson Drive Southwest 655,Washington DC,United States,"Jefferson Drive Southwest 655, Washington DC, United States",http://www.nasm.si.edu,38.8881349,-77.0198154
https://whichmuseum.com/museum/lion-country-safari-loxahatchee-21281,Nature & Natural History,More…,Lion Country Safari,33470 Loxahatchee,United States,"Lion Country Safari, 33470 Loxahatchee, United States",https://www.lioncountrysafari.com/,26.7149231,-80.32011
https://whichmuseum.com/museum/central-park-zoo-new-york-9278,Nature & Natural History,Central Park Zoo,64th Street and Fifth Avenue,New York,United States,"64th Street and Fifth Avenue, New York, United States",http://centralparkzoo.com,NA,NA
https://whichmuseum.com/museum/national-museum-of-natural-history-washington-d-c-9503,Nature & Natural History,National Museum of Natural History,10th Street and Constitution Avenue NW,Washington DC,United States,"10th Street and Constitution Avenue NW, Washington DC, United States",https://naturalhistory.si.edu/,NA,NA
https://whichmuseum.com/museum/alcatraz-island-san-francisco-9014,Specialized & Alternative,Alcatraz Island,Alcatraz Landing,California,United States,"Alcatraz Landing, California, United States",https://www.nps.gov/alca/,37.8065495,-122.4051482
https://whichmuseum.com/museum/rodin-museum-philadelphia-8927,Art & Design,Rodin Museum,Benjamin Franklin Parkway 2151,Pennsylvania,United States,"Benjamin Franklin Parkway 2151, Pennsylvania, United States",http://www.rodinmuseum.org,39.9619295,-75.1739508
https://whichmuseum.com/museum/flamingo-gardens-davie-21304,Nature & Natural History,Flamingo Gardens,"3750,South Flamingo Road",Florida,United States,"3750,South Flamingo Road, Florida, United States",http://www.flamingogardens.org/,25.9728843,-80.3111092
https://whichmuseum.com/museum/madame-tussauds-new-york-9279,Specialized & Alternative,Madame Tussauds New York,West 42nd Street 234,New York,United States,"West 42nd Street 234, New York, United States",https://www.madametussauds.com/new-york/,40.7562126,-73.988438
https://whichmuseum.com/museum/9-11-tribute-museum-new-york-9280,History & Anthropology,9/11 Tribute Museum,Greenwich Street 92,New York,United States,"Greenwich Street 92, New York, United States",http://tributewtc.org/,40.7079432,-74.0137633
https://whichmuseum.com/museum/intrepid-museum-new-york-9281,Science & Technology,Intrepid Museum,West 46th Street 86,New York,United States,"West 46th Street 86, New York, United States",http://www.intrepidmuseum.org/,40.7645974,-73.9995974
https://whichmuseum.com/museum/ford-s-theatre-washington-d-c-9200,History & Anthropology,Ford's Theatre,511 Tenth St,Washington DC,United States,"511 Tenth St, Washington DC, United States",https://www.nps.gov/foth/,NA,NA
https://whichmuseum.com/museum/united-states-holocaust-memorial-museum-washington-d-c-9201,History & Anthropology,United States Holocaust Memorial Museum,Raoul Wallenberg Place Southwest 100,Washington DC,United States,"Raoul Wallenberg Place Southwest 100, Washington DC, United States",http://www.ushmm.org/,NA,NA
https://whichmuseum.com/museum/liberty-bell-center-philadelphia-8925,Specialized & Alternative,Liberty Bell Center,"101 S Independence Mall W,",Pennsylvania,United States,"101 S Independence Mall W,, Pennsylvania, United States",http://www.nps.gov/inde/liberty-bell-center.htm,39.949087,-75.150689
https://whichmuseum.com/museum/paul-revere-house-boston-9071,History & Anthropology,Paul Revere House,North Square 19,Massachusetts,United States,"North Square 19, Massachusetts, United States",https://www.paulreverehouse.org/,42.3637378,-71.0536827
https://whichmuseum.com/museum/the-art-institute-of-chicago-8742,Art & Design,The Art Institute of Chicago,South Michigan Avenue 111,Illinois,United States,"South Michigan Avenue 111, Illinois, United States",http://www.artic.edu/,41.8793588,-87.6236685
https://whichmuseum.com/museum/shedd-aquarium-chicago-8743,Nature & Natural History,Shedd Aquarium,South Lake Shore Drive 1200,Illinois,United States,"South Lake Shore Drive 1200, Illinois, United States",http://www.sheddaquarium.org,39.826199,-88.939877
https://whichmuseum.com/museum/national-gallery-of-art-washington-d-c-9203,Art & Design,National Gallery of Art,6th and Constitution Avenue NW,Washington DC,United States,"6th and Constitution Avenue NW, Washington DC, United States",https://www.nga.gov/,NA,NA
https://whichmuseum.com/museum/conservatory-botanical-gardens-at-bellagio-las-vegas-9610,Nature & Natural History,Conservatory & Botanical Gardens At Bellagio,3600 S. Las Vegas Blvd.,Nevada,United States,"3600 S. Las Vegas Blvd., Nevada, United States",http://www.bellagio.com/attractions/botanical-garden.aspx,36.1123192,-115.178723
https://whichmuseum.com/museum/field-museum-chicago-8744,Nature & Natural History,Field Museum,South Lake Shore Drive 1400,Illinois,United States,"South Lake Shore Drive 1400, Illinois, United States",http://www.fieldmuseum.org,39.8262576,-88.9376283
https://whichmuseum.com/museum/miami-beach-botanical-garden-10345,Nature & Natural History,Miami Beach Botanical Garden,Convention Center Drive 2000,Florida,United States,"Convention Center Drive 2000, Florida, United States",http://www.mbgarden.org/,25.7959144,-80.135485
https://whichmuseum.com/museum/boston-tea-party-ships-and-museum-9072,History & Anthropology,Boston Tea Party - Ships and Museum,Congress Street 306,Massachusetts,United States,"Congress Street 306, Massachusetts, United States",https://www.bostonteapartyship.com/,42.3526369,-71.0510512
https://whichmuseum.com/museum/ellis-island-national-museum-of-immigration-new-york-14412,History & Anthropology,Ellis Island National Museum of Immigration,Ellis Island Bridge,New York,United States,"Ellis Island Bridge, New York, United States",https://www.nps.gov/elis/index.htm,40.6991311,-74.0395482
https://whichmuseum.com/museum/kennedy-space-center-visitor-complex-merritt-island-17446,Science & Technology,Kennedy Space Center Visitor Complex,Space Commerce Way 9500,Florida,United States,"Space Commerce Way 9500, Florida, United States",https://www.kennedyspacecenter.com/,28.5242796,-80.6818558
https://whichmuseum.com/museum/museum-of-illusions-las-vegas-48691,NA,Museum of Illusions Las Vegas,3716 South Las Vegas Boulevard,Nevada,United States,"3716 South Las Vegas Boulevard, Nevada, United States",https://moilasvegas.com/,36.1086354,-115.174018
https://whichmuseum.com/museum/iolani-palace-honolulu-8290,History & Anthropology,Iolani Palace,South King Street 364,Hawaii,United States,"South King Street 364, Hawaii, United States",https://www.iolanipalace.org/,21.3068147,-157.8587655
https://whichmuseum.com/museum/uss-midway-museum-san-diego-9156,Science & Technology,Uss Midway Museum,Navy Pier 41,California,United States,"Navy Pier 41, California, United States",https://www.midway.org,32.7142749,-117.1761669
https://whichmuseum.com/museum/san-diego-zoo-9157,Nature & Natural History,San Diego Zoo,Zoo Drive 2920,California,United States,"Zoo Drive 2920, California, United States",https://zoo.sandiegozoo.org/,32.7359874,-117.1506542
https://whichmuseum.com/museum/filoli-historic-house-garden-woodside-21305,History & Anthropology,Filoli Historic House & Garden,86 Cañada Road,California,United States,"86 Cañada Road, California, United States",https://filoli.org/,37.452025,-122.280268
https://whichmuseum.com/museum/american-prohibition-museum-savannah-8308,Specialized & Alternative,American Prohibition Museum,209 W Saint Julian Street,Georgia,United States,"209 W Saint Julian Street, Georgia, United States",https://www.americanprohibitionmuseum.com/,32.0805708,-81.0947979
https://whichmuseum.com/museum/de-young-museum-san-francisco-9015,Art & Design,De Young Museum,Hagiwara Tea Garden Drive 50,California,United States,"Hagiwara Tea Garden Drive 50, California, United States",http://www.deyoungmuseum.org,37.771497599999996,-122.4690915
https://whichmuseum.com/museum/museum-of-contemporary-art-chicago-8748,Art & Design,Museum of Contemporary Art,East Chicago Avenue 220,Illinois,United States,"East Chicago Avenue 220, Illinois, United States",https://mcachicago.org/Home,41.8972217,-87.6211234
https://whichmuseum.com/museum/bunker-hill-monument-boston-9073,History & Anthropology,Bunker Hill Monument,Monument Square,Massachusetts,United States,"Monument Square, Massachusetts, United States",https://www.nps.gov/bost/learn/historyculture/bhm.htm,42.376306,-71.0607927
https://whichmuseum.com/museum/philadelphia-museum-of-art-8930,Art & Design,Philadelphia Museum of Art,Benjamin Franklin Parkway 2600,Pennsylvania,United States,"Benjamin Franklin Parkway 2600, Pennsylvania, United States",http://www.philamuseum.org,39.9655661,-75.1815202
https://whichmuseum.com/museum/staatsburgh-state-historic-site-17395,History & Anthropology,Staatsburgh State Historic Site,75 Mills Mansion Drive,New York,United States,"75 Mills Mansion Drive, New York, United States",https://parks.ny.gov/historic-sites/25/details.aspx,NA,NA
https://whichmuseum.com/museum/smithsonian-institution-building-washington-d-c-9204,History & Anthropology,Smithsonian Institution Building,Jefferson Drive Southwest 1000,Washington DC,United States,"Jefferson Drive Southwest 1000, Washington DC, United States",http://www.si.edu/Museums/smithsonian-institution-building,38.8887945,-77.0259381
https://whichmuseum.com/museum/the-montgomery-place-campus-bard-college-red-hook-16041,History & Anthropology,The Montgomery Place Campus - Bard College,"26 Gardener Way, River Rd",New York,United States,"26 Gardener Way, River Rd, New York, United States",https://www.bard.edu/montgomeryplace/,NA,NA
https://whichmuseum.com/museum/national-constitution-center-philadelphia-8931,History & Anthropology,National Constitution Center,Arch Street 525,Pennsylvania,United States,"Arch Street 525, Pennsylvania, United States",https://constitutioncenter.org/,39.9535477,-75.1491603
https://whichmuseum.com/museum/clermont-state-historic-site-red-hook-16042,History & Anthropology,Clermont State Historic Site,1 Clermont Ave,New York,United States,"1 Clermont Ave, New York, United States",https://parks.ny.gov/historic-sites/16/details.aspxhttp:/clermontstatehistoricsite.blogspot.comwww.friendsofclermont.org,42.0858806,-73.9192294
https://whichmuseum.com/museum/the-hollywood-museum-los-angeles-9417,Specialized & Alternative,The Hollywood Museum,Highland Avenue 1660,California,United States,"Highland Avenue 1660, California, United States",http://thehollywoodmuseum.com/,34.1010786,-118.3383267
https://whichmuseum.com/museum/world-of-coca-cola-atlanta-8675,Specialized & Alternative,World of Coca-cola,Baker Street Northwest 121,Georgia,United States,"Baker Street Northwest 121, Georgia, United States",https://www.worldofcoca-cola.com/,33.7628981,-84.3925521
https://whichmuseum.com/museum/new-england-holocaust-memorial-boston-9080,History & Anthropology,New England Holocaust Memorial,Carmen Park,Massachusetts,United States,"Carmen Park, Massachusetts, United States",https://www.nehm.org/,42.3610617,-71.0571816
https://whichmuseum.com/museum/grammy-museum-los-angeles-9424,Specialized & Alternative,Grammy Museum,West Olympic Boulevard 800,California,United States,"West Olympic Boulevard 800, California, United States",http://grammymuseum.org,34.0446975,-118.2646054
https://whichmuseum.com/museum/whitney-museum-of-american-art-new-york-9283,Art & Design,Whitney Museum of American Art,Gansevoort Street 99,New York,United States,"Gansevoort Street 99, New York, United States",https://whitney.org/,40.7396451,-74.008921
https://whichmuseum.com/museum/ground-zero-museum-workshop-new-york-9284,History & Anthropology,Ground Zero Museum Workshop,420 West 14th street,New York,United States,"420 West 14th street, New York, United States",https://groundzeromuseumworkshop.org/,40.7412051,-74.0067223
https://whichmuseum.com/museum/old-state-house-museum-boston-9074,History & Anthropology,Old State House Museum,206 Washington Street,Massachusetts,United States,"206 Washington Street, Massachusetts, United States",http://www.bostonhistory.org/?s=osh,42.3586922,-71.0575878
https://whichmuseum.com/museum/olympic-sculpture-park-seattle-8881,Art & Design,Olympic Sculpture Park,Western Avenue 2901,Washington,United States,"Western Avenue 2901, Washington, United States",http://seattleartmuseum.org/visit/olympic-sculpture-park,47.616272,-122.353583
https://whichmuseum.com/museum/the-institute-of-contemporary-art-boston-9081,Art & Design,The Institute of Contemporary Art,Harbor Shore Drive 25,Massachusetts,United States,"Harbor Shore Drive 25, Massachusetts, United States",https://www.icaboston.org/,42.3528651,-71.0429628
https://whichmuseum.com/museum/norris-geyser-basin-museum-yellowstone-national-park-12138,Nature & Natural History,Norris Geyser Basin Museum,Yellowstone National Park,Wyoming,United States,"Yellowstone National Park, Wyoming, United States",https://www.nps.gov/yell/planyourvisit/norris-geyser-basin-museum.htm,44.6200885,-110.5606893
https://whichmuseum.com/museum/neon-museum-enterprise-19904,Art & Design,Neon Museum,Las Vegas Boulevard North 770,Nevada,United States,"Las Vegas Boulevard North 770, Nevada, United States",http://neonmuseum.org,36.1765127,-115.1352767
https://whichmuseum.com/museum/page-museum-la-brea-tar-pits-los-angeles-9425,Nature & Natural History,Page Museum - La Brea Tar Pits,5801 Wilshire Boulevard,California,United States,"5801 Wilshire Boulevard, California, United States",http://www.tarpits.org/,34.0637559,-118.3556599
https://whichmuseum.com/museum/old-south-meeting-house-boston-9075,History & Anthropology,Old South Meeting House,310 Washington Street,Massachusetts,United States,"310 Washington Street, Massachusetts, United States",http://www.oldsouthmeetinghouse.org/,42.2495189,-70.9897519
https://whichmuseum.com/museum/mopop-museum-of-pop-culture-seattle-8882,Art & Design,MoPOP: Museum of Pop Culture,5th Avenue North 325,Washington,United States,"5th Avenue North 325, Washington, United States",http://www.MoPOP.org,47.6214931,-122.3482253
https://whichmuseum.com/museum/san-francisco-museum-of-modern-art-9016,Art & Design,San Francisco Museum of Modern Art,3rd Street 151,California,United States,"3rd Street 151, California, United States",http://www.sfmoma.org,37.785915,-122.4007359
https://whichmuseum.com/museum/uss-constitution-boston-9076,History & Anthropology,USS Constitution,Building 22,Massachusetts,United States,"Building 22, Massachusetts, United States",https://ussconstitutionmuseum.org/,42.3310008,-71.1262537
https://whichmuseum.com/museum/chihuly-garden-and-glass-seattle-8883,Art & Design,Chihuly Garden and Glass,Harrison Street 305,Washington,United States,"Harrison Street 305, Washington, United States",http://www.chihulygardenandglass.com/,47.621462,-122.3509886
https://whichmuseum.com/museum/johnny-cash-museum-nashville-8510,Specialized & Alternative,Johnny Cash Museum,119 Third Avenue South,Tennessee,United States,"119 Third Avenue South, Tennessee, United States",https://www.johnnycashmuseum.com/,NA,NA
https://whichmuseum.com/museum/space-center-houston-8836,Science & Technology,Space Center Houston,NASA Parkway 1601,Texas,United States,"NASA Parkway 1601, Texas, United States",http://spacecenter.org,29.5488229,-95.0980062
https://whichmuseum.com/museum/museum-of-fine-arts-boston-9082,Art & Design,Museum of Fine Arts,Huntington Avenue 465,Massachusetts,United States,"Huntington Avenue 465, Massachusetts, United States",http://www.mfa.org/,42.3393295,-71.0951349
https://whichmuseum.com/museum/national-wwii-museum-new-orleans-9106,History & Anthropology,National WWII Museum,Magazine Street 945,Louisiana,United States,"Magazine Street 945, Louisiana, United States",http://www.nationalww2museum.org,29.9421393,-90.0707711
https://whichmuseum.com/museum/folger-shakespeare-library-theatre-washington-d-c-9205,History & Anthropology,Folger Shakespeare Library & Theatre,East Capitol Street Southeast 201,Washington DC,United States,"East Capitol Street Southeast 201, Washington DC, United States",http://www.folger.edu,38.8894201,-77.0027936
https://whichmuseum.com/museum/uss-missouri-waipahu-11342,History & Anthropology,Uss Missouri,33-99 Cowpens St,Hawaii,United States,"33-99 Cowpens St, Hawaii, United States",http://www.ussmissouri.com/,21.3650422,-157.9558014
https://whichmuseum.com/museum/house-of-the-temple-washington-d-c-9211,Specialized & Alternative,House of the Temple,16th Street Northwest 1733,Washington DC,United States,"16th Street Northwest 1733, Washington DC, United States",http://scottishrite.org/,38.9137045,-77.035791
https://whichmuseum.com/museum/new-york-transit-museum-9294,Science & Technology,New York Transit Museum,Schermerhorn Street 99,New York,United States,"Schermerhorn Street 99, New York, United States",https://www.nytransitmuseum.org/,40.6905176,-73.9899802
https://whichmuseum.com/museum/adler-planetarium-chicago-8745,Science & Technology,Adler Planetarium,South Lake Shore Drive 1300,Illinois,United States,"South Lake Shore Drive 1300, Illinois, United States",https://www.adlerplanetarium.org/,39.8262232,-88.9389434
https://whichmuseum.com/museum/the-breakers-newport-8138,History & Anthropology,The Breakers,Ochre Point Avenue 44,Rhode Island,United States,"Ochre Point Avenue 44, Rhode Island, United States",http://www.newportmansions.org/,41.4697373,-71.2982119
https://whichmuseum.com/museum/international-spy-museum-washington-d-c-9206,Specialized & Alternative,International Spy Museum,"L'Enfant Plaza, Southwest 700",Washington DC,United States,"L'Enfant Plaza, Southwest 700, Washington DC, United States",https://www.spymuseum.org/,38.8849108,-77.0225831
https://whichmuseum.com/museum/the-witch-house-salem-10164,Specialized & Alternative,The Witch House,Essex Street 310,Massachusetts,United States,"Essex Street 310, Massachusetts, United States",http://witchhouse.info/,42.6070845,-70.8306798
https://whichmuseum.com/museum/salem-witch-museum-10165,Specialized & Alternative,Salem Witch Museum,Washington Square North 19 1/2,Massachusetts,United States,"Washington Square North 19 1/2, Massachusetts, United States",http://www.salemwitchmuseum.com/,42.5237449,-70.8911625
https://whichmuseum.com/museum/betsy-ross-house-philadelphia-8926,History & Anthropology,Betsy Ross House,Arch Street 239,Pennsylvania,United States,"Arch Street 239, Pennsylvania, United States",http://historicphiladelphia.org/betsy-ross-house/what-to-see/,39.9522851,-75.144625
https://whichmuseum.com/museum/the-getty-villa-museum-los-angeles-9419,Art & Design,The Getty Villa Museum,Pacific Coast Highway,California,United States,"Pacific Coast Highway, California, United States",http://www.getty.edu,33.7894805,-118.1893842
https://whichmuseum.com/museum/uss-bowfin-submarine-museum-waipahu-11343,History & Anthropology,Uss Bowfin Submarine Museum,11 Arizona Memorial Rd,Hawaii,United States,"11 Arizona Memorial Rd, Hawaii, United States",https://www.bowfin.org/,NA,NA
https://whichmuseum.com/museum/united-states-mint-philadelphia-8933,Specialized & Alternative,United States Mint,North Independence Ml East 151,Pennsylvania,United States,"North Independence Ml East 151, Pennsylvania, United States",https://www.usmint.gov,39.9520395,-75.1484825
https://whichmuseum.com/museum/city-museum-st-louis-8185,Science & Technology,City Museum,North 16th Street 750,Missouri,United States,"North 16th Street 750, Missouri, United States",http://www.citymuseum.org,38.6337006,-90.2004142
https://whichmuseum.com/museum/museum-of-sex-new-york-9285,Specialized & Alternative,Museum of Sex,5th Avenue 223,New York,United States,"5th Avenue 223, New York, United States",http://museumofsex.com,40.6758313,-73.9807001
https://whichmuseum.com/museum/san-francisco-zoo-21037,Nature & Natural History,San Francisco Zoo,Sloat Boulevard,California,United States,"Sloat Boulevard, California, United States",https://www.sfzoo.org/,37.7339336,-122.4951472
https://whichmuseum.com/museum/museum-at-eldridge-street-new-york-9295,History & Anthropology,Museum At Eldridge Street,Eldridge Street 12,New York,United States,"Eldridge Street 12, New York, United States",http://www.eldridgestreet.org/,40.7147291,-73.993461
https://whichmuseum.com/museum/natural-history-museum-of-los-angeles-county-9426,Nature & Natural History,Natural History Museum of Los Angeles County,900 Exposition Blvd.,California,United States,"900 Exposition Blvd., California, United States",http://nhm.org,34.0170795,-118.2886906
https://whichmuseum.com/museum/madame-tussaud-s-los-angeles-9498,Specialized & Alternative,Madame Tussaud's,6933 Hollywood Boulevard,California,United States,"6933 Hollywood Boulevard, California, United States",http://www.madametussauds.com/Hollywood/,34.1020028,-118.3414177
https://whichmuseum.com/museum/aquarium-of-the-bay-san-francisco-9022,Nature & Natural History,Beach St,Pier 39,California,United States,"Pier 39, California, United States",http://aquariumofthebay.org,37.8088094,-122.410088
https://whichmuseum.com/museum/museum-of-science-and-industry-chicago-8746,Science & Technology,Museum of Science and Industry,South Lake Shore Drive 5700,Illinois,United States,"South Lake Shore Drive 5700, Illinois, United States",http://www.msichicago.org,41.7907492,-87.582931
https://whichmuseum.com/museum/the-morgan-library-museum-new-york-9286,Art & Design,The Morgan Library & Museum,225 Madison Avenue at 36th Street,New York,United States,"225 Madison Avenue at 36th Street, New York, United States",http://themorgan.org,NA,NA
https://whichmuseum.com/museum/waikiki-aquarium-honolulu-8291,Nature & Natural History,Waikīkī Aquarium,2777 Kalakaua Ave,Hawaii,United States,"2777 Kalakaua Ave, Hawaii, United States",http://www.waikikiaquarium.org/,21.2656733,-157.8217238
https://whichmuseum.com/museum/lincoln-park-conservatory-chicago-8750,Nature & Natural History,Lincoln Park Conservatory,North Stockton Drive 2391,Illinois,United States,"North Stockton Drive 2391, Illinois, United States",https://www.chicagoparkdistrict.com/parks-facilities/lincoln-park-conservatory/,41.9244127,-87.6348029
https://whichmuseum.com/museum/shark-reef-aquarium-paradise-19877,Nature & Natural History,Shark Reef Aquarium,3950 Las Vegas Blvd S,Nevada,United States,"3950 Las Vegas Blvd S, Nevada, United States",https://mandalaybay.mgmresorts.com/en/entertainment/shark-reef-aquarium.html,36.0893705,-115.1745824
https://whichmuseum.com/museum/lower-east-side-tenement-museum-new-york-9297,History & Anthropology,Lower East Side Tenement Museum,Orchard Street 103,New York,United States,"Orchard Street 103, New York, United States",https://www.tenement.org/,40.7187837,-73.9900266
https://whichmuseum.com/museum/the-museum-of-flight-tukwila-13976,Science & Technology,The Museum of Flight,9404 East Marginal Way S,Washington,United States,"9404 East Marginal Way S, Washington, United States",http://www.museumofflight.org/,47.5187661,-122.2969562
https://whichmuseum.com/museum/musee-mecanique-san-francisco-9017,Science & Technology,Fishermans Wharf,Pier 45,California,United States,"Pier 45, California, United States",http://www.museemecaniquesf.com/,37.8101195,-122.4177169
https://whichmuseum.com/museum/zoo-atlanta-8679,Nature & Natural History,Zoo Atlanta,800 Cherokee Avenue SEAtlanta,Georgia,United States,"800 Cherokee Avenue SEAtlanta, Georgia, United States",http://www.zooatlanta.org,NA,NA
https://whichmuseum.com/museum/lincoln-park-zoo-chicago-8747,Nature & Natural History,Lincoln Park Zoo,North Clark Street 2001,Illinois,United States,"North Clark Street 2001, Illinois, United States",http://www.lpzoo.org,41.9212558,-87.6337656
https://whichmuseum.com/museum/the-broad-museum-los-angeles-9420,Art & Design,The Broad Museum,South Grand Avenue 221,California,United States,"South Grand Avenue 221, California, United States",https://www.thebroad.org,34.0544584,-118.2505943
https://whichmuseum.com/museum/elfreth-s-alley-museum-philadelphia-8928,History & Anthropology,Elfreth's Alley Museum,124 Elfreths Alley,Pennsylvania,United States,"124 Elfreths Alley, Pennsylvania, United States",http://www.elfrethsalley.org,40.0909907,-74.9525412
https://whichmuseum.com/museum/museum-of-science-boston-9077,Science & Technology,Museum of Science,1 Museum Of Science Driveway,Massachusetts,United States,"1 Museum Of Science Driveway, Massachusetts, United States",http://www.mos.org/,42.3673698,-71.0700952
https://whichmuseum.com/museum/the-alamo-san-antonio-9624,History & Anthropology,The Alamo,Alamo Plaza 300,Texas,United States,"Alamo Plaza 300, Texas, United States",http://www.thealamo.org/,29.4258447,-98.4868151
https://whichmuseum.com/museum/mission-san-carlos-borromeo-de-carmelo-carmel-by-the-sea-16117,History & Anthropology,Mission San Carlos Borromeo De Carmelo,Rio Road 3080,California,United States,"Rio Road 3080, California, United States",https://carmelmission.org/,36.5424224,-121.9193996
https://whichmuseum.com/museum/honolulu-zoo-8292,Nature & Natural History,Honolulu Zoo,151 Kapahulu Avenue,Hawaii,United States,"151 Kapahulu Avenue, Hawaii, United States",http://www.honoluluzoo.org,21.2711641,-157.8189222
https://whichmuseum.com/museum/country-music-hall-of-fame-and-museum-nashville-8509,Specialized & Alternative,Country Music Hall of Fame and Museum,5th Avenue South 222,Tennessee,United States,"5th Avenue South 222, Tennessee, United States",http://www.countrymusichalloffame.org,36.1581728,-86.7760929
https://whichmuseum.com/museum/bronx-zoo-new-york-9287,Nature & Natural History,Bronx Zoo,2300 Southern Boulevard,New York,United States,"2300 Southern Boulevard, New York, United States",http://www.bronxzoo.com/,40.8493045,-73.8771379
https://whichmuseum.com/museum/buffalo-and-erie-county-botanical-gardens-21279,Nature & Natural History,Buffalo and Erie County Botanical Gardens,2655 South Park Avenue,New York,United States,"2655 South Park Avenue, New York, United States",https://www.buffalogardens.com/,42.8278632,-78.8238711
https://whichmuseum.com/museum/king-center-for-non-violent-social-change-atlanta-8676,History & Anthropology,King Center For Non-violent Social Change,449 Auburn Avenue,Georgia,United States,"449 Auburn Avenue, Georgia, United States",https://thekingcenter.org/,33.7547816,-84.3727671
https://whichmuseum.com/museum/the-met-cloisters-new-york-9288,History & Anthropology,The Met Cloisters,Margaret Corbin Drive 99,New York,United States,"Margaret Corbin Drive 99, New York, United States",https://metmuseum.org/visit/met-cloisters,40.8648286,-73.931713
https://whichmuseum.com/museum/thomas-jefferson-s-monticello-pantops-14949,History & Anthropology,Thomas Jefferson's Monticello,931 Thomas Jefferson Parkway,Virginia,United States,"931 Thomas Jefferson Parkway, Virginia, United States",http://www.monticello.org/,38.0051402,-78.4563161
https://whichmuseum.com/museum/wild-florida-kenansville-21258,Nature & Natural History,#6 Nature & Natural History in Florida #32 Nature & Natural History in United States,Wild Florida,FL 34739 Kenansville,United States,"Wild Florida, FL 34739 Kenansville, United States",https://wildfloridairboats.com/,28.0836537,-81.3027587
https://whichmuseum.com/museum/bernice-pauahi-bishop-museum-honolulu-8293,History & Anthropology,Bernice Pauahi Bishop Museum,Bernice Street 1525,Hawaii,United States,"Bernice Street 1525, Hawaii, United States",http://www.bishopmuseum.org/,21.3330841,-157.8707112
https://whichmuseum.com/museum/the-ernest-hemmingway-home-and-museum-key-west-8365,History & Anthropology,The Ernest Hemmingway Home and Museum,Whitehead Street 907,Florida,United States,"Whitehead Street 907, Florida, United States",https://www.hemingwayhome.com/,24.5511983,-81.8006097
https://whichmuseum.com/museum/ho-omaluhia-botanical-garden-kaneohe-12187,Nature & Natural History,Ho'omaluhia Botanical Garden,Luluku Road 45-680,Hawaii,United States,"Luluku Road 45-680, Hawaii, United States",https://www.honolulu.gov/parks/hbg.html?id=569%3Aho,21.3980518,-157.8059067
https://whichmuseum.com/museum/georgia-state-railroad-museum-savannah-8310,Science & Technology,Georgia State Railroad Museum,Louisville Road 665,Georgia,United States,"Louisville Road 665, Georgia, United States",https://www.chsgeorgia.org/GSRM,33.4832805,-82.2696301
https://whichmuseum.com/museum/the-georgia-state-capitol-atlanta-8677,History & Anthropology,The Georgia State Capitol,Washington Street Southwest 206,Georgia,United States,"Washington Street Southwest 206, Georgia, United States",http://www.libs.uga.edu/capitolmuseum/museum/,33.7490553,-84.3881711
https://whichmuseum.com/museum/center-for-civil-and-human-rights-atlanta-8678,History & Anthropology,Center For Civil and Human Rights,Ivan Allen Jr Boulevard 100,Georgia,United States,"Ivan Allen Jr Boulevard 100, Georgia, United States",http://civilandhumanrights.org,33.7640485,-84.3930405
https://whichmuseum.com/museum/the-sixth-floor-museum-at-dealey-plaza-dallas-8470,History & Anthropology,The Sixth Floor Museum At Dealey Plaza,Elm Street 411,Texas,United States,"Elm Street 411, Texas, United States",http://www.jfk.org,32.7797097,-96.8084399
https://whichmuseum.com/museum/monterey-bay-aquarium-10389,Nature & Natural History,Monterey Bay Aquarium,Cannery Row 886,California,United States,"Cannery Row 886, California, United States",http://www.montereybayaquarium.org/,36.6180889,-121.901672
https://whichmuseum.com/museum/portland-head-light-cape-elizabeth-14807,History & Anthropology,Portland Head Light,12 Captain Strout Cir,Maine,United States,"12 Captain Strout Cir, Maine, United States",https://portlandheadlight.com,43.6230624,-70.2081174
https://whichmuseum.com/museum/california-science-center-los-angeles-9421,Science & Technology,California Science Center,Exposition Park Drive 700,California,United States,"Exposition Park Drive 700, California, United States",http://californiasciencecenter.org,34.0159757,-118.286287
https://whichmuseum.com/museum/battleship-uss-iowa-los-angeles-9427,Science & Technology,Battleship Uss Iowa,250 S. Harbor Blvd,California,United States,"250 S. Harbor Blvd, California, United States",http://www.pacificbattleship.com,33.7419035,-118.279817
https://whichmuseum.com/museum/old-courthouse-st-louis-8186,History & Anthropology,Old Courthouse,North 4th Street 11,Missouri,United States,"North 4th Street 11, Missouri, United States",https://www.gatewayarch.com/experience/old-courthouse,38.6246258,-90.1849637
https://whichmuseum.com/museum/new-museum-of-contemporary-art-new-york-9300,Art & Design,New Museum of Contemporary Art,Bowery 235,New York,United States,"Bowery 235, New York, United States",http://www.newmuseum.org/,40.7223463,-73.9928406
https://whichmuseum.com/museum/hirshhorn-museum-washington-d-c-9215,Art & Design,Hirshhorn Museum,Independence Ave SW & 7th St SW,Washington DC,United States,"Independence Ave SW & 7th St SW, Washington DC, United States",http://hirshhorn.si.edu/,38.8880597,-77.0217497
https://whichmuseum.com/museum/phillip-patricia-frost-museum-of-science-miami-21293,Science & Technology,Phillip & Patricia Frost Museum of Science,1101 Biscayne Boulevard,Florida,United States,"1101 Biscayne Boulevard, Florida, United States",https://www.frostscience.org/,25.7853042,-80.1881069
https://whichmuseum.com/museum/pearl-harbor-aviation-museum-honolulu-9147,History & Anthropology,Pearl Harbor Aviation Museum,319 Lexington Boulevard,Hawaii,United States,"319 Lexington Boulevard, Hawaii, United States",NA,21.3659382,-157.9520145
https://whichmuseum.com/museum/national-civil-rights-museum-memphis-8381,History & Anthropology,National Civil Rights Museum,Mulberry Street 450,Tennessee,United States,"Mulberry Street 450, Tennessee, United States",http://www.civilrightsmuseum.org/,35.1345788,-90.0574607
https://whichmuseum.com/museum/glazer-children-s-museum-tampa-21202,NA,Glazer Children's Museum,101 W Gasparilla Plaza,Florida,United States,"101 W Gasparilla Plaza, Florida, United States",https://glazermuseum.org/,27.949946,-82.461846
https://whichmuseum.com/museum/smithsonian-american-art-museum-washington-d-c-9216,Art & Design,Smithsonian American Art Museum,8th and F Streets,Washington DC,United States,"8th and F Streets, Washington DC, United States",http://americanart.si.edu,NA,NA
https://whichmuseum.com/museum/woodland-park-zoo-seattle-8886,Nature & Natural History,Woodland Park Zoo,North 59th Street 601,Washington,United States,"North 59th Street 601, Washington, United States",http://www.zoo.org,47.6691434,-122.3509619
https://whichmuseum.com/museum/independence-visitor-center-philadelphia-8934,History & Anthropology,Independence Visitor Center,599 Market St,Pennsylvania,United States,"599 Market St, Pennsylvania, United States",http://www.nps.gov/inde/,39.9514534,-75.1499193
https://whichmuseum.com/museum/oregon-coast-aquarium-newport-11377,Nature & Natural History,Oregon Coast Aquarium,2820 Southeast Ferry Slip Road,Oregon,United States,"2820 Southeast Ferry Slip Road, Oregon, United States",https://aquarium.org/,44.6170967,-124.0476633
https://whichmuseum.com/museum/duquesne-incline-pittsburgh-8587,Specialized & Alternative,Duquesne Incline,1220 Grandview AvenuePittsburgh,Pennsylvania,United States,"1220 Grandview AvenuePittsburgh, Pennsylvania, United States",http://www.duquesneincline.org,NA,NA
https://whichmuseum.com/museum/exploratorium-san-francisco-9513,Science & Technology,Green St,Pier 15,California,United States,"Pier 15, California, United States",http://www.exploratorium.edu/,37.8016231,-122.3973665
https://whichmuseum.com/museum/new-orleans-historic-voodoo-museum-10855,Specialized & Alternative,New Orleans Historic Voodoo Museum,724 Dumaine Street,Louisiana,United States,"724 Dumaine Street, Louisiana, United States",http://www.voodoomuseum.com,29.9598178,-90.0637865
https://whichmuseum.com/museum/new-england-aquarium-boston-9078,Nature & Natural History,New England Aquarium,Central Wharf 1,Massachusetts,United States,"Central Wharf 1, Massachusetts, United States",http://www.neaq.org/index.php,42.8122162,-70.8705475
https://whichmuseum.com/museum/general-grant-national-memorial-new-york-9304,History & Anthropology,General Grant National Memorial,Riverside Drive 501,New York,United States,"Riverside Drive 501, New York, United States",https://www.nps.gov/gegr/,40.8134538,-73.9630506
https://whichmuseum.com/museum/new-orleans-museum-of-art-9108,Art & Design,New Orleans Museum of Art,Collins Diboll Circle 1,Louisiana,United States,"Collins Diboll Circle 1, Louisiana, United States",http://www.noma.org,29.9864338,-90.0934343
https://whichmuseum.com/museum/hollywood-wax-museum-los-angeles-9422,Specialized & Alternative,Hollywood Wax Museum,6767 Hollywood Blvd,California,United States,"6767 Hollywood Blvd, California, United States",http://www.hollywoodwaxmuseum.com/,34.10173,-118.3381249
https://whichmuseum.com/museum/gettysburg-national-military-park-10383,History & Anthropology,Gettysburg National Military Park,1195 Baltimore Pike,Pennsylvania,United States,"1195 Baltimore Pike, Pennsylvania, United States",http://www.nps.gov/gett/,39.8114747,-77.2260166
https://whichmuseum.com/museum/seattle-art-museum-8887,Art & Design,Seattle Art Museum,1st Avenue 1300,Washington,United States,"1st Avenue 1300, Washington, United States",http://www.seattleartmuseum.org,47.6077008,-122.3385575
https://whichmuseum.com/museum/philadelphia-zoo-8935,Nature & Natural History,Philadelphia Zoo,3400 West Girard Avenue,Pennsylvania,United States,"3400 West Girard Avenue, Pennsylvania, United States",http://www.philadelphiazoo.org,39.9754074,-75.1969461
https://whichmuseum.com/museum/legion-of-honor-san-francisco-9019,Art & Design,Legion of Honor,100 34th Ave,California,United States,"100 34th Ave, California, United States",https://legionofhonor.famsf.org/,37.784558,-122.5009549
https://whichmuseum.com/museum/museum-of-contemporary-art-los-angeles-9423,Art & Design,"Museum of Contemporary Art, Los Angeles",South Grand Avenue 250,California,United States,"South Grand Avenue 250, California, United States",http://www.moca.org/,34.0532882,-118.2506228
https://whichmuseum.com/museum/san-antonio-zoo-and-aquarium-9626,Nature & Natural History,San Antonio Zoo and Aquarium,North Saint Mary's Street 3903,Texas,United States,"North Saint Mary's Street 3903, Texas, United States",http://www.sazoo.org,29.4637887,-98.4724214
https://whichmuseum.com/museum/buffalo-bill-center-of-the-west-cody-13530,History & Anthropology,Buffalo Bill Center of the West,Sheridan Avenue 720,Wyoming,United States,"Sheridan Avenue 720, Wyoming, United States",http://centerofthewest.org,44.5250111,-109.0735497
https://whichmuseum.com/museum/denver-botanic-gardens-8612,Nature & Natural History,Denver Botanic Gardens,York Street 1007,Colorado,United States,"York Street 1007, Colorado, United States",http://www.botanicgardens.org,39.7324654,-104.9609499
https://whichmuseum.com/museum/president-lincoln-s-cottage-washington-d-c-9217,History & Anthropology,President Lincoln's Cottage,140 Rock Creek Church Rd NW,Washington DC,United States,"140 Rock Creek Church Rd NW, Washington DC, United States",http://www.lincolncottage.org,38.9375947,-77.0124
https://whichmuseum.com/museum/pennsylvania-academy-of-the-fine-arts-philadelphia-8936,Art & Design,Pennsylvania Academy of the Fine Arts,North Broad Street 118,Pennsylvania,United States,"North Broad Street 118, Pennsylvania, United States",http://www.pafa.org,39.9552373,-75.1636673
https://whichmuseum.com/museum/national-portrait-gallery-washington-d-c-9207,Art & Design,National Portrait Gallery,9th Street Northwest 750,Washington DC,United States,"9th Street Northwest 750, Washington DC, United States",http://www.npg.si.edu,38.8994067,-77.024416
https://whichmuseum.com/museum/georgia-aquarium-atlanta-21067,Nature & Natural History,Georgia Aquarium,225 Baker St NW,Georgia,United States,"225 Baker St NW, Georgia, United States",https://www.georgiaaquarium.org/,33.7632675,-84.3951173
https://whichmuseum.com/museum/national-museum-of-the-american-indian-washington-d-c-9208,History & Anthropology,National Museum of the American Indian,4th St and Independence Ave SW,Washington DC,United States,"4th St and Independence Ave SW, Washington DC, United States",http://www.nmai.si.edu,NA,NA
https://whichmuseum.com/museum/seaquest-woodbridge-21255,Nature & Natural History,#1 Nature & Natural History in New Jersey #43 Nature & Natural History in United States,SeaQuest Woodbridge,NJ 07095 Woodbridge,United States,"SeaQuest Woodbridge, NJ 07095 Woodbridge, United States",https://visitseaquest.com/woodbridge/,40.5571734,-74.2989226
https://whichmuseum.com/museum/maritime-museum-of-san-diego-9158,Science & Technology,Maritime Museum of San Diego,The Embarcadero 1492,California,United States,"The Embarcadero 1492, California, United States",http://www.sdmaritime.org/,32.7205652,-117.1735538
https://whichmuseum.com/museum/sawgrass-recreation-park-fort-lauderdale-21272,Nature & Natural History,Sawgrass Recreation Park,"1006, U.S. 27",Florida,United States,"1006, U.S. 27, Florida, United States",https://www.evergladestours.com/,NA,NA
https://whichmuseum.com/museum/eastern-state-penitentiary-philadelphia-8929,Specialized & Alternative,Eastern State Penitentiary,Fairmount Avenue 2027,Pennsylvania,United States,"Fairmount Avenue 2027, Pennsylvania, United States",https://www.easternstate.org/,39.9683406,-75.1726626
https://whichmuseum.com/museum/national-museum-of-the-united-states-navy-washington-d-c-9218,Science & Technology,National Museum of the United States Navy,Sicard Street Southeast 736,Washington DC,United States,"Sicard Street Southeast 736, Washington DC, United States",http://www.history.navy.mil/museums/NationalMuseum/org8-1.htm,38.873776,-76.9953128
https://whichmuseum.com/museum/harvard-museum-of-natural-history-cambridge-9718,Nature & Natural History,Harvard Museum of Natural History,26 Oxford Street,Massachusetts,United States,"26 Oxford Street, Massachusetts, United States",https://hmnh.harvard.edu/,42.3782074,-71.1154484
https://whichmuseum.com/museum/national-museum-of-the-american-indian-new-york-9290,History & Anthropology,National Museum of the American Indian,One Bowling Green,New York,United States,"One Bowling Green, New York, United States",http://www.nmai.si.edu,40.7045881,-74.0137377
https://whichmuseum.com/museum/isabella-stewart-gardner-museum-boston-9079,Art & Design,Isabella Stewart Gardner Museum,Evans Way 25,Massachusetts,United States,"Evans Way 25, Massachusetts, United States",http://www.gardnermuseum.org/,42.338245,-71.0991538
https://whichmuseum.com/museum/aquarium-of-the-pacific-long-beach-11267,Nature & Natural History,Aquarium of the Pacific,100 Aquarium Way,California,United States,"100 Aquarium Way, California, United States",http://www.aquariumofpacific.org,33.7632039,-118.1966743
https://whichmuseum.com/museum/audubon-zoo-new-orleans-9109,Nature & Natural History,Audubon Zoo,6500 Magazine Street,Louisiana,United States,"6500 Magazine Street, Louisiana, United States",http://audubonnatureinstitute.org/zoo,29.924361,-90.127358
https://whichmuseum.com/museum/vizcaya-museum-and-gardens-miami-10863,Art & Design,Vizcaya Museum and Gardens,3251 South Miami AvenueMiami,Florida,United States,"3251 South Miami AvenueMiami, Florida, United States",https://vizcaya.org/,NA,NA
https://whichmuseum.com/museum/san-miguel-mission-santa-fe-10880,History & Anthropology,San Miguel Mission,401 Old Santa Fe Trail,New Mexico,United States,"401 Old Santa Fe Trail, New Mexico, United States",https://www.sanmiguelchapelsantafe.org/,35.683514,-105.937858
https://whichmuseum.com/museum/museum-of-the-city-of-new-york-9305,History & Anthropology,Museum of the City of New York,1220 Fifth Avenue,New York,United States,"1220 Fifth Avenue, New York, United States",https://www.mcny.org/,42.7984479,-73.9497016
https://whichmuseum.com/museum/the-museum-of-contemporary-photography-chicago-8751,Art & Design,The Museum of Contemporary Photography,600 S Michigan Ave,Illinois,United States,"600 S Michigan Ave, Illinois, United States",http://www.mocp.org,41.8737829,-87.6251253
https://whichmuseum.com/museum/dar-museum-washington-d-c-9219,Art & Design,DAR Museum,1776 D Street,Washington DC,United States,"1776 D Street, Washington DC, United States",http://www.dar.org/museum/,38.863571,-77.017005
https://whichmuseum.com/museum/old-stone-house-washington-d-c-9220,History & Anthropology,Old Stone House,M Street Northwest 3051,Washington DC,United States,"M Street Northwest 3051, Washington DC, United States",https://www.nps.gov/,38.9054188,-77.060379
https://whichmuseum.com/museum/wings-over-the-rockies-air-space-museum-denver-8613,Science & Technology,Wings Over the Rockies Air & Space Museum,East Academy Boulevard 7711,Colorado,United States,"East Academy Boulevard 7711, Colorado, United States",http://wingsmuseum.org,39.7210515,-104.8954657
https://whichmuseum.com/museum/the-henry-ford-dearborn-11047,Science & Technology,The Henry Ford,Oakwood Boulevard,Michigan,United States,"Oakwood Boulevard, Michigan, United States",http://www.thehenryford.org/,42.2904705,-83.1446862
https://whichmuseum.com/museum/conservatory-of-flowers-san-francisco-9020,Nature & Natural History,Conservatory of Flowers,John F Kennedy Drive 100,California,United States,"John F Kennedy Drive 100, California, United States",http://www.conservatoryofflowers.org/,37.7726071,-122.4602276
https://whichmuseum.com/museum/zoo-miami-country-walk-12447,Nature & Natural History,Zoo Miami,SW 152nd St,Florida,United States,"SW 152nd St, Florida, United States",http://www.zoomiami.org/,25.6296115,-80.3140458
https://whichmuseum.com/museum/museum-of-american-finance-new-york-9306,Specialized & Alternative,Museum of American Finance,48 Wall Street,New York,United States,"48 Wall Street, New York, United States",http://www.moaf.org,40.706472,-74.0091188
https://whichmuseum.com/museum/georgia-o-keeffe-museum-santa-fe-10881,Art & Design,Georgia O'keeffe Museum,Johnson Street 217,New Mexico,United States,"Johnson Street 217, New Mexico, United States",http://okeeffemuseum.org/,35.6891531,-105.9410403
https://whichmuseum.com/museum/california-academy-of-sciences-san-francisco-9021,Science & Technology,California Academy of Sciences,Music Concourse Drive 55,California,United States,"Music Concourse Drive 55, California, United States",http://www.calacademy.org/,37.7698266,-122.4660927
https://whichmuseum.com/museum/john-f-kennedy-presidential-library-and-museum-boston-9083,History & Anthropology,John F. Kennedy Presidential Library and Museum,Columbia Point,Massachusetts,United States,"Columbia Point, Massachusetts, United States",https://www.jfklibrary.org/,42.3186099,-71.0461255
https://whichmuseum.com/museum/salvador-dali-museum-st-petersburg-10145,Art & Design,Salvador Dalí Museum,Dali Boulevard 1,Florida,United States,"Dali Boulevard 1, Florida, United States",http://thedali.org,27.7659874,-82.6314611
https://whichmuseum.com/museum/the-collection-of-historical-scientific-instruments-cambridge-9719,Science & Technology,The Collection of Historical Scientific Instruments,1 Oxford Street,Massachusetts,United States,"1 Oxford Street, Massachusetts, United States",https://chsi.harvard.edu/,42.3764914,-71.1170512
https://whichmuseum.com/museum/renwick-gallery-washington-d-c-9221,Art & Design,Renwick Gallery,Pennsylvania Avenue Northwest 1661,Washington DC,United States,"Pennsylvania Avenue Northwest 1661, Washington DC, United States",https://americanart.si.edu/visit/renwick,38.8991734,-77.0390718
https://whichmuseum.com/museum/stax-museum-memphis-8382,Specialized & Alternative,Stax Museum,East McLemore Avenue 926,Tennessee,United States,"East McLemore Avenue 926, Tennessee, United States",http://www.staxmuseum.com,35.115755299999996,-90.0311755
https://whichmuseum.com/museum/african-american-civil-war-memorial-washington-d-c-9222,History & Anthropology,African American Civil War Memorial,1925 Vermont Ave,Washington DC,United States,"1925 Vermont Ave, Washington DC, United States",http://www.nps.gov/afam/,38.9157356,-77.0261695
https://whichmuseum.com/museum/louis-armstrong-park-new-orleans-9110,Specialized & Alternative,Louis Armstrong Park,701 N Rampart St,Louisiana,United States,"701 N Rampart St, Louisiana, United States",http://www.nps.gov/jazz/index.htm,29.9604962,-90.068229
https://whichmuseum.com/museum/bureau-of-engraving-and-printing-washington-d-c-9210,Art & Design,Bureau of Engraving and Printing,D Street Southwest,Washington DC,United States,"D Street Southwest, Washington DC, United States",https://moneyfactory.gov/,38.8848586,-77.026396
https://whichmuseum.com/museum/senator-john-heinz-history-center-pittsburgh-8588,History & Anthropology,Senator John Heinz History Center,1212 Smallman St,Pennsylvania,United States,"1212 Smallman St, Pennsylvania, United States",http://www.heinzhistorycenter.org,40.4464508,-79.9926773
https://whichmuseum.com/museum/musical-instrument-museum-phoenix-8488,Specialized & Alternative,Musical Instrument Museum,East Mayo Boulevard 4725,Arizona,United States,"East Mayo Boulevard 4725, Arizona, United States",http://www.mim.org/,33.6675082,-111.9783359
https://whichmuseum.com/museum/belmont-mansion-nashville-8513,History & Anthropology,Belmont Mansion,1700 Acklen Avenue,Tennessee,United States,"1700 Acklen Avenue, Tennessee, United States",http://belmontmansion.com/,36.135289,-86.796408
https://whichmuseum.com/museum/center-for-photography-at-woodstock-17405,Art & Design,Center For Photography At Woodstock,474 Broadway,New York,United States,"474 Broadway, New York, United States",https://www.cpw.org/,40.7211571,-74.0000365
https://whichmuseum.com/museum/foster-botanical-garden-honolulu-8294,Nature & Natural History,Foster Botanical Garden,2-58 North Vineyard Boulevard,Hawaii,United States,"2-58 North Vineyard Boulevard, Hawaii, United States",http://www1.honolulu.gov/parks/hbg/fbg.htm,21.3158152,-157.8589795
https://whichmuseum.com/museum/seattle-aquarium-8884,Nature & Natural History,Seattle Aquarium,Alaskan Way 1483,Washington,United States,"Alaskan Way 1483, Washington, United States",http://www.seattleaquarium.org,47.6076248,-122.3432202
https://whichmuseum.com/museum/hearst-castle-san-simeon-16482,History & Anthropology,Hearst Castle,Hearst Castle Road 750,California,United States,"Hearst Castle Road 750, California, United States",http://www.hearstcastle.org/,35.6509216,-121.1856637
https://whichmuseum.com/museum/museum-of-the-american-revolution-philadelphia-8938,History & Anthropology,Museum of the American Revolution,South Third Street 101,Pennsylvania,United States,"South Third Street 101, Pennsylvania, United States",http://www.amrevmuseum.org/,41.191939,-76.387586
https://whichmuseum.com/museum/seaquest-folsom-21298,Nature & Natural History,SeaQuest Folsom,430 Palladio Pkwy #1801,California,United States,"430 Palladio Pkwy #1801, California, United States",https://visitseaquest.com/folsom/,38.651064,-121.1213618
https://whichmuseum.com/museum/bill-melinda-gates-foundation-visitor-center-seattle-8888,History & Anthropology,Bill & Melinda Gates Foundation Visitor Center,5th Avenue North 440,Washington,United States,"5th Avenue North 440, Washington, United States",https://www.gatesfoundation.org/,47.6227967,-122.3472514
https://whichmuseum.com/museum/oregon-zoo-portland-8272,Nature & Natural History,Oregon Zoo,Southwest Canyon Road 4001,Oregon,United States,"Southwest Canyon Road 4001, Oregon, United States",http://www.oregonzoo.org,45.5098066,-122.7126898
https://whichmuseum.com/museum/detroit-institute-of-arts-8910,Art & Design,Detroit Institute of Arts,Woodward Avenue 5200,Michigan,United States,"Woodward Avenue 5200, Michigan, United States",http://www.dia.org/,42.3595055,-83.0645225
https://whichmuseum.com/museum/chicago-cultural-center-8749,Art & Design,Chicago Cultural Center,East Washington Street 78,Illinois,United States,"East Washington Street 78, Illinois, United States",http://www.chicagoculturalcenter.org/,41.8838628,-87.6248023
https://whichmuseum.com/museum/international-ufo-museum-research-center-roswell-10986,Specialized & Alternative,International Ufo Museum & Research Center,North Main Street 114,New Mexico,United States,"North Main Street 114, New Mexico, United States",https://www.roswellufomuseum.com/,33.3937052,-104.5232204
https://whichmuseum.com/museum/truman-little-white-house-key-west-8366,History & Anthropology,Truman Little White House,111 Front St,Florida,United States,"111 Front St, Florida, United States",https://www.trumanlittlewhitehouse.org/,24.5558333,-81.8066422
https://whichmuseum.com/museum/jamestown-settlement-scotland-12536,History & Anthropology,Jamestown Settlement,Jamestown Road 2110,Virginia,United States,"Jamestown Road 2110, Virginia, United States",http://www.historyisfun.org/jamestown-settlement.htm,37.2249679,-76.7839021
https://whichmuseum.com/museum/boulder-city-hoover-dam-museum-13002,History & Anthropology,Boulder City-Hoover Dam Museum,1305 Arizona Street,Nevada,United States,"1305 Arizona Street, Nevada, United States",https://www.bchdmuseum.org/,35.9776304,-114.8365941
https://whichmuseum.com/museum/biltmore-estate-biltmore-forest-15214,History & Anthropology,Biltmore Estate,1 Lodge Street,North Carolina,United States,"1 Lodge Street, North Carolina, United States",http://biltmore.com,35.567215,-82.543585
https://whichmuseum.com/museum/giant-forest-museum-sequoia-national-park-17249,Nature & Natural History,Giant Forest Museum,Generals Hwy,California,United States,"Generals Hwy, California, United States",https://www.nps.gov/seki/learn/historyculture/gfgfm.htm,36.6047808,-118.7343934
https://whichmuseum.com/museum/uss-bowfin-submarine-museum-pacific-fleet-submarine-museum-honolulu-40292,Science & Technology,USS Bowfin Submarine Museum - Pacific Fleet Submarine Museum,11 Arizona Memorial Drive,Hawaii,United States,"11 Arizona Memorial Drive, Hawaii, United States",https://www.bowfin.org/,21.3685663,-157.9386171
https://whichmuseum.com/museum/denver-art-museum-8614,Art & Design,Denver Art Museum,West 14th Avenue Parkway 100,Colorado,United States,"West 14th Avenue Parkway 100, Colorado, United States",http://denverartmuseum.org/,39.7373941,-104.9896237
https://whichmuseum.com/museum/san-diego-air-space-museum-10847,Science & Technology,San Diego Air & Space Museum,Pan American Plaza 2001,California,United States,"Pan American Plaza 2001, California, United States",http://sandiegoairandspace.org/,32.7262557,-117.1543948
https://whichmuseum.com/museum/united-states-navy-memorial-washington-d-c-9223,History & Anthropology,United States Navy Memorial,701 Pennsylvania Ave.,Washington DC,United States,"701 Pennsylvania Ave., Washington DC, United States",http://www.navymemorial.org/,38.8842486,-76.995823
https://whichmuseum.com/museum/meow-wolf-las-vegas-48692,NA,Meow Wolf,3215 Rancho Dr #100,Nevada,United States,"3215 Rancho Dr #100, Nevada, United States",https://meowwolf.com/visit/las-vegas,36.1323137,-115.1816066
https://whichmuseum.com/museum/museum-of-death-los-angeles-9429,Specialized & Alternative,Museum of Death,6031 Hollywood Blvd.,California,United States,"6031 Hollywood Blvd., California, United States",http://museumofdeath.net,34.1017413,-118.3208609
https://whichmuseum.com/museum/walker-art-center-minneapolis-8244,Art & Design,Walker Art Center,Hennepin Avenue South 1750,Minnesota,United States,"Hennepin Avenue South 1750, Minnesota, United States",http://walkerart.org,44.9680027,-93.2887652
https://whichmuseum.com/museum/strawbery-banke-museum-portsmouth-10341,History & Anthropology,Strawbery Banke Museum,14 Hancock Street,New Hampshire,United States,"14 Hancock Street, New Hampshire, United States",https://www.strawberybanke.org/,42.974752,-71.4657919
https://whichmuseum.com/museum/graceland-memphis-8380,Specialized & Alternative,Graceland,3734 Elvis Presley Blvd,Tennessee,United States,"3734 Elvis Presley Blvd, Tennessee, United States",https://www.graceland.com/,35.0463036,-90.0250061
https://whichmuseum.com/museum/museum-of-jewish-heritage-new-york-9312,History & Anthropology,Museum of Jewish Heritage,36 Battery Place,New York,United States,"36 Battery Place, New York, United States",http://www.mjhnyc.org/,40.7061186,-74.0182811
https://whichmuseum.com/museum/south-street-seaport-museum-new-york-9313,History & Anthropology,South Street Seaport Museum,Fulton Street 12,New York,United States,"Fulton Street 12, New York, United States",https://southstreetseaportmuseum.org/,40.706628,-74.003676
https://whichmuseum.com/museum/loretto-chapel-santa-fe-8452,History & Anthropology,Loretto Chapel,Old Santa Fe Trail 207,New Mexico,United States,"Old Santa Fe Trail 207, New Mexico, United States",http://www.lorettochapel.com/,35.6856264,-105.9375144
https://whichmuseum.com/museum/volunteer-park-conservatory-seattle-8889,Nature & Natural History,Volunteer Park Conservatory,1402 E Galer StSeattle,Washington,United States,"1402 E Galer StSeattle, Washington, United States",http://www.volunteerparkconservatory.org/,NA,NA
https://whichmuseum.com/museum/queen-emma-summer-palace-museum-honolulu-8295,History & Anthropology,Queen Emma Summer Palace Museum,2913 Pali Hwy,Hawaii,United States,"2913 Pali Hwy, Hawaii, United States",http://www.queenemmasummerpalace.org/,21.3358254,-157.8394682
https://whichmuseum.com/museum/downtown-aquarium-denver-8616,Nature & Natural History,Downtown Aquarium,Water Street 700,Colorado,United States,"Water Street 700, Colorado, United States",http://www.aquariumrestaurants.com/downtownaquariumdenver,39.7517702,-105.0138728
https://whichmuseum.com/museum/frick-collection-new-york-9291,Art & Design,Frick Collection,East 70th Street 1,New York,United States,"East 70th Street 1, New York, United States",https://www.frick.org/,40.7712536,-73.9670961
https://whichmuseum.com/museum/old-slave-mart-museum-charleston-8555,History & Anthropology,Old Slave Mart Museum,6 Chalmers Street,South Carolina,United States,"6 Chalmers Street, South Carolina, United States",https://www.charleston-sc.gov/160/Old-Slave-Mart-Museum,32.7778342,-79.9284197
https://whichmuseum.com/museum/denver-museum-of-nature-science-8617,Nature & Natural History,Denver Museum of Nature & Science,Colorado Boulevard 2001,Colorado,United States,"Colorado Boulevard 2001, Colorado, United States",http://www.dmns.org,39.7476417,-104.8708988
https://whichmuseum.com/museum/lyon-arboretum-and-botanical-garden-honolulu-8296,Nature & Natural History,Lyon Arboretum and Botanical Garden,3860 Manoa Rd,Hawaii,United States,"3860 Manoa Rd, Hawaii, United States",https://manoa.hawaii.edu/lyon,21.3317424,-157.8016136
https://whichmuseum.com/museum/forest-park-st-louis-8188,Nature & Natural History,Forest Park,5595 Grand Dr,Missouri,United States,"5595 Grand Dr, Missouri, United States",http://stlouis-mo.gov/government/departments/parks/parks/Forest-Park.cfm,38.6440375,-90.2834646
https://whichmuseum.com/museum/owens-thomas-house-savannah-8309,History & Anthropology,Owens-thomas House,124 Abercorn StreetSavannah,Georgia,United States,"124 Abercorn StreetSavannah, Georgia, United States",https://www.telfair.org/visit/owens-thomas/,NA,NA
https://whichmuseum.com/museum/new-york-aquarium-9292,Nature & Natural History,New York Aquarium,Surf Avenue,New York,United States,"Surf Avenue, New York, United States",http://www.nyaquarium.com,40.5746105,-73.9710998
https://whichmuseum.com/museum/brooklyn-museum-new-york-9293,Art & Design,Brooklyn Museum,Eastern Parkway 200,New York,United States,"Eastern Parkway 200, New York, United States",https://www.brooklynmuseum.org/,40.6709546,-73.9632948
https://whichmuseum.com/museum/california-state-capitol-museum-sacramento-9565,History & Anthropology,California State Capitol Museum,1315 10th St,California,United States,"1315 10th St, California, United States",http://capitolmuseum.ca.gov/,38.5766749,-121.4937139
https://whichmuseum.com/museum/barnes-foundation-philadelphia-8932,Art & Design,Barnes Foundation,Benjamin Franklin Parkway 2025,Pennsylvania,United States,"Benjamin Franklin Parkway 2025, Pennsylvania, United States",http://www.barnesfoundation.org,39.9605495,-75.1726581
https://whichmuseum.com/museum/adams-museum-deadwood-12046,History & Anthropology,Adams Museum,Sherman Street 54,South Dakota,United States,"Sherman Street 54, South Dakota, United States",https://www.deadwoodhistory.com/about-us/properties/adams-museum.html,44.375718,-103.729437
https://whichmuseum.com/museum/the-original-mcdonald-s-a-museum-in-san-bernardino-16005,Science & Technology,The Original McDonald's: A Museum in San Bernardino,1398 N. E St.,California,United States,"1398 N. E St., California, United States",https://californiathroughmylens.com/original-mcdonalds-museum-san-bernardino/,34.125662,-117.294297
https://whichmuseum.com/museum/oriental-institute-chicago-8756,History & Anthropology,Oriental Institute,East 58th Street 1155,Illinois,United States,"East 58th Street 1155, Illinois, United States",http://oi.uchicago.edu,41.7892454,-87.597718
https://whichmuseum.com/museum/meow-wolf-santa-fe-8453,Art & Design,Meow Wolf,Rufina Circle 1352,New Mexico,United States,"Rufina Circle 1352, New Mexico, United States",https://meowwolf.com/,35.6546483,-105.9965149
https://whichmuseum.com/museum/uss-pampanito-san-francisco-9026,Science & Technology,USS Pampanito,Pier 45,California,United States,"Pier 45, California, United States",https://maritime.org/,37.8101195,-122.4177169
https://whichmuseum.com/museum/national-building-museum-washington-d-c-9212,Science & Technology,National Building Museum,F Street Northwest 401,Washington DC,United States,"F Street Northwest 401, Washington DC, United States",https://nbm.org/,38.8977549,-77.0175512
https://whichmuseum.com/museum/carnegie-museum-of-natural-history-pittsburgh-8589,Nature & Natural History,Carnegie Museum of Natural History,Forbes Avenue 4400,Pennsylvania,United States,"Forbes Avenue 4400, Pennsylvania, United States",http://carnegiemnh.org,40.4430605,-79.9499422
https://whichmuseum.com/museum/perez-art-museum-miami-8704,Art & Design,Pérez Art Museum Miami,Biscayne Boulevard 1103,Florida,United States,"Biscayne Boulevard 1103, Florida, United States",http://www.pamm.org,25.7860327,-80.1863392
https://whichmuseum.com/museum/seaquest-littleton-21292,Nature & Natural History,SeaQuest Littleton,8501 W Bowles Ave,Colorado,United States,"8501 W Bowles Ave, Colorado, United States",https://visitseaquest.com/littleton/,39.6105512,-105.0937336
https://whichmuseum.com/museum/carnegie-museum-of-art-pittsburgh-8590,Art & Design,Carnegie Museum of Art,4400 Forbes Ave.Pittsburgh,Pennsylvania,United States,"4400 Forbes Ave.Pittsburgh, Pennsylvania, United States",http://cmoa.org/,40.4430605,-79.9499422
https://whichmuseum.com/museum/frederick-douglass-national-historic-site-washington-d-c-9224,History & Anthropology,Frederick Douglass National Historic Site,W Street Southeast 1411,Washington DC,United States,"W Street Southeast 1411, Washington DC, United States",http://www.nps.gov/frdo/,38.8633881,-76.9851713
https://whichmuseum.com/museum/coral-castle-museum-leisure-city-14852,History & Anthropology,Coral Castle Museum,South Dixie Highway,Florida,United States,"South Dixie Highway, Florida, United States",https://coralcastle.com/,25.6839159,-80.313602
https://whichmuseum.com/museum/edgar-allan-poe-cottage-new-york-9314,History & Anthropology,Edgar Allan Poe Cottage,2640 Grand Concourse,New York,United States,"2640 Grand Concourse, New York, United States",http://bronxhistoricalsociety.org/poe-cottage/,40.8649554,-73.8948814
https://whichmuseum.com/museum/houston-museum-of-natural-science-8837,Science & Technology,Houston Museum of Natural Science,Hermann Park Drive 5555,Texas,United States,"Hermann Park Drive 5555, Texas, United States",http://www.hmns.org/,29.7221014,-95.3899037
https://whichmuseum.com/museum/charlestown-navy-yard-boston-9084,Science & Technology,Charlestown Navy Yard,21 2nd Ave,Massachusetts,United States,"21 2nd Ave, Massachusetts, United States",https://www.nps.gov/bost/learn/historyculture/cny.htm,41.6952403,-70.5999036
https://whichmuseum.com/museum/perot-museum-of-nature-and-science-dallas-8473,Nature & Natural History,Perot Museum of Nature and Science,2201 N. Field Street,Texas,United States,"2201 N. Field Street, Texas, United States",http://www.perotmuseum.org/,32.7869273,-96.8064108
https://whichmuseum.com/museum/mardi-gras-world-new-orleans-9111,Specialized & Alternative,Mardi Gras World,Port of New Orleans Place 1380,Louisiana,United States,"Port of New Orleans Place 1380, Louisiana, United States",https://www.mardigrasworld.com/,29.9346586,-90.0615768
https://whichmuseum.com/museum/congregation-mickve-israel-savannah-8312,History & Anthropology,Congregation Mickve Israel,East Gordon Street 20,Georgia,United States,"East Gordon Street 20, Georgia, United States",http://www.mickveisrael.org/,32.0710065,-81.0940778
https://whichmuseum.com/museum/los-angeles-zoo-9430,Nature & Natural History,Los Angeles Zoo,"5333 Zoo Dr,",California,United States,"5333 Zoo Dr,, California, United States",http://www.lazoo.org/,34.1473597,-118.2844025
https://whichmuseum.com/museum/the-elms-mansion-newport-8139,History & Anthropology,The Elms Mansion,Bellevue Avenue 367,Rhode Island,United States,"Bellevue Avenue 367, Rhode Island, United States",https://www.newportmansions.org/explore/the-elms,41.4777971,-71.3088718
https://whichmuseum.com/museum/portland-observatory-10007,History & Anthropology,Portland Observatory,138 Congress St,Maine,United States,"138 Congress St, Maine, United States",http://portlandlandmarks.org/observatory/,43.6653727,-70.2482523
https://whichmuseum.com/museum/mutter-museum-philadelphia-8942,Science & Technology,Mütter Museum,South 22nd Street 19,Pennsylvania,United States,"South 22nd Street 19, Pennsylvania, United States",https://www.collegeofphysicians.org/mutter-museum,39.9532752,-75.1765473
https://whichmuseum.com/museum/colonial-williamsburg-12109,History & Anthropology,Colonial Williamsburg,101 Visitor Center Drive,Virginia,United States,"101 Visitor Center Drive, Virginia, United States",https://www.colonialwilliamsburg.com,37.2793142,-76.6986698
https://whichmuseum.com/museum/the-national-geographic-museum-washington-d-c-9213,Nature & Natural History,The National Geographic Museum,N Street Northwest 1145,Washington DC,United States,"N Street Northwest 1145, Washington DC, United States",http://www.nationalgeographic.org,38.9049611,-77.0381103
https://whichmuseum.com/museum/the-wizard-of-oz-museum-cape-canaveral-21307,Specialized & Alternative,The Wizard of Oz Museum,7099 North Atlantic Avenue,Florida,United States,"7099 North Atlantic Avenue, Florida, United States",https://www.wizardofozflorida.com/,28.38123,-80.605684
https://whichmuseum.com/museum/taliesin-west-scottsdale-10936,Art & Design,Taliesin West,North Taliesin,Arizona,United States,"North Taliesin, Arizona, United States",https://franklloydwright.org/tickets-tours/,33.5974546,-111.8428919
https://whichmuseum.com/museum/patriots-point-naval-and-maritime-museum-mount-pleasant-12095,Science & Technology,40 Patriots Point Rd,"Mount Pleasant, SC",South Carolina,United States,"Mount Pleasant, SC, South Carolina, United States",http://www.patriotspoint.org/,32.7940651,-79.8625851
https://whichmuseum.com/museum/corning-museum-of-glass-11388,Art & Design,Corning Museum of Glass,Museum Way 1,New York,United States,"Museum Way 1, New York, United States",https://home.cmog.org/,42.1497504,-77.0541655
https://whichmuseum.com/museum/jane-addams-hull-house-museum-chicago-8754,History & Anthropology,Jane Addams Hull-house Museum,South Halsted Street 800,Illinois,United States,"South Halsted Street 800, Illinois, United States",https://www.hullhousemuseum.org/,41.8716513,-87.6473972
https://whichmuseum.com/museum/the-frick-pittsburgh-10870,Art & Design,The Frick Pittsburgh,Reynolds Street 7227,Pennsylvania,United States,"Reynolds Street 7227, Pennsylvania, United States",https://www.thefrickpittsburgh.org/,40.4475948,-79.9016315
https://whichmuseum.com/museum/hawaii-state-art-museum-honolulu-8298,Art & Design,Hawaii State Art Museum,South Hotel Street 250,Hawaii,United States,"South Hotel Street 250, Hawaii, United States",http://sfca.hawaii.gov/hisam/visitor-information/,21.3088652,-157.8585229
https://whichmuseum.com/museum/hawaii-mission-houses-museum-honolulu-8299,History & Anthropology,Hawaii Mission Houses Museum,537-567 S King St,Hawaii,United States,"537-567 S King St, Hawaii, United States",http://www.missionhouses.org/,NA,NA
https://whichmuseum.com/museum/maui-ocean-center-aquarium-of-hawai-i-maalaea-14110,Nature & Natural History,Maui Ocean Center - Aquarium of Hawai'i,192 Ma'alaea Road,Hawaii,United States,"192 Ma'alaea Road, Hawaii, United States",http://www.mauioceancenter.com,NA,NA
https://whichmuseum.com/museum/orlando-science-center-10072,Science & Technology,Orlando Science Center,E. Princeton St. 777,Florida,United States,"E. Princeton St. 777, Florida, United States",https://www.osc.org/,28.5722851,-81.368303
https://whichmuseum.com/museum/bryce-canyon-national-park-service-14978,Nature & Natural History,Bryce Canyon - National Park Service,Highway 63,Utah,United States,"Highway 63, Utah, United States",https://www.nps.gov/brca/index.htm,37.685072,-112.1535205
https://whichmuseum.com/museum/austin-aquarium-21026,Nature & Natural History,Austin Aquarium,N. Hwy 183 #101,Texas,United States,"N. Hwy 183 #101, Texas, United States",https://austinaquarium.com/,30.6034668,-97.8614037
https://whichmuseum.com/museum/international-museum-of-surgical-science-chicago-8755,Science & Technology,International Museum of Surgical Science,North Lake Shore Drive 1524,Illinois,United States,"North Lake Shore Drive 1524, Illinois, United States",http://www.imss.org,41.910153,-87.6269402
https://whichmuseum.com/museum/table-rock-welcome-centre-niagara-falls-14011,NA,EN Table Rock House,Table Rock Welcome Centre,ON L2E 6T2 Niagara Falls,United States,"Table Rock Welcome Centre, ON L2E 6T2 Niagara Falls, United States",http://www.niagaraparks.com/visit/welcome-centres/table-rock-centre/,NA,NA
https://whichmuseum.com/museum/rca-studio-b-nashville-8514,Specialized & Alternative,Rca Studio B,222 Rep. John Lewis Way S,Tennessee,United States,"222 Rep. John Lewis Way S, Tennessee, United States",https://studiob.org/,36.1581728,-86.7760929
https://whichmuseum.com/museum/national-aquarium-baltimore-8797,Nature & Natural History,National Aquarium,501 E Pratt St,Maryland,United States,"501 E Pratt St, Maryland, United States",http://www.aqua.org,39.2847578,-76.60769
https://whichmuseum.com/museum/cable-car-museum-san-francisco-9023,Science & Technology,Cable Car Museum,Mason Street 1201,California,United States,"Mason Street 1201, California, United States",http://www.cablecarmuseum.org,37.7947602,-122.4118528
https://whichmuseum.com/museum/colonial-quarter-st-augustine-9660,History & Anthropology,Colonial Quarter,14 S Castillo Dr,Florida,United States,"14 S Castillo Dr, Florida, United States",https://colonialquarter.com/,29.897754,-81.3130436
https://whichmuseum.com/museum/the-outsiders-house-museum-tulsa-9700,Specialized & Alternative,The Outsiders House Museum,731 N Saint Louis Ave,Oklahoma,United States,"731 N Saint Louis Ave, Oklahoma, United States",http://www.theoutsidershouse.com,36.1647526,-95.9704569
https://whichmuseum.com/museum/nasa-ames-exploration-center-mountain-view-11564,Science & Technology,Nasa Ames Exploration Center,Naval Air Station,California,United States,"Naval Air Station, California, United States",http://www.nasa.gov/centers/ames/home/exploration.html,32.6991997,-117.214996
https://whichmuseum.com/museum/belle-meade-historic-site-winery-14786,History & Anthropology,Belle Meade Historic Site & Winery,5025 Harding Pike,Tennessee,United States,"5025 Harding Pike, Tennessee, United States",https://visitbellemeade.com,36.1057096,-86.8646108
https://whichmuseum.com/museum/octagon-house-washington-d-c-9226,History & Anthropology,Octagon House,New York Avenue Northwest 1799,Washington DC,United States,"New York Avenue Northwest 1799, Washington DC, United States",https://architectsfoundation.org/octagon-museum/,38.8963468,-77.0414447
https://whichmuseum.com/museum/the-mob-museum-enterprise-19905,History & Anthropology,The Mob Museum,300 Stewart Avenue,Nevada,United States,"300 Stewart Avenue, Nevada, United States",https://themobmuseum.org/,36.1727999,-115.1413908
https://whichmuseum.com/museum/museum-of-comic-cartoon-art-new-york-9298,Art & Design,Museum of Comic & Cartoon Art,128 E 63rd St,New York,United States,"128 E 63rd St, New York, United States",http://www.societyillustrators.org/,40.7647025,-73.9669118
https://whichmuseum.com/museum/madame-tussauds-wax-museum-las-vegas-9611,Specialized & Alternative,Madame Tussauds Wax Museum Las Vegas,3377 Las Vegas Blvd S,Nevada,United States,"3377 Las Vegas Blvd S, Nevada, United States",http://www.madametussauds.com/lasvegas,36.1212725,-115.171157
https://whichmuseum.com/museum/wright-brothers-national-memorial-kill-devil-hills-18728,Science & Technology,Wright Brothers National Memorial,Kill Devil Hills,North Carolina,United States,"Kill Devil Hills, North Carolina, United States",https://www.nps.gov/wrbr/planyourvisit/index.htm,36.0321186,-75.6776147
https://whichmuseum.com/museum/drug-enforcement-administration-museum-and-visitors-center-arlington-12957,History & Anthropology,Drug Enforcement Administration Museum and Visitors Center,700 Army Navy Drive,Virginia,United States,"700 Army Navy Drive, Virginia, United States",https://museum.dea.gov/,38.8646871,-77.0581469
https://whichmuseum.com/museum/point-reyes-lighthouse-inverness-18958,Science & Technology,Point Reyes Lighthouse,Sir Francis Drake Blvd,California,United States,"Sir Francis Drake Blvd, California, United States",https://www.nps.gov/pore/planyourvisit/lighthouse.htm,37.9866409,-122.5817095
https://whichmuseum.com/museum/oklahoma-route-66-museum-clinton-17467,History & Anthropology,#3 History & Anthropology in Oklahoma #1 Science & Technology in Oklahoma #1 Automotive museums in Oklahoma #2 Historic houses in Oklahoma #136 History & Anthropology in United States #52 Science & Technology in United States #3 Automotive museums in United States #100 Historic houses in United States,Oklahoma Route 66 Museum,Oklahoma,United States,"Oklahoma Route 66 Museum, Oklahoma, United States",http://www.okhistory.org/,35.5064888,-98.9869104
https://whichmuseum.com/museum/fallingwater-stewart-township-19158,History & Anthropology,Fallingwater,1491 Mill Run Rd,Pennsylvania,United States,"1491 Mill Run Rd, Pennsylvania, United States",http://www.fallingwater.org,39.9080573,-79.4595049
https://whichmuseum.com/museum/freer-gallery-of-art-washington-d-c-9504,History & Anthropology,Freer Gallery of Art,Independence Avenue Southwest 1050,Washington DC,United States,"Independence Avenue Southwest 1050, Washington DC, United States",http://www.asia.si.edu/,38.8881222,-77.0276002
https://whichmuseum.com/museum/waimea-valley-pupukea-18744,Nature & Natural History,Waimea Valley,59-864 Kamehameha Hwy,Hawaii,United States,"59-864 Kamehameha Hwy, Hawaii, United States",http://waimeavalley.net/,21.6364697,-158.0544251
https://whichmuseum.com/museum/the-dallas-contemporary-8474,Art & Design,The Dallas Contemporary,161 Glass St,Texas,United States,"161 Glass St, Texas, United States",http://www.dallascontemporary.org/,32.7905953,-96.8228757
https://whichmuseum.com/museum/rose-center-for-earth-space-new-york-9317,Science & Technology,Rose Center For Earth & Space,Central Park West at 79th Street,New York,United States,"Central Park West at 79th Street, New York, United States",http://www.amnh.org/exhibitions/permanent-exhibitions/rose-center-for-earth-and-space,NA,NA
https://whichmuseum.com/museum/john-and-mable-ringling-museum-of-art-sarasota-10988,Art & Design,John and Mable Ringling Museum of Art,Bay Shore Road 5401,Florida,United States,"Bay Shore Road 5401, Florida, United States",http://ringling.org,27.3813702,-82.559792
https://whichmuseum.com/museum/national-museum-of-wildlife-art-jackson-12643,Art & Design,National Museum of Wildlife Art,2820 Rungius Rd,Wyoming,United States,"2820 Rungius Rd, Wyoming, United States",http://www.wildlifeart.org,43.5191631,-110.7487521
https://whichmuseum.com/museum/tennessee-aquarium-chattanooga-11484,Nature & Natural History,Tennessee Aquarium,Broad Street 1,Tennessee,United States,"Broad Street 1, Tennessee, United States",http://tnaqua.org,35.0558633,-85.3110209
https://whichmuseum.com/museum/manitou-cliff-dwellings-manitou-springs-11639,History & Anthropology,Manitou Cliff Dwellings,10 Cliff Rd,Colorado,United States,"10 Cliff Rd, Colorado, United States",http://www.cliffdwellingsmuseum.com,38.861861,-104.9133676
https://whichmuseum.com/museum/durango-and-silverton-narrow-gauge-railroad-11876,Science & Technology,Durango and Silverton Narrow Gauge Railroad,479 Main Ave,Colorado,United States,"479 Main Ave, Colorado, United States",http://www.durangotrain.com,37.2690454,-107.8824853
https://whichmuseum.com/museum/new-york-city-fire-museum-9299,Specialized & Alternative,New York City Fire Museum,Spring Street 278,New York,United States,"Spring Street 278, New York, United States",http://www.nycfiremuseum.org/,40.7256009,-74.0069298
https://whichmuseum.com/museum/hope-outdoor-gallery-austin-8646,Art & Design,Hope Outdoor Gallery,1100 Baylor Street,Texas,United States,"1100 Baylor Street, Texas, United States",https://www.hopeoutdoorgallery.com/,30.276502,-97.753023
https://whichmuseum.com/museum/pacific-science-center-seattle-8885,Science & Technology,Pacific Science Center,2nd Avenue North 200,Washington,United States,"2nd Avenue North 200, Washington, United States",https://www.pacificsciencecenter.org/,47.6194061,-122.350778
https://whichmuseum.com/museum/museum-of-the-american-gangster-new-york-9318,Specialized & Alternative,Museum of the American Gangster,80 Saint Marks Place,New York,United States,"80 Saint Marks Place, New York, United States",https://theatre80.wordpress.com/about-80-st-marks-place/about-museum-of-the-american-gangster/,40.7275711,-73.9857883
https://whichmuseum.com/museum/center-for-wooden-boats-seattle-8891,Specialized & Alternative,Center For Wooden Boats,Valley Street 1010,Washington,United States,"Valley Street 1010, Washington, United States",http://cwb.org,47.6271962,-122.3359006
https://whichmuseum.com/museum/museum-of-the-bible-washington-d-c-9214,History & Anthropology,Museum of the Bible,4th Street Southwest 400,Washington DC,United States,"4th Street Southwest 400, Washington DC, United States",https://www.museumofthebible.org/,38.884549,-77.0164517
https://whichmuseum.com/museum/saint-louis-zoo-st-louis-19073,Nature & Natural History,Saint Louis Zoo,Government Drive 1,Missouri,United States,"Government Drive 1, Missouri, United States",http://www.stlzoo.org,38.6343952,-90.2876339
https://whichmuseum.com/museum/key-west-lighthouse-keeper-s-quarters-museum-8367,History & Anthropology,Key West Lighthouse & Keeper's Quarters Museum,938 Whitehead St,Florida,United States,"938 Whitehead St, Florida, United States",https://www.kwahs.org/museums/lighthouse-keepers-quarters/visit,24.5508885,-81.8008486
https://whichmuseum.com/museum/south-carolina-aquarium-charleston-8557,Nature & Natural History,South Carolina Aquarium,100 Aquarium Wharf,South Carolina,United States,"100 Aquarium Wharf, South Carolina, United States",https://scaquarium.org/,32.7910697,-79.9254807
https://whichmuseum.com/museum/ford-piquette-avenue-plant-detroit-8911,Science & Technology,Ford Piquette Avenue Plant,Piquette Street 461,Michigan,United States,"Piquette Street 461, Michigan, United States",https://www.fordpiquetteplant.org/,42.3691544,-83.0654987
https://whichmuseum.com/museum/adventure-aquarium-camden-10582,Nature & Natural History,Adventure Aquarium,Riverside Drive 1,New Jersey,United States,"Riverside Drive 1, New Jersey, United States",http://www.adventureaquarium.com/,39.9454428,-75.1314961
https://whichmuseum.com/museum/biosphere-2-oracle-18747,Nature & Natural History,Biosphere 2,South Biosphere Road,Arizona,United States,"South Biosphere Road, Arizona, United States",https://biosphere2.org/,32.582532,-110.8422334
https://whichmuseum.com/museum/rubin-museum-of-art-new-york-9319,Art & Design,Rubin Museum of Art,West 17th Street 150,New York,United States,"West 17th Street 150, New York, United States",http://rubinmuseum.org,40.7400959,-73.9977377
https://whichmuseum.com/museum/guinness-world-records-museum-los-angeles-10841,Specialized & Alternative,Guinness World Records Museum,Hollywood Boulevard 6764,California,United States,"Hollywood Boulevard 6764, California, United States",https://www.guinnessmuseumhollywood.com/,34.1012815,-118.3380409
https://whichmuseum.com/museum/rainbow-vomit-dallas-21217,Art & Design,Rainbow Vomit,3609 Parry Avenue,Texas,United States,"3609 Parry Avenue, Texas, United States",https://www.rainbowvomitdallas.com/,32.7814685,-96.7667528
https://whichmuseum.com/museum/spanish-village-art-center-san-diego-9159,Art & Design,Spanish Village Art Center,1770 Village Place,California,United States,"1770 Village Place, California, United States",https://spanishvillageartcenter.com/,32.7340791,-117.1476305
https://whichmuseum.com/museum/frist-art-museum-nashville-8515,Art & Design,Frist Art Museum,919 Broadway – DowntownNashville,Tennessee,United States,"919 Broadway – DowntownNashville, Tennessee, United States",http://www.fristartmuseum.org,NA,NA
https://whichmuseum.com/museum/the-walt-disney-family-museum-san-francisco-9024,Art & Design,The Walt Disney Family Museum,Montgomery Street 104,California,United States,"Montgomery Street 104, California, United States",https://www.waltdisney.org/,37.8013627,-122.4587206
https://whichmuseum.com/museum/pima-air-space-museum-tucson-10899,Science & Technology,Pima Air & Space Museum,East Valencia Road 6000,Arizona,United States,"East Valencia Road 6000, Arizona, United States",http://pimaair.org,32.1379065,-110.8671287
https://whichmuseum.com/museum/hollywood-cars-museum-paradise-19878,Science & Technology,Hollywood Cars Museum,5115 Dean Martin Dr UNIT 905,Nevada,United States,"5115 Dean Martin Dr UNIT 905, Nevada, United States",http://hollywoodcarsmuseum.com/,NA,NA
https://whichmuseum.com/museum/battleship-new-jersey-museum-and-memorial-camden-10583,Science & Technology,Battleship New Jersey Museum and Memorial,100 Clinton St,New Jersey,United States,"100 Clinton St, New Jersey, United States",http://www.battleshipnewjersey.org/,40.7383631,-74.035547
https://whichmuseum.com/museum/buckhorn-saloon-and-museum-san-antonio-9625,History & Anthropology,Buckhorn Saloon and Museum,318 E. Houston StreetSan Antonio,Texas,United States,"318 E. Houston StreetSan Antonio, Texas, United States",http://www.buckhornmuseum.com,NA,NA
https://whichmuseum.com/museum/oldest-wooden-school-house-st-augustine-11045,History & Anthropology,Oldest Wooden School House,Saint George Street 14,Florida,United States,"Saint George Street 14, Florida, United States",http://www.oldestwoodenschoolhouse.com/,29.897347,-81.3135723
https://whichmuseum.com/museum/grizzly-wolf-discovery-center-west-yellowstone-12514,Nature & Natural History,Grizzly & Wolf Discovery Center,201 S Canyon St,Montana,United States,"201 S Canyon St, Montana, United States",http://www.grizzlydiscoveryctr.org,44.65599,-111.09901
https://whichmuseum.com/museum/skyscraper-museum-new-york-9301,Specialized & Alternative,Skyscraper Museum,Battery Place 39,New York,United States,"Battery Place 39, New York, United States",http://www.skyscraper.org/,40.70575,-74.017691
https://whichmuseum.com/museum/los-angeles-county-museum-of-art-9428,Art & Design,Los Angeles County Museum of Art,5905 Wilshire Boulevard,California,United States,"5905 Wilshire Boulevard, California, United States",http://www.lacma.org,34.0637362,-118.3589376
https://whichmuseum.com/museum/the-museum-at-fit-new-york-9320,Art & Design,The Museum At Fit,227 W 27th St,New York,United States,"227 W 27th St, New York, United States",http://www.fitnyc.edu,40.7469087,-73.9942748
https://whichmuseum.com/museum/new-orleans-botanical-garden-9107,Nature & Natural History,New Orleans Botanical Garden,1 Palm DrNew OrleansLA 70124United States,Louisiana,United States,"1 Palm DrNew OrleansLA 70124United States, Louisiana, United States",http://neworleanscitypark.com/botanical-garden,NA,NA
https://whichmuseum.com/museum/national-gallery-of-art-east-building-washington-d-c-9228,Art & Design,National Gallery of Art - East Building,4th St NW,Washington DC,United States,"4th St NW, Washington DC, United States",https://www.nga.gov/about/welcome-to-the-east-building.html,38.917604,-77.017596
https://whichmuseum.com/museum/museum-of-illusions-atlanta-48686,NA,Museum of Illusions Atlanta,264 19th Street Northwest,Georgia,United States,"264 19th Street Northwest, Georgia, United States",https://moiatlanta.com/,33.7932735,-84.3970999
https://whichmuseum.com/museum/natural-history-museum-of-utah-salt-lake-city-8073,Nature & Natural History,Natural History Museum of Utah,Wakara Way 301,Utah,United States,"Wakara Way 301, Utah, United States",http://nhmu.utah.edu/,40.7641107,-111.822614
https://whichmuseum.com/museum/national-museum-of-african-art-washington-d-c-9230,Art & Design,National Museum of African Art,Independence Avenue Southwest 950,Washington DC,United States,"Independence Avenue Southwest 950, Washington DC, United States",https://africa.si.edu/,38.8880093,-77.0255044
https://whichmuseum.com/museum/jimmy-carter-library-and-museum-atlanta-8680,History & Anthropology,Jimmy Carter Library and Museum,441 Freedom Pkwy NE,Georgia,United States,"441 Freedom Pkwy NE, Georgia, United States",http://www.jimmycarterlibrary.gov,33.7668805,-84.3578589
https://whichmuseum.com/museum/denver-zoo-8618,Nature & Natural History,Denver Zoo,Steele Street 2300,Colorado,United States,"Steele Street 2300, Colorado, United States",http://www.denverzoo.org,39.7492422,-104.95041
https://whichmuseum.com/museum/frank-lloyd-wright-home-and-studio-oak-park-11215,History & Anthropology,Frank Lloyd Wright Home and Studio,Chicago Avenue 951,Illinois,United States,"Chicago Avenue 951, Illinois, United States",http://flwright.org/,41.8940513,-87.7996691
https://whichmuseum.com/museum/united-states-army-museum-of-hawaii-honolulu-8301,History & Anthropology,United States Army Museum of Hawaii,Kalia Road 2131,Hawaii,United States,"Kalia Road 2131, Hawaii, United States",http://www.hiarmymuseumsoc.org/,21.2790623,-157.8340006
https://whichmuseum.com/museum/museum-of-arts-and-design-new-york-9302,Art & Design,Museum of Arts and Design,Columbus Circle 2,New York,United States,"Columbus Circle 2, New York, United States",http://www.madmuseum.org/,40.7673319,-73.9819361
https://whichmuseum.com/museum/louisville-slugger-museum-bat-factory-9522,Specialized & Alternative,Louisville Slugger Museum & Bat Factory,West Main Street 800,Kentucky,United States,"West Main Street 800, Kentucky, United States",http://www.sluggermuseum.com,38.2568585,-85.7637124
https://whichmuseum.com/museum/norton-simon-museum-of-art-pasadena-10575,Art & Design,Norton Simon Museum of Art,411 West Colorado Boulevard,California,United States,"411 West Colorado Boulevard, California, United States",http://nortonsimon.org,34.1463727,-118.159259
https://whichmuseum.com/museum/o-k-corral-tombstone-10833,History & Anthropology,O.k. Corral Tombstone,326 East Allen St,Arizona,United States,"326 East Allen St, Arizona, United States",https://www.ok-corral.com/,31.7129295,-110.0679259
https://whichmuseum.com/museum/highland-light-truro-12546,Science & Technology,Highland Light,Highland Light Road 27,Massachusetts,United States,"Highland Light Road 27, Massachusetts, United States",https://www.highlandlighthouse.org/,42.0392159,-70.0621077
