"","ref_number","prefix","property_name","state","county","city","street_number","status","request_type","restricted_address","acreage_of_property","area_of_significance","category_of_property","external_link","level_of_significance_international","level_of_significance_national","level_of_significance_state","level_of_significance_local","level_of_significance_not_indicated","listed_date","nhl_designated_date","other_names","park_name","property_id","district_name","address","latitude","longitude"
"1","100008558","RS","Greene-Talbot-Talley Halls Historic District","Arkansas","Columbia","Magnolia","South of North Washington and East Lane Dr. intersection","Listed","Resubmission",FALSE,3.75,"Architecture","District",NA,FALSE,FALSE,FALSE,TRUE,FALSE,2023-03-13,NA,"CO0558; CO0559; CO0560; CO0561",NA,"100008558","Greene-Talbot-Talley Halls","Greene-Talbot-Talley Halls Historic District, Columbia, Arkansas",33.162409,-93.073938
"2","13001103",NA,"Magnolia Colored School Historic District","Arkansas","Columbia","Magnolia","611 S. Madison","Listed","Single",FALSE,2.5,"Education; Black","District",NA,FALSE,FALSE,FALSE,TRUE,FALSE,2014-01-22,NA,"Youngblood Christian Center; Site # CO0515-CO0518; Columbia County High School; Columbia High School",NA,"13001103","Magnolia Colored School","Magnolia Colored School Historic District, Columbia, Arkansas",33.272642,-93.232869
"3","08000435",NA,"Magnolia Commercial Historic District","Arkansas","Columbia","Magnolia","Roughly bounded by Madison Ave., Calhoun St., Jackson Ave.& Union St.","Listed","Single",FALSE,10,"Architecture; Commerce","District",NA,FALSE,FALSE,FALSE,TRUE,FALSE,2008-05-20,NA,"CO0359-CO0362; CO0364-CO0378; CO0380; CO0388; CO0431-CO0500",NA,"08000435","Magnolia Commercial","Magnolia Commercial Historic District, Columbia, Arkansas",33.272642,-93.232869
"4","13000349",NA,"Moose Addition Neighborhood Historic District","Arkansas","Conway","Morrillton","Roughly bounded by W. Valley, S. Moose, Green, Brown & S. Division Sts.","Listed","Single",FALSE,7,"Architecture","District",NA,FALSE,FALSE,FALSE,TRUE,FALSE,2013-09-13,NA,NA,NA,"13000349","Moose Addition Neighborhood","Moose Addition Neighborhood Historic District, Conway, Arkansas",35.0917981,-92.4367002
"5","15000258",NA,"Moose Addition Neighborhood Historic District (Boundary Increase)","Arkansas","Conway","Morrilton","Roughly bounded by S. St. Joseph, E. Green, S. Chestnut, E. Valley, S. Morrill & E. Church Sts.","Listed","Single",FALSE,26,"Community Planning And Development","District",NA,FALSE,FALSE,FALSE,TRUE,FALSE,2015-05-26,NA,NA,NA,"15000258","Moose Addition Neighborhood (Boundary Increase)","Moose Addition Neighborhood Historic District (Boundary Increase), Conway, Arkansas",35.0917981,-92.4367002
"6","03000085","AD","Morrilton Commercial Historic District (Additional Documentation)","Arkansas","Conway","Morrilton","Roughly bounded by East Railroad Ave., East Broadway, North Division, and North Moose Sts..","Listed","Add.doc.",FALSE,130,"Community Planning And Development; Architecture; Exploration/Settlement","District",NA,FALSE,FALSE,FALSE,TRUE,FALSE,2003-03-07,NA,NA,NA,"03000085","Morrilton Commercial (Additional Documentation)","Morrilton Commercial Historic District (Additional Documentation), Conway, Arkansas",35.15265,-92.743819
"7","92000514",NA,"Petit Jean State Park-Cedar Falls Trail Historic District","Arkansas","Conway","Winrock","Adjacent to main access rd., Petit Jean State Park","Listed","Multiple",FALSE,17,"Landscape Architecture; Entertainment/Recreation; Social History","District",NA,FALSE,FALSE,FALSE,TRUE,FALSE,1992-05-28,NA,"CN0130",NA,"92000514","Petit Jean State Park-Cedar Falls Trail","Petit Jean State Park-Cedar Falls Trail Historic District, Conway, Arkansas",35.125409069952,-92.951716183016
"8","92000515",NA,"Petit Jean State Park-Lake Bailey-Roosevelt Lake Historic District","Arkansas","Conway","Winrock","E and N of AR 154, Petit Jean State Park","Listed","Multiple",FALSE,170,"Landscape Architecture; Entertainment/Recreation; Architecture; Social History","District",NA,FALSE,FALSE,FALSE,TRUE,FALSE,1992-05-28,NA,"CN0135;See Also:Cedar Creek Bridge",NA,"92000515","Petit Jean State Park-Lake Bailey-Roosevelt Lake","Petit Jean State Park-Lake Bailey-Roosevelt Lake Historic District, Conway, Arkansas",35.0917981,-92.4367002
"9","15000259",NA,"West Church Street Historic District","Arkansas","Conway","Morrilton","Roughly bounded by S. Morrill, Valley, S. Cherokee & W. Church Sts.","Listed","Single",FALSE,18,"Architecture","District",NA,FALSE,FALSE,FALSE,TRUE,FALSE,2015-05-26,NA,NA,NA,"15000259","West Church Street","West Church Street Historic District, Conway, Arkansas",35.422353256272,-92.708155423197
"10","100010315","SG","Arkansas State College Historic District","Arkansas","Craighead","Jonesboro","2405 Aggie Road","Listed","Single",FALSE,21.36,"Architecture; Education","District",NA,FALSE,FALSE,FALSE,TRUE,FALSE,2024-05-16,NA,NA,NA,"100010315","Arkansas State College","Arkansas State College Historic District, Craighead, Arkansas",35.826201997808,-90.727821505094
"11","82000805",NA,"West Washington Avenue Historic District","Arkansas","Craighead","Jonesboro","500-626 W Washington Ave.","Listed","Single",FALSE,6,"Community Planning And Development; Commerce; Architecture","District",NA,FALSE,FALSE,FALSE,TRUE,FALSE,1982-10-22,NA,NA,NA,"82000805","West Washington Avenue","West Washington Avenue Historic District, Craighead, Arkansas",35.83841,-90.70983
"12","76000402",NA,"Van Buren Historic District","Arkansas","Crawford","Van Buren","Main St., bounded by Cane Hill St. and the Arkansas River","Listed","Single",FALSE,20,"Commerce; Transportation; Architecture","Building",NA,FALSE,FALSE,TRUE,FALSE,FALSE,1976-04-30,NA,NA,NA,"76000402","Van Buren","Van Buren Historic District, Crawford, Arkansas",35.43453,-94.35271
"13","08000704",NA,"West Memphis Commercial Historic District","Arkansas","Crittenden","West Memphis","700, 800, and 900 blocks of E. Broadway Ave.","Listed","Single",FALSE,11.5,"Architecture; Community Planning And Development","District",NA,FALSE,FALSE,FALSE,TRUE,FALSE,2008-07-24,NA,NA,NA,"08000704","West Memphis Commercial","West Memphis Commercial Historic District, Crittenden, Arkansas",35.2025921,-90.2025459
"14","11000330",NA,"East Hamilton Avenue Historic District","Arkansas","Cross","Wynne","E. Hamilton Ave. between N. Falls Blvd. & N. Killough Rd.; Eldridge Ct.","Listed","Single",FALSE,30.5,"Architecture","District",NA,FALSE,FALSE,FALSE,TRUE,FALSE,2011-06-08,NA,"CS0034; CS0115-CS0172; CS0175-CS0178",NA,"11000330","East Hamilton Avenue","East Hamilton Avenue Historic District, Cross, Arkansas",35.186926279226,-90.800193847932
"15","05000490",NA,"Johnston, John H., Cotton Gin Historic District","Arkansas","Cross","Levesque","Jct. US 64 & AR 163","Listed","Multiple",FALSE,2.8,"Architecture; Agriculture","District",NA,FALSE,FALSE,TRUE,FALSE,FALSE,2005-06-01,NA,"Site # CS0018",NA,"05000490","Johnston, John H., Cotton Gin","Johnston, John H., Cotton Gin Historic District, Cross, Arkansas",36.481615,-93.630349
"16","09001115",NA,"Wynne Commercial Historic District","Arkansas","Cross","Wynne","Roughly bounded by Front St., Commercial Ave., Terry St., Wilson St., and Pecan Ave.","Listed","Single",FALSE,15,"Commerce","District",NA,FALSE,FALSE,FALSE,TRUE,FALSE,2009-12-22,NA,NA,NA,"09001115","Wynne Commercial","Wynne Commercial Historic District, Cross, Arkansas",35.22649,-90.79431
"17","09000772",NA,"Wynne Wholesale Commercial Historic District","Arkansas","Cross","Wynne","Corner of W. Merriman Ave. & Martin Luther King Dr.","Listed","Single",FALSE,1,"Commerce; Agriculture; Industry","District",NA,FALSE,FALSE,FALSE,TRUE,FALSE,2010-01-25,NA,NA,NA,"09000772","Wynne Wholesale Commercial","Wynne Wholesale Commercial Historic District, Cross, Arkansas",35.22649,-90.79431
"18","87001348",NA,"Charlotte Street Historic District","Arkansas","Dallas","Fordyce","Roughly bounded by Holmes, Charlotte, Broadway, and E. College Sts.","Listed","Multiple",FALSE,15.5,"Community Planning And Development; Architecture","District",NA,FALSE,FALSE,FALSE,TRUE,FALSE,1987-09-14,NA,NA,NA,"87001348","Charlotte Street","Charlotte Street Historic District, Dallas, Arkansas",33.8176,-92.40849
"19","08000436",NA,"Fordyce Commercial Historic District","Arkansas","Dallas","Fordyce","Roughly bounded by Oak, 5th & Spring Sts. & AR 274","Listed","Single",FALSE,9,"Architecture; Commerce","District",NA,FALSE,FALSE,FALSE,TRUE,FALSE,2008-05-20,NA,"DA0029; DA0062; DA0071-DA0075; DA0077; DA0079-DA0083; DA0085; DA0086; DA0189; DA0190; DA0195; DA0207-DA0228; DA0230",NA,"08000436","Fordyce Commercial","Fordyce Commercial Historic District, Dallas, Arkansas",33.812863,-92.412397
"20","07000446",NA,"Dumas Commercial Historic District","Arkansas","Desha","Dumas","South Main St. bet. Choctaw and Waterman Sts.","Listed","Single",FALSE,6,"Architecture; Commerce","District",NA,FALSE,FALSE,FALSE,TRUE,FALSE,2007-05-22,NA,"DE0339; DE0340; DE0341; DE0039; DE0318; DE0034; DE0038; DE0163; DE1064; DE0166; DE0342; DE0338; DE0037",NA,"07000446","Dumas Commercial","Dumas Commercial Historic District, Desha, Arkansas",34.2954174,-91.3344488
"21","05000491",NA,"Kemp Cotton Gin Historic District","Arkansas","Desha","Rohwer","Cty.Rd. 227 W. of AR 1","Listed","Multiple",FALSE,2.3,"Agriculture; Architecture","District",NA,FALSE,FALSE,FALSE,TRUE,FALSE,2005-06-01,NA,"Site # DE0240",NA,"05000491","Kemp Cotton Gin","Kemp Cotton Gin Historic District, Desha, Arkansas",35.731741,-91.679749
"22","100013010","SG","Harris And Horsfall Halls Historic District","Arkansas","Drew","Monticello","520 University Drive and 1514 Scogin Drive","Listed","Single",FALSE,3.7,"Social History","District",NA,FALSE,FALSE,FALSE,TRUE,FALSE,2026-05-18,NA,"Sites #DR0255, DR0278 and DR0308",NA,"100013010","Harris And Horsfall Halls","Harris And Horsfall Halls Historic District, Drew, Arkansas",33.58945,-91.72002
"23","11000688",NA,"Monticello Commercial Historic District","Arkansas","Drew","Monticello","Bounded roughly by Trotter Ave., Edwards St., Railroad Ave. & Chester St.","Listed","Single",FALSE,13,"Commerce","District",NA,FALSE,FALSE,FALSE,TRUE,FALSE,2011-09-23,NA,NA,NA,"11000688","Monticello Commercial","Monticello Commercial Historic District, Drew, Arkansas",33.628965,-91.79085
"24","79000437",NA,"Monticello North Main Street Historic District","Arkansas","Drew","Monticello","Irregular pattern along Westwood Ave. and N. Main St.","Listed","Single",FALSE,30,"Architecture","District",NA,FALSE,FALSE,FALSE,TRUE,FALSE,1979-02-18,NA,NA,NA,"79000437","Monticello North Main Street","Monticello North Main Street Historic District, Drew, Arkansas",33.632535751307,-91.790545547314
"25","08000952",NA,"Ridgeway Hotel Historic District","Arkansas","Drew","Monticello","200-206 East Gaines St.","Listed","Single",FALSE,1.2,"Architecture; Commerce","District",NA,FALSE,FALSE,FALSE,TRUE,FALSE,2009-01-22,NA,"Ridgeway Hotel, Building at 202 East Gaines Street; H.M. Wilson Building",NA,"08000952","Ridgeway Hotel","Ridgeway Hotel Historic District, Drew, Arkansas",33.58945,-91.72002
"26","07000503",NA,"Castleberry-Harrington Historic District","Arkansas","Faulkner","Republican","Castleberry Rd.","Listed","Multiple",FALSE,1.5,"Architecture","District",NA,FALSE,FALSE,FALSE,TRUE,FALSE,2007-06-05,NA,"FA1319, FA1320, FA1289",NA,"07000503","Castleberry-Harrington","Castleberry-Harrington Historic District, Faulkner, Arkansas",34.3560402,-94.0548212
"27","10000779","AD","Conway Commercial Historic District (Additional Documentation)","Arkansas","Faulkner","Conway","Roughly bounded by Main, Harkrider, Spencer just south of Mill St., and Locust Sts.","Listed","Add.doc.",FALSE,33.9,"Architecture; Commerce","District",NA,FALSE,FALSE,FALSE,TRUE,FALSE,2010-09-23,NA,NA,NA,"10000779","Conway Commercial (Additional Documentation)","Conway Commercial Historic District (Additional Documentation), Faulkner, Arkansas",34.3560402,-94.0548212
"28","07000973",NA,"Hendrix College Addition Neighborhood Historic District","Arkansas","Faulkner","Conway","Roughly bounded by Washington Ave., Fleming St., Harkrider St. and Winfield St.","Listed","Single",FALSE,40,"Architecture; Community Planning And Development","District",NA,FALSE,FALSE,FALSE,TRUE,FALSE,2007-09-20,NA,"FA0953-FA0963, FA0965-FA0984, FA0986-FA0996, FA0998; FA1000-FA1008, FA1011-FA1017, FA1019-FA1028, FA1030-FA",NA,"07000973","Hendrix College Addition Neighborhood","Hendrix College Addition Neighborhood Historic District, Faulkner, Arkansas",34.3560402,-94.0548212
"29","00001645","AD","Robinson Historic District (Additional Documentation)","Arkansas","Faulkner","Conway","Roughly bounded by Cross, Prince, Faulkner, and Watkins Sts., and Robinson Ave.","Listed","Add.doc.",FALSE,103,"Architecture; Community Planning And Development","District",NA,FALSE,FALSE,FALSE,TRUE,FALSE,2001-01-29,NA,NA,NA,"00001645","Robinson (Additional Documentation)","Robinson Historic District (Additional Documentation), Faulkner, Arkansas",34.3560402,-94.0548212
"30","100001647","SG","Scull Historic District","Arkansas","Faulkner","Conway","428 & 432 Conway Blvd.","Listed","Single",FALSE,0.9,"Architecture","District",NA,FALSE,FALSE,FALSE,TRUE,FALSE,2017-09-21,NA,"FA1379; FA1378",NA,"100001647","Scull","Scull Historic District, Faulkner, Arkansas",34.3560402,-94.0548212
"31","13000064",NA,"University Of Central Arkansas Historic District","Arkansas","Faulkner","Conway","201 Donaghey Ave.","Listed","Single",FALSE,0.1,"Education; Architecture","District",NA,FALSE,FALSE,FALSE,TRUE,FALSE,2013-03-13,NA,"Arkansas State Teachers College Historic District; FA1044; FA1040; FA0999; F0539; FA1362; FA1363; FA1029 A",NA,"13000064","University Of Central Arkansas","University Of Central Arkansas Historic District, Faulkner, Arkansas",35.0775857,-92.4573171
"32","08000462",NA,"Charleston Commercial Historic District","Arkansas","Franklin","Charleston","Main St. roughly from AR 217 to Tilden St.","Listed","Single",FALSE,2.5,"Architecture; Community Planning And Development; Commerce","District",NA,FALSE,FALSE,FALSE,TRUE,FALSE,2008-05-29,NA,"FR0010,FR0215-FR0236,FR0239",NA,"08000462","Charleston Commercial","Charleston Commercial Historic District, Franklin, Arkansas",35.297126,-94.039391
"33","94001616",NA,"Gray Spring Recreation Area-Forest Service Road 1003 Historic District","Arkansas","Franklin","Cass","Forest Service Rd. 1003, Ozark--St. Francis NF","Listed","Multiple",FALSE,60,"Social History; Architecture","District",NA,FALSE,FALSE,FALSE,TRUE,FALSE,1995-09-11,NA,NA,NA,"94001616","Gray Spring Recreation Area-Forest Service Road 1003","Gray Spring Recreation Area-Forest Service Road 1003 Historic District, Franklin, Arkansas",35.841994,-91.912842
"34","02001599",NA,"Ozark Courthouse Square Historic District","Arkansas","Franklin","Ozark","Roughly W. Commercial, W. Main, 2nd and 3rd St., Courthouse Sq.","Listed","Single",FALSE,0.9,"Architecture; Commerce; Community Planning And Development","District",NA,FALSE,FALSE,FALSE,TRUE,FALSE,2002-12-27,NA,NA,NA,"02001599","Ozark Courthouse Square","Ozark Courthouse Square Historic District, Franklin, Arkansas",35.486907,-93.827202
"35","05001590",NA,"Army And Navy General Hospital Historic District","Arkansas","Garland","Hot Springs","105, 200, 417, 421 and 425 Reserve St.","Listed","Single",FALSE,10,"Health/Medicine; Architecture; Education","District",NA,FALSE,TRUE,FALSE,FALSE,FALSE,2007-02-09,NA,"Hot Springs Rehabilitation Center",NA,"05001590","Army And Navy General Hospital","Army And Navy General Hospital Historic District, Garland, Arkansas",34.9551176,-90.4622062
"36","04000007",NA,"Bellaire Court Historic District","Arkansas","Garland","Hot Springs","637 Park Ave.","Listed","Multiple",FALSE,0.9,"Transportation; Architecture","District",NA,FALSE,FALSE,FALSE,TRUE,FALSE,2004-02-11,NA,"Bellaire Apartments",NA,"04000007","Bellaire Court","Bellaire Court Historic District, Garland, Arkansas",34.53062,-93.04533
"37","93001079",NA,"Camp Clearfork Historic District","Arkansas","Garland","Crystal Springs","S of US 270, W of Crystal Springs, Ouachita NF","Listed","Multiple",FALSE,21,"Entertainment/Recreation; Architecture; Social History","District",NA,FALSE,FALSE,FALSE,TRUE,FALSE,1993-10-21,NA,"GA 0084-GA 0097",NA,"93001079","Camp Clearfork","Camp Clearfork Historic District, Garland, Arkansas",34.510941995221,-93.387391662868
"38","07000200",NA,"Ccc Company 3767 Powder Magazine Historic District","Arkansas","Garland","Jessieville","K59P Rd. N of Forest Service Rd. 11 (Gladstone Rd.)","Listed","Multiple",FALSE,6,"Social History; Conservation","District",NA,FALSE,FALSE,FALSE,TRUE,FALSE,2007-03-30,NA,"GA0148; GA0149",NA,"07000200","Ccc Company 3767 Powder Magazine","Ccc Company 3767 Powder Magazine Historic District, Garland, Arkansas",34.9551176,-90.4622062
"39","04000005",NA,"Cottage Courts Historic District","Arkansas","Garland","Hot Springs","603 Park Ave.","Listed","Multiple",FALSE,0.9,"Transportation; Architecture","District",NA,FALSE,FALSE,FALSE,TRUE,FALSE,2004-02-11,NA,"Cottage Motel",NA,"04000005","Cottage Courts","Cottage Courts Historic District, Garland, Arkansas",34.53062,-93.04533
"40","03001098",NA,"Fordyce-Ricks House Historic District","Arkansas","Garland","Hot Springs","1501 Park Ave.","Listed","Single",FALSE,37,"Architecture; Landscape Architecture; Transportation; Military; Politics/Government","District",NA,FALSE,FALSE,TRUE,FALSE,FALSE,2003-10-31,NA,"The Cabin; Site # GA0487","Hot Springs","03001098","Fordyce-Ricks House","Fordyce-Ricks House Historic District, Garland, Arkansas",34.9551176,-90.4622062
"41","93001089",NA,"Forest Service Headquarters Historic District","Arkansas","Garland","Hot Springs","S of jct. of Winona and Indiana Sts.","Listed","Multiple",FALSE,4,"Conservation; Social History","District",NA,FALSE,FALSE,FALSE,TRUE,FALSE,1993-10-20,NA,"GA 0072-GA 0077",NA,"93001089","Forest Service Headquarters","Forest Service Headquarters Historic District, Garland, Arkansas",34.9551176,-90.4622062
"42","85001370",NA,"Hot Springs Central Avenue Historic District","Arkansas","Garland","Hot Springs","Central Ave., from Prospect to Park Sts.","Listed","Single",FALSE,22,"Commerce; Architecture","District",NA,FALSE,FALSE,TRUE,FALSE,FALSE,1985-06-25,NA,"See Also:Arlington Hotel;Wade Clinic;Medical Arts Building",NA,"85001370","Hot Springs Central Avenue","Hot Springs Central Avenue Historic District, Garland, Arkansas",34.51564,-93.05379
"43","100004164","BC","Hot Springs Central Avenue Historic District (Boundary Decrease)","Arkansas","Garland","Hot Springs","Central Ave., from Prospect to Park Sts.","Listed","Boundary",FALSE,24.2,"Commerce; Architecture; Community Planning And Development","District",NA,FALSE,FALSE,FALSE,TRUE,FALSE,2019-07-08,NA,"Site #GA0049",NA,"85001370","Hot Springs Central Avenue (Boundary Decrease)","Hot Springs Central Avenue Historic District (Boundary Decrease), Garland, Arkansas",34.51564,-93.05379
"44","07000957",NA,"Hot Springs Central Avenue Historic District (Boundary Increase)","Arkansas","Garland","Hot Springs","101 Park Ave.","Listed","Single",FALSE,0.9,"Architecture; Health/Medicine","District",NA,FALSE,FALSE,FALSE,TRUE,FALSE,2007-09-19,NA,NA,NA,"07000957","Hot Springs Central Avenue (Boundary Increase)","Hot Springs Central Avenue Historic District (Boundary Increase), Garland, Arkansas",34.51564,-93.05379
"45","96000526",NA,"Hot Springs Railroad Warehouse Historic District","Arkansas","Garland","Hot Springs","401--439 Broadway","Listed","Single",FALSE,2,"Community Planning And Development","District",NA,FALSE,FALSE,FALSE,TRUE,FALSE,1996-05-27,NA,NA,NA,"96000526","Hot Springs Railroad Warehouse","Hot Springs Railroad Warehouse Historic District, Garland, Arkansas",34.502785,-93.055659
"46","93000480",NA,"Klein, George, Tourist Court Historic District","Arkansas","Garland","Hot Springs","501 Morrison St.","Listed","Single",FALSE,0.9,"Architecture","District",NA,FALSE,FALSE,FALSE,TRUE,FALSE,1993-06-08,NA,"Green Elf Court",NA,"93000480","Klein, George, Tourist Court","Klein, George, Tourist Court Historic District, Garland, Arkansas",34.9551176,-90.4622062
"47","04000010",NA,"Lynwood Tourist Court Historic District","Arkansas","Garland","Hot Springs","857 Park Ave.","Listed","Multiple",FALSE,0.9,"Transportation","District",NA,FALSE,FALSE,FALSE,TRUE,FALSE,2004-02-11,NA,"Lynwood Motel; Site # GA0618",NA,"04000010","Lynwood Tourist Court","Lynwood Tourist Court Historic District, Garland, Arkansas",34.9551176,-90.4622062
"48","04000013",NA,"Mountainaire Hotel Historic District","Arkansas","Garland","Hot Springs","1100 Park Ave.","Listed","Multiple",FALSE,0.9,"Transportation; Architecture","District",NA,FALSE,FALSE,FALSE,TRUE,FALSE,2004-02-11,NA,"Sites # GA0713 - GA0714",NA,"04000013","Mountainaire Hotel","Mountainaire Hotel Historic District, Garland, Arkansas",34.9551176,-90.4622062
"49","11000690","AD","Ouachita Avenue Historic District","Arkansas","Garland","Hot Springs","Bounded by Ouachita Ave., Orange St., Central Ave. & Olive St.","Listed","Add.doc.",FALSE,9,"Commerce; Architecture","District",NA,FALSE,FALSE,FALSE,TRUE,FALSE,2011-09-23,NA,NA,NA,"11000690","Ouachita Avenue","Ouachita Avenue Historic District, Garland, Arkansas",34.51564,-93.05379
"50","04000009",NA,"Parkway Courts Historic District","Arkansas","Garland","Hot Springs","815 Park Ave.","Listed","Multiple",FALSE,0.9,"Transportation; Architecture","District",NA,FALSE,FALSE,FALSE,TRUE,FALSE,2004-02-11,NA,"Budget Inn; Site # GA0617",NA,"04000009","Parkway Courts","Parkway Courts Historic District, Garland, Arkansas",34.53062,-93.04533
"51","04000012","AD","Perry Plaza Court Historic District (Additional Documentation)","Arkansas","Garland","Hot Springs","1007 Park Ave.","Listed","Add.doc.",FALSE,0.9,"Transportation; Architecture","District",NA,FALSE,FALSE,FALSE,TRUE,FALSE,2004-02-11,NA,"Perry Plaza Motel; Site # GA0621",NA,"04000012","Perry Plaza Court (Additional Documentation)","Perry Plaza Court Historic District (Additional Documentation), Garland, Arkansas",34.53062,-93.04533
"52","03000532",NA,"Pleasant Street Historic District","Arkansas","Garland","Hot Springs","Roughly bounded by Malvern Av., Pleasant, Church, Gulpha, Garden, Grove and Kirk Sts.","Listed","Single",FALSE,30,"Community Planning And Development; Black; Architecture","District",NA,FALSE,FALSE,FALSE,TRUE,FALSE,2003-06-20,NA,"John L. Webb Neighborhood Historic District",NA,"03000532","Pleasant Street","Pleasant Street Historic District, Garland, Arkansas",34.50519114475,-93.04655703262
"53","99000821",NA,"Quapaw-Prospect Historic District","Arkansas","Garland","Hot Springs","Roughly bounded by Quapaw and Prospect Aves.","Listed","Single",FALSE,10,"Architecture","District",NA,FALSE,FALSE,FALSE,TRUE,FALSE,2002-03-08,NA,"GA0154--GA0472",NA,"99000821","Quapaw-Prospect","Quapaw-Prospect Historic District, Garland, Arkansas",34.50650272076,-93.062859578597
"54","04000497",NA,"Taylor Rosamond Motel Historic District","Arkansas","Garland","Hot Springs","316 Park Ave.","Listed","Multiple",FALSE,0.9,"Transportation","District",NA,FALSE,FALSE,FALSE,TRUE,FALSE,2004-05-26,NA,NA,NA,"04000497","Taylor Rosamond Motel","Taylor Rosamond Motel Historic District, Garland, Arkansas",34.9551176,-90.4622062
"55","12001055",NA,"Whittington Park Historic District","Arkansas","Garland","Hot Springs","Whittington Ave. & Sabie St. between Water & Woodfin Sts.","Listed","Single",FALSE,45.3,"Architecture; Community Planning And Development; Black; Social History","District",NA,FALSE,FALSE,FALSE,TRUE,FALSE,2012-12-19,NA,NA,"Hot Springs","12001055","Whittington Park","Whittington Park Historic District, Garland, Arkansas",34.515898,-93.0740948
"56","03000646",NA,"Paragould Downtown Commercial Historic District","Arkansas","Greene","Paragould","Roughly bounded by 3rd Ave., Kingshighway, 3 1/2 St., and W. Highland St.","Listed","Single",FALSE,40,"Community Planning And Development; Architecture","District",NA,FALSE,FALSE,FALSE,TRUE,FALSE,2003-07-18,NA,NA,NA,"03000646","Paragould Downtown Commercial","Paragould Downtown Commercial Historic District, Greene, Arkansas",36.0526594,-90.5052079
"57","04001031",NA,"Dooley's Ferry Fortifications Historic District","Arkansas","Hempstead","Spring Hill","Address Restricted","Listed","Single",TRUE,24,"Military","District",NA,FALSE,FALSE,TRUE,FALSE,FALSE,2004-09-22,NA,"HE0802; HE0803; HE0805; HE0806",NA,"04001031","Dooley's Ferry Fortifications","Dooley's Ferry Fortifications Historic District, Hempstead, Arkansas",33.7353,-93.66844
"58","95000904",NA,"North Elm Street Historic District","Arkansas","Hempstead","Hope","Roughly bounded by the Union Pacific RR tracks, Hervey St., G Ave. and Hazel St.","Listed","Single",FALSE,85,"Architecture","District",NA,FALSE,FALSE,FALSE,TRUE,FALSE,1995-07-28,NA,"See Also:Foster House;Ward-Jackson House;Bill Clinton Birthp",NA,"95000904","North Elm Street","North Elm Street Historic District, Hempstead, Arkansas",33.727822068166,-93.475588117076
"59","95000903",NA,"North Washington Street Historic District","Arkansas","Hempstead","Hope","Along N. Washington St., between B and E Sts., E side","Listed","Single",FALSE,5,"Architecture","District",NA,FALSE,FALSE,FALSE,TRUE,FALSE,1995-07-28,NA,NA,NA,"95000903","North Washington Street","North Washington Street Historic District, Hempstead, Arkansas",33.77580150501,-93.686680516255
"60","99000230",NA,"Southwestern Proving Ground Airport Historic District","Arkansas","Hempstead","Hope","Hope Municipal Airport, Airport Rd.","Listed","Single",FALSE,40,"Military","District",NA,FALSE,TRUE,FALSE,FALSE,FALSE,1999-06-10,NA,"HE0783",NA,"99000230","Southwestern Proving Ground Airport","Southwestern Proving Ground Airport Historic District, Hempstead, Arkansas",33.72278,-93.65139
"61","08000437",NA,"Southwestern Proving Ground Officers Quarters Historic District","Arkansas","Hempstead","Oakhaven","359-383 Oakhaven","Listed","Single",FALSE,70,"Military","District",NA,FALSE,FALSE,TRUE,FALSE,FALSE,2008-07-08,NA,"Sites #HE0192, HE0384, HE0721-HE737, HE850; Oakhaven Historic District",NA,"08000437","Southwestern Proving Ground Officers Quarters","Southwestern Proving Ground Officers Quarters Historic District, Hempstead, Arkansas",33.7353,-93.66844
"62","72000204",NA,"Washington Historic District","Arkansas","Hempstead","Washington","Boundaries correspond to original 1824 plat of city","Listed","Single",FALSE,640,"Commerce; Military; Architecture","District",NA,FALSE,TRUE,FALSE,FALSE,FALSE,1972-06-20,NA,NA,NA,"72000204","Washington","Washington Historic District, Hempstead, Arkansas",33.77484,-93.68296
"63","01000487",NA,"Couchwood Historic District","Arkansas","Hot Spring","Hot Springs","601 Couchwood Rd.","Listed","Single",FALSE,17,"Architecture; Entertainment/Recreation; Landscape Architecture; Agriculture; Transportation","District",NA,FALSE,FALSE,TRUE,FALSE,FALSE,2001-05-17,NA,NA,NA,"01000487","Couchwood","Couchwood Historic District, Hot Spring, Arkansas",34.449105387487,-92.919256806601
"64","15000625",NA,"Lawyers' Row Historic District","Arkansas","Hot Spring","Malvern","118, 120, 130, 132 W. 2nd St.","Listed","Single",FALSE,1.2,"Law","District",NA,FALSE,FALSE,FALSE,TRUE,FALSE,2015-09-28,NA,NA,NA,"15000625","Lawyers' Row","Lawyers' Row Historic District, Hot Spring, Arkansas",34.51564,-93.05379
"65","15000626",NA,"Malvern Commercial Historic District","Arkansas","Hot Spring","Malvern","Bounded by W. 1st., S. Main, W. 5th & Locust Sts.","Listed","Single",FALSE,10,"Commerce","District",NA,FALSE,FALSE,FALSE,TRUE,FALSE,2015-09-28,NA,NA,NA,"15000626","Malvern Commercial","Malvern Commercial Historic District, Hot Spring, Arkansas",34.362369,-92.812347
"66","99000154",NA,"Pine Bluff Street Historic District","Arkansas","Hot Spring","Malvern","Pine Bluff St., roughly from Bois D'Arc to McNeal St.","Listed","Single",FALSE,10,"Architecture","Building",NA,FALSE,FALSE,FALSE,TRUE,FALSE,1999-02-16,NA,NA,NA,"99000154","Pine Bluff Street","Pine Bluff Street Historic District, Hot Spring, Arkansas",34.529419613292,-93.05805560083
"67","10000784",NA,"Nashville Commercial Historic District","Arkansas","Howard","Nashville","Bounded roughly by Shepherd St., Missouri Pacific Railroad, Hempstead St. and Second St.","Listed","Single",FALSE,9,"Commerce","District",NA,FALSE,FALSE,FALSE,TRUE,FALSE,2010-09-23,NA,NA,NA,"10000784","Nashville Commercial","Nashville Commercial Historic District, Howard, Arkansas",33.948285,-93.847009
"68","82000834","AD","Batesville Commercial Historic District","Arkansas","Independence","Batesville","Main and Central Sts.","Listed","Add.doc.",FALSE,4,"Commerce; Architecture","District",NA,FALSE,FALSE,FALSE,TRUE,FALSE,1982-10-07,NA,"See Also:Batesville Commercial Historic District (Boundary I",NA,"82000834","Batesville Commercial","Batesville Commercial Historic District, Independence, Arkansas",35.77008,-91.65431
"69","100003328","BC","Batesville Commercial Historic District (Boundary Increase Iii)","Arkansas","Independence","Batesville","Roughly Main between State & 5th Sts., Broad between Main & Boswell Sts., Central Ave. between College Ave. & RR.","Listed","Boundary",FALSE,15,"Commerce; Architecture; Politics/Government; Entertainment/Recreation","District",NA,FALSE,FALSE,FALSE,TRUE,FALSE,2019-01-24,NA,"Site #FN0439",NA,"82000834","Batesville Commercial (Boundary Increase Iii)","Batesville Commercial Historic District (Boundary Increase Iii), Independence, Arkansas",35.77008,-91.65431
"70","90001097",NA,"Batesville Commercial Historic District (Boundary Increase)","Arkansas","Independence","Batesville","Main St. from N of Central to 1 block N of Church","Listed","Single",FALSE,5,"Commerce; Architecture","District",NA,FALSE,FALSE,FALSE,TRUE,FALSE,1990-10-05,NA,"See Also:Batesville Commercial Historic District",NA,"90001097","Batesville Commercial (Boundary Increase)","Batesville Commercial Historic District (Boundary Increase), Independence, Arkansas",35.77008,-91.65431
"71","83003546",NA,"Batesville East Main Historic District","Arkansas","Independence","Batesville","Main St. between 7th and 11th Sts.","Listed","Single",FALSE,4,"Commerce; Architecture","District",NA,FALSE,FALSE,FALSE,TRUE,FALSE,1983-12-22,NA,NA,NA,"83003546","Batesville East Main","Batesville East Main Historic District, Independence, Arkansas",35.7748,-91.64597
"72","96001520",NA,"Batesville East Main Historic District (Boundary Increase)","Arkansas","Independence","Batesville","1011, 1041, 1063, and 1087 College Ave.","Listed","Single",FALSE,0.9,"Architecture","District",NA,FALSE,FALSE,FALSE,TRUE,FALSE,1996-12-27,NA,NA,NA,"96001520","Batesville East Main (Boundary Increase)","Batesville East Main Historic District (Boundary Increase), Independence, Arkansas",35.7748,-91.64597
"73","06001315",NA,"School Addition Historic District","Arkansas","Independence","Batesville","560-770 Water, 210-293 N. 7th, 709-897 Rock, 215-280 N. 8th","Listed","Single",FALSE,10,"Architecture; Community Planning And Development","District",NA,FALSE,FALSE,FALSE,TRUE,FALSE,2007-02-01,NA,"Sites #IN0245-IN0252; IN0437; IN0662-IN0679",NA,"06001315","School Addition","School Addition Historic District, Independence, Arkansas",36.3125678,-92.4898837
"74","85003499",NA,"Calico Rock Historic District","Arkansas","Izard","Calico Rock","Roughly bounded by Main, Rodman, and Walnut Sts., and Peppersauce Alley","Listed","Single",FALSE,2,"Commerce; Architecture","District",NA,FALSE,FALSE,FALSE,TRUE,FALSE,1985-11-19,NA,"See Also:Calico Rock Historic District (Boundary Increase)",NA,"85003499","Calico Rock","Calico Rock Historic District, Izard, Arkansas",36.11813,-92.14293
"75","88002827",NA,"Calico Rock Historic District (Boundary Increase)","Arkansas","Izard","Calico Rock","W side of Rodman St. at Missouri-Pacific Railroad tracks","Listed","Single",FALSE,2.5,"Commerce; Architecture","Building",NA,FALSE,FALSE,FALSE,TRUE,FALSE,1989-10-26,NA,"See Also:Calico Rock Historic District",NA,"88002827","Calico Rock (Boundary Increase)","Calico Rock Historic District (Boundary Increase), Izard, Arkansas",36.11813,-92.14293
"76","08000487",NA,"Weldon Gin Company Historic District","Arkansas","Jackson","Weldon","NE corner of jct. of Washington St. & AR 17","Listed","Multiple",FALSE,1.8,"Agriculture; Industry","District",NA,FALSE,FALSE,FALSE,TRUE,FALSE,2008-06-04,NA,"Site Number # JA0525",NA,"08000487","Weldon Gin Company","Weldon Gin Company Historic District, Jackson, Arkansas",35.447105,-91.230642
"77","08000438","AD","Pine Bluff Commercial Historic District","Arkansas","Jefferson","Pine Bluff","Roughly bounded by US 65B, Walnut St., 10th Ave. & S. Alabama St.","Listed","Add.doc.",FALSE,45,"Architecture; Commerce","District",NA,FALSE,FALSE,FALSE,TRUE,FALSE,2008-05-20,NA,"JE0141; JE0199; JE0201; JE0203-JE0206; JE0213; JE0215;; JE0288; JE0302; JE0303; JE0305; JE0348; JE0390 ... JE0874",NA,"08000438","Pine Bluff Commercial","Pine Bluff Commercial Historic District, Jefferson, Arkansas",34.226543,-92.009927
"78","80000777",NA,"Pine Bluff Fifth Avenue Historic District","Arkansas","Jefferson","Pine Bluff","5th Ave.","Listed","Single",FALSE,11,"Industry; Commerce; Architecture","District",NA,FALSE,FALSE,FALSE,TRUE,FALSE,1980-10-29,NA,"See Also:Boone-Murphy House;Ferguson House",NA,"80000777","Pine Bluff Fifth Avenue","Pine Bluff Fifth Avenue Historic District, Jefferson, Arkansas",34.221586,-92.002005
"79","100009339","RS","Redfield Commercial Historic District","Arkansas","Jefferson","Redfield","300 and 301 Sheridan Rd.","Listed","Resubmission",FALSE,1.25,"Commerce","District",NA,FALSE,FALSE,FALSE,TRUE,FALSE,2023-11-03,NA,"Sites #JE1338-JE1341",NA,"100009339","Redfield Commercial","Redfield Commercial Historic District, Jefferson, Arkansas",34.444202,-92.185262
"80","14000791",NA,"Redfield School Historic District","Arkansas","Jefferson","Redfield","101 School St.","Listed","Multiple",FALSE,8,"Education; Politics/Government","District",NA,FALSE,FALSE,FALSE,TRUE,FALSE,2014-10-01,NA,"Redfield Middle School; Site #JE0942",NA,"14000791","Redfield School","Redfield School Historic District, Jefferson, Arkansas",34.453046011745,-92.176064020382
"81","08000816",NA,"Clarksville Commercial Historic District","Arkansas","Johnson","Clarksville","Roughly bounded by McConnell St. on the S.; Cherry St. on the N.; Johnson St. on the W.; Spadra Creek on the E.","Listed","Single",FALSE,NA,"Architecture; Commerce; Community Planning And Development; Politics/Government","District",NA,FALSE,FALSE,FALSE,TRUE,FALSE,2009-03-30,NA,NA,NA,"08000816","Clarksville Commercial","Clarksville Commercial Historic District, Johnson, Arkansas",35.4712192,-93.4663503
"82","90001368",NA,"Clover Bend Historic District","Arkansas","Lawrence","Clover Bend","Jct. of AR 228 and Co. Rd. 1220","Listed","Single",FALSE,0.9,"Agriculture; Education; Architecture","District",NA,FALSE,FALSE,FALSE,TRUE,FALSE,1990-09-17,NA,"See Also:Clover Bend High School",NA,"90001368","Clover Bend","Clover Bend Historic District, Lawrence, Arkansas",35.981923,-91.094396
"83","10000286",NA,"Walnut Ridge Commercial Historic District","Arkansas","Lawrence","Walnut Ridge","Roughly bounded by E and W Main, N and S Front Sts, W Vine, and SW Third Sts","Listed","Single",FALSE,20,"Architecture; Commerce","District",NA,FALSE,FALSE,FALSE,TRUE,FALSE,2010-05-28,NA,NA,NA,"10000286","Walnut Ridge Commercial","Walnut Ridge Commercial Historic District, Lawrence, Arkansas",36.069736,-90.957539
"84","00001559",NA,"Marianna Commercial Historic District","Arkansas","Lee","Marianna","Portions of Chestnut, Liberty, East Columbia, Mississippi, Poplar, Main, Court and Church Sts.","Listed","Single",FALSE,26,"Community Planning And Development; Architecture","District",NA,FALSE,FALSE,FALSE,TRUE,FALSE,2001-01-04,NA,"Downtown Marianna",NA,"00001559","Marianna Commercial","Marianna Commercial Historic District, Lee, Arkansas",34.2954174,-91.3344488
"85","99000152",NA,"Star City Commercial Historic District","Arkansas","Lincoln","Star City","Roughly along Jefferson and Bradley Sts.","Listed","Single",FALSE,2.5,"Architecture; Commerce; Social History","District",NA,FALSE,FALSE,TRUE,TRUE,FALSE,1999-02-26,NA,"LI0064",NA,"99000152","Star City Commercial","Star City Commercial Historic District, Lincoln, Arkansas",33.942541,-91.8436
"86","08000439",NA,"Ashdown Commercial Historic District","Arkansas","Little River","Ashdown","Roughly bounded by Keller, E. Main Commerce & N. Constitution Sts.","Listed","Single",FALSE,4.9,"Architecture; Commerce","District",NA,FALSE,FALSE,FALSE,TRUE,FALSE,2008-05-20,NA,"LR0087-LR0131;LR0009;LR0008",NA,"08000439","Ashdown Commercial","Ashdown Commercial Historic District, Little River, Arkansas",36.3329882,-94.1167586
"87","15000994",NA,"Little River County Training School Historic District","Arkansas","Little River","Ashdown","100 W. Hamilton St.","Listed","Single",FALSE,2.7,"Education; Black","District",NA,FALSE,FALSE,FALSE,TRUE,FALSE,2016-01-26,NA,NA,NA,"15000994","Little River County Training School","Little River County Training School Historic District, Little River, Arkansas",33.6687,-94.13325
"88","06000414",NA,"Arkansas Tuberculosis Sanatorium Historic District","Arkansas","Logan","Booneville","East end of AR 116 S","Listed","Single",FALSE,896.2,"Architecture; Health/Medicine","District",NA,FALSE,TRUE,FALSE,FALSE,FALSE,2006-10-05,NA,"Booneville Human Development Center; Sites LO0117-LO0167 and LO0169-LO0194",NA,"06000414","Arkansas Tuberculosis Sanatorium","Arkansas Tuberculosis Sanatorium Historic District, Logan, Arkansas",35.102199,-93.909971
"89","13000351",NA,"Booneville Commercial Historic District","Arkansas","Logan","Booneville","E. side of 100 & 200 blks. of N. Broadway Ave.","Listed","Single",FALSE,0.9,"Commerce","District",NA,FALSE,FALSE,FALSE,TRUE,FALSE,2013-06-04,NA,"Site # LO0315",NA,"13000351","Booneville Commercial","Booneville Commercial Historic District, Logan, Arkansas",35.140198,-93.921841
"90","09000314",NA,"Paris Commercial Historic District","Arkansas","Logan","Paris","roughly bounded by N. Express, Short Mountain, N. First, E. Pine, E. and W. Academy Sts.","Listed","Single",FALSE,13,"Architecture; Commerce","District",NA,FALSE,FALSE,FALSE,TRUE,FALSE,2009-05-12,NA,NA,NA,"09000314","Paris Commercial","Paris Commercial Historic District, Logan, Arkansas",34.2954174,-91.3344488
"91","11000355",NA,"Keo Commercial Historic District","Arkansas","Lonoke","Keo","Main & Fleming Sts., AR 232","Listed","Multiple",FALSE,19,"Architecture; Commerce","District",NA,FALSE,FALSE,FALSE,TRUE,FALSE,2011-06-15,NA,NA,NA,"11000355","Keo Commercial","Keo Commercial Historic District, Lonoke, Arkansas",34.2954174,-91.3344488
"92","96000528",NA,"Lonoke Downtown Historic District","Arkansas","Lonoke","Lonoke","Jct. of Front and Center Sts.","Listed","Single",FALSE,21.5,"Architecture","District",NA,FALSE,FALSE,FALSE,TRUE,FALSE,1996-05-10,NA,"See Also:Eagle,Joe P.,Building;Boone,D. R.,Building;Lonoke C",NA,"96000528","Lonoke Downtown","Lonoke Downtown Historic District, Lonoke, Arkansas",34.786083,-91.90004
"93","08000705",NA,"Huntsville Commercial Historic District","Arkansas","Madison","Huntsville","Roughly bounded by War Eagle, Hughes, Church, and Harris St.","Listed","Single",FALSE,7.3,"Architecture; Commerce; Community Planning And Development","District",NA,FALSE,FALSE,FALSE,TRUE,FALSE,2008-07-24,NA,NA,NA,"08000705","Huntsville Commercial","Huntsville Commercial Historic District, Madison, Arkansas",36.087742,-93.735399
"94","87000105",NA,"Rush Historic District","Arkansas","Marion","Yellville","Rush Rd.","Listed","Single",FALSE,1316,"Industry; Commerce; Economics; Engineering; Transportation; Architecture","District",NA,FALSE,FALSE,TRUE,FALSE,FALSE,1987-02-27,NA,NA,"Buffalo National River","87000105","Rush","Rush Historic District, Marion, Arkansas",36.1260623,-92.6555817
"95","09001254",NA,"Beech Street Historic District","Arkansas","Miller","Texarkana","Roughly Beech St. between 14th and 23rd Sts.","Listed","Single",FALSE,31.7,"Community Planning And Development; Architecture","District",NA,FALSE,FALSE,FALSE,TRUE,FALSE,2010-01-20,NA,"MI0024-MI0031;MI0070; MI0238;MI0244-MI0317",NA,"09001254","Beech Street","Beech Street Historic District, Miller, Arkansas",34.52982,-90.59316
"96","04001045",NA,"Buhrman-Pharr Hardware Company Historic District","Arkansas","Miller","Texarkana","610 and 620 E 3rd St.","Listed","Single",FALSE,1,"Commerce; Architecture","District",NA,FALSE,FALSE,FALSE,TRUE,FALSE,2004-09-24,NA,"Site #MI0141",NA,"04001045","Buhrman-Pharr Hardware Company","Buhrman-Pharr Hardware Company Historic District, Miller, Arkansas",36.416465,-94.264375
"97","08000729",NA,"East Broad Street Historic District","Arkansas","Miller","Texarkana","100 block E. Broad St.","Listed","Multiple",FALSE,0.9,"Architecture; Commerce; Community Planning And Development","District",NA,FALSE,FALSE,FALSE,TRUE,FALSE,2008-08-01,NA,NA,NA,"08000729","East Broad Street","East Broad Street Historic District, Miller, Arkansas",33.424699684397,-94.035904188859
"98","15000628",NA,"Blytheville Air Force Base Capehart Housing Historic District","Arkansas","Mississippi","Blytheville","Roughly bounded by Village Ave., Northside, Cypress Dr., Hemlock, Westminster, Apricot, Azalea & Pigeon Sts.","Listed","Single",FALSE,227,"Architecture; Community Planning And Development","District",NA,FALSE,FALSE,FALSE,TRUE,FALSE,2015-09-28,NA,"Eaker Air Force Base Capehart Housing Historic District",NA,"15000628","Blytheville Air Force Base Capehart Housing","Blytheville Air Force Base Capehart Housing Historic District, Mississippi, Arkansas",35.7639,-90.05417
"99","100001999","SG","Blytheville Air Force Base Strategic Air Command (Sac) Alert And Weapons Storage Areas Historic District","Arkansas","Mississippi","Blytheville","4701 Memorial Drive","Listed","Single",FALSE,247,"Architecture; Military; Politics/Government","District",NA,FALSE,TRUE,FALSE,FALSE,FALSE,2018-01-26,NA,NA,NA,"100001999","Blytheville Air Force Base Strategic Air Command (Sac) Alert And Weapons Storage Areas","Blytheville Air Force Base Strategic Air Command (Sac) Alert And Weapons Storage Areas Historic District, Mississippi, Arkansas",35.7639,-90.05417
"100","06000421",NA,"Blytheville Commercial Historic District","Arkansas","Mississippi","Blytheville","Main St. bet. 5th and Franklin Sts., Ash St. bet. 5th and 2nd Sts.","Listed","Single",FALSE,25,"Architecture; Commerce","District",NA,FALSE,FALSE,FALSE,TRUE,FALSE,2006-05-24,NA,"MS002-MS0015; MS0017-MS0022; MS0024-MS0028; MS0030-MS0037; MS0039-MS0046; MS0066-MS0067; MS0069-MS0070; MS0073-MS0074",NA,"06000421","Blytheville Commercial","Blytheville Commercial Historic District, Mississippi, Arkansas",35.929492,-89.8781026
