ref_number,prefix,property_name,state,county,city,street_number,status,request_type,restricted_address,acreage_of_property,area_of_significance,category_of_property,external_link,level_of_significance_international,level_of_significance_national,level_of_significance_state,level_of_significance_local,level_of_significance_not_indicated,listed_date,nhl_designated_date,other_names,park_name,property_id,district_name,address,latitude,longitude
84000596,NA,Daniel Pratt Historic District,Alabama,Autauga,Prattville,"Roughly bounded by Northington Rd., 1st, 6th, Bridge, and Court Sts.",Listed,Single,FALSE,140,Industry; Architecture; Social History,District,https://catalog.archives.gov/id/77835702,FALSE,FALSE,TRUE,FALSE,FALSE,1984-08-30,NA,NA,NA,84000596,Daniel Pratt,"Daniel Pratt Historic District, Autauga, Alabama",32.46125,-86.47275
88000107,NA,Battles Wharf Historic District,Alabama,Baldwin,Battles Wharf,"US 98, Eastern Shore Blvd. roughly between Woolworth Ave. and Buerger La.",Listed,Single,FALSE,34,Entertainment/Recreation; Architecture,District,https://catalog.archives.gov/id/77835727,FALSE,FALSE,FALSE,TRUE,FALSE,1988-04-28,NA,NA,NA,88000107,Battles Wharf,"Battles Wharf Historic District, Baldwin, Alabama",30.49366,-87.92734
88000520,NA,Brodbeck-Zundel Historic District,Alabama,Baldwin,Point Clear,US 98 Scenic Route and Old Marlow Rd.,Listed,Single,FALSE,4.6,Architecture,District,https://catalog.archives.gov/id/77835719,FALSE,FALSE,FALSE,TRUE,FALSE,1988-04-28,NA,NA,NA,88000520,Brodbeck-Zundel,"Brodbeck-Zundel Historic District, Baldwin, Alabama",30.47421,-87.91886
04000115,AD,Fairhope Downtown Historic District,Alabama,Baldwin,Fairhope,"Roughly bounded by Equality St., Fairhope Ave., Morphy Ave., School St., Summit St.",Listed,Add.doc.,FALSE,100,Social History; Architecture,District,NA,FALSE,TRUE,FALSE,FALSE,FALSE,2006-03-16,NA,NA,NA,04000115,Fairhope Downtown,"Fairhope Downtown Historic District, Baldwin, Alabama",30.52242,-87.90298
04001496,AD,Foley Downtown Historic District,Alabama,Baldwin,Foley,"Parts of Alston, N & S McKenzie, AL 98, E & W Laurel, Myrtle, Rose, and W. Orange",Listed,Add.doc.,FALSE,230.6,Commerce; Architecture,District,NA,FALSE,FALSE,FALSE,TRUE,FALSE,2005-01-19,NA,NA,NA,04001496,Foley Downtown,"Foley Downtown Historic District, Baldwin, Alabama",30.40643,-87.68381
12000316,NA,Foley Downtown Historic District (Boundary Decrease),Alabama,Baldwin,Foley,"Parts of Alston, McKenzie, N. & S. Laurel & W. Orange Sts.",Listed,Single,FALSE,19.4,Commerce; Architecture,District,https://catalog.archives.gov/id/77835735,FALSE,FALSE,FALSE,TRUE,FALSE,2012-06-04,NA,NA,NA,12000316,Foley Downtown (Boundary Decrease),"Foley Downtown Historic District (Boundary Decrease), Baldwin, Alabama",30.40643,-87.68381
100003122,RS,Foley Downtown Historic District (Boundary Increase),Alabama,Baldwin,Foley,"Parts of N&S Alston, N & S McKenzie, Laurel & Pine Sts., W Myrtle, E  & W Rose, W. Orange &  W Jessamine Aves.",Listed,Resubmission,FALSE,104,Commerce; Architecture,District,NA,FALSE,FALSE,FALSE,TRUE,FALSE,2019-09-20,NA,NA,NA,04001496,Foley Downtown (Boundary Increase),"Foley Downtown Historic District (Boundary Increase), Baldwin, Alabama",30.40643,-87.68381
11001046,NA,Magnolia Springs Historic District,Alabama,Baldwin,Magnolia Springs,"Roughly along Oak, Spring, Bay, Jessamine, Magnolia, Pine & Rock Sts., Island, Cedar & Holly Aves. & Magnolia Spgs. Hyw.",Listed,Single,FALSE,163,Entertainment/Recreation,District,https://catalog.archives.gov/id/77835740,FALSE,FALSE,FALSE,TRUE,FALSE,2012-01-27,NA,NA,NA,11001046,Magnolia Springs,"Magnolia Springs Historic District, Baldwin, Alabama",30.39943,-87.77623
76000310,NA,Montrose Historic District,Alabama,Baldwin,Montrose,Main (AL 42) and 2nd Sts.,Listed,Single,FALSE,79,Architecture,District,https://catalog.archives.gov/id/77835717,FALSE,FALSE,TRUE,FALSE,FALSE,1976-06-03,NA,See Also:Creole and Gulf Coast Cottages in Baldwin County TR,NA,76000310,Montrose,"Montrose Historic District, Baldwin, Alabama",30.5687,-87.90058
88000515,NA,Point Clear Historic District,Alabama,Baldwin,Point Clear,W side of US 98/Eastern Shore Blvd.,Listed,Single,FALSE,68,Entertainment/Recreation; Architecture,District,https://catalog.archives.gov/id/77835725,FALSE,FALSE,FALSE,TRUE,FALSE,1988-04-28,NA,NA,NA,88000515,Point Clear,"Point Clear Historic District, Baldwin, Alabama",30.48026,-87.92749
88001009,NA,White Avenue Historic District,Alabama,Baldwin,Fairhope,White Ave.,Listed,Multiple,FALSE,5,Economics; Entertainment/Recreation; Exploration/Settlement; Architecture; Philosophy,District,https://catalog.archives.gov/id/77834823,FALSE,FALSE,FALSE,TRUE,FALSE,1988-07-01,NA,NA,NA,88001009,White Avenue,"White Avenue Historic District, Baldwin, Alabama",30.51717,-87.903
73000330,NA,Lore Historic District,Alabama,Barbour,Eufaula,"Bounded by Eufaula Ave., and Browder, Livingston, and Barbour Sts.",Listed,Single,FALSE,395,Commerce; Politics/Government; Architecture,District,https://catalog.archives.gov/id/77835781,FALSE,FALSE,TRUE,FALSE,FALSE,1973-12-12,NA,See Also:82001990;71000093;72000156;72000154;71000095;720001,NA,73000330,Lore,"Lore Historic District, Barbour, Alabama",31.89614,-85.14241
86001534,AD,"Lore, Seth And Irwinton Historic District (Boundary Increase)",Alabama,Barbour,Eufaula,"Roughly bounded by Browder St., Van Buren Ave., Washington St., and Sanford Ave.",Listed,Add.doc.,FALSE,205,Industry; Commerce; Politics/Government; Architecture,District,https://catalog.archives.gov/id/77835779,FALSE,FALSE,TRUE,FALSE,FALSE,1986-08-14,NA,See Also:71000093;71000095;72000154;72000156;73000330;820019,NA,86001534,"Lore, Seth And Irwinton (Boundary Increase)","Lore, Seth And Irwinton Historic District (Boundary Increase), Barbour, Alabama",31.89614,-85.14241
78000482,NA,Centreville Historic District,Alabama,Bibb,Centreville,"Walnut St., East and West Court Sq.",Listed,Single,FALSE,7.5,Commerce; Politics/Government; Architecture,District,https://catalog.archives.gov/id/77835799,FALSE,FALSE,TRUE,FALSE,FALSE,1978-10-19,NA,NA,NA,78000482,Centreville,"Centreville Historic District, Bibb, Alabama",32.94523,-87.13553
76000312,NA,Bullock County Courthouse Historic District,Alabama,Bullock,Union Springs,N. Prairie St.,Listed,Single,FALSE,25.1,Economics; Politics/Government,District,https://catalog.archives.gov/id/77835813,FALSE,FALSE,TRUE,FALSE,FALSE,1976-10-08,NA,NA,NA,76000312,Bullock County Courthouse,"Bullock County Courthouse Historic District, Bullock, Alabama",32.14532,-85.71608
86001967,NA,Commerce Street Residential Historic District,Alabama,Butler,Greenville,"206, 212, 218, 301 E. Commerce St.",Listed,Multiple,FALSE,1.8,Industry; Commerce; Health/Medicine; Politics/Government; Architecture,District,https://catalog.archives.gov/id/77834897,FALSE,FALSE,FALSE,TRUE,FALSE,1986-08-28,NA,NA,NA,86001967,Commerce Street Residential,"Commerce Street Residential Historic District, Butler, Alabama",31.8296,-86.62136
86001966,NA,East Commerce Street Historic District,Alabama,Butler,Greenville,"Roughly bounded by Cedar, Chestnut, Commerce, and Hickory Sts.",Listed,Multiple,FALSE,4.5,Politics/Government; Architecture,District,https://catalog.archives.gov/id/77834909,FALSE,FALSE,FALSE,TRUE,FALSE,1986-11-04,NA,NA,NA,86001966,East Commerce Street,"East Commerce Street Historic District, Butler, Alabama",31.8296,-86.61886
86001974,NA,Fort Dale-College Street Historic District,Alabama,Butler,Greenville,"Roughly bounded by Ft. Dale, Hamilton, and N. College Sts.",Listed,Multiple,FALSE,32.5,Commerce; Health/Medicine; Education; Politics/Government; Architecture,District,https://catalog.archives.gov/id/77834905,FALSE,FALSE,FALSE,TRUE,FALSE,1986-08-28,NA,NA,NA,86001974,Fort Dale-College Street,"Fort Dale-College Street Historic District, Butler, Alabama",31.83487,-86.63053
86001971,NA,King Street Historic District,Alabama,Butler,Greenville,"Roughly bounded by W. Commerce, Oliver, Milner, and King Sts.",Listed,Multiple,FALSE,4,Architecture,District,https://catalog.archives.gov/id/77834859,FALSE,FALSE,FALSE,TRUE,FALSE,1986-08-28,NA,NA,NA,86001971,King Street,"King Street Historic District, Butler, Alabama",31.82876,-86.6297
86001968,NA,Post Office Historic District,Alabama,Butler,Greenville,100--115 W. Commerce and 101 E. Commerce Sts.,Listed,Multiple,FALSE,2.5,Commerce; Entertainment/Recreation; Architecture; Communications,District,https://catalog.archives.gov/id/77834895,FALSE,FALSE,FALSE,TRUE,FALSE,1986-11-04,NA,NA,NA,86001968,Post Office,"Post Office Historic District, Butler, Alabama",31.8296,-86.62414
86001965,NA,South Greenville Historic District,Alabama,Butler,Greenville,"Roughly bounded by Walnut, S. Conecuh, Parmer, and Church and Harrison and Caldwell Sts.",Listed,Multiple,FALSE,80,Commerce; Transportation; Politics/Government; Architecture,District,https://catalog.archives.gov/id/77834899,FALSE,FALSE,FALSE,TRUE,FALSE,1986-08-28,NA,NA,NA,86001965,South Greenville,"South Greenville Historic District, Butler, Alabama",31.82599,-86.62136
86001972,NA,South Street Historic District,Alabama,Butler,Greenville,"Roughly bounded by South, Oliver, and McKenzie Sts.",Listed,Multiple,FALSE,5.5,Architecture,District,https://catalog.archives.gov/id/77834857,FALSE,FALSE,FALSE,TRUE,FALSE,1986-08-28,NA,NA,NA,86001972,South Street,"South Street Historic District, Butler, Alabama",31.83126,-86.6297
86001970,NA,West Commerce Street Historic District,Alabama,Butler,Greenville,"Roughly bounded by W. Commerce, Bolling, and Milner Sts., and L & N RR",Listed,Multiple,FALSE,2,Commerce; Transportation; Architecture,District,https://catalog.archives.gov/id/77834903,FALSE,FALSE,FALSE,TRUE,FALSE,1986-08-28,NA,NA,NA,86001970,West Commerce Street,"West Commerce Street Historic District, Butler, Alabama",31.8293,-86.6283
91000663,NA,Downtown Anniston Historic District,Alabama,Calhoun,Anniston,"Roughly bounded by Moore Ave., 14th St., Wilmer Ave. and 9th St.",Listed,Multiple,FALSE,36.5,Community Planning And Development; Commerce; Architecture,District,https://catalog.archives.gov/id/77834951,FALSE,FALSE,FALSE,TRUE,FALSE,1991-05-30,NA,See Also:80000681;85002889;85002873;85002866;85002878;850028,NA,91000663,Downtown Anniston,"Downtown Anniston Historic District, Calhoun, Alabama",33.65846,-85.83058
91000663,RS,Downtown Anniston Historic District (Additional Documentation),Alabama,Calhoun,Anniston,"Roughly bounded by Moore Ave., 14th St., Wilmer Ave. and 9th St.",Listed,Resubmission,FALSE,85,Community Planning And Development; Commerce; Architecture; Ethnic Heritage-Black; Social History,District,https://catalog.archives.gov/id/77834951,FALSE,FALSE,FALSE,TRUE,FALSE,1991-05-30,NA,NA,NA,91000663,Downtown Anniston (Additional Documentation),"Downtown Anniston Historic District (Additional Documentation), Calhoun, Alabama",33.65846,-85.83058
100009122,RS,Downtown Anniston Historic District (Boundary Increase Ii/Decrease),Alabama,Calhoun,Anniston,"20, 101, 227 14th St. West, 130, 216, 230 15th St. West",Listed,Resubmission,FALSE,85,Community Planning And Development; Commerce; Architecture; Ethnic Heritage-Black; Social History,District,https://catalog.archives.gov/id/77834951,FALSE,FALSE,FALSE,TRUE,FALSE,2024-11-14,NA,NA,NA,91000663,Downtown Anniston (Boundary Increase Ii/Decrease),"Downtown Anniston Historic District (Boundary Increase Ii/Decrease), Calhoun, Alabama",33.65846,-85.83058
10000270,NA,Downtown Anniston Historic District (Boundary Increase),Alabama,Calhoun,Anniston,"Bounded by Wilmer & Walnut Aves., W. 9th & 14th Sts.",Listed,Single,FALSE,66,Community Planning And Development; Commerce; Black; Architecture,District,https://catalog.archives.gov/id/77835857,FALSE,TRUE,FALSE,FALSE,FALSE,2010-05-24,NA,NA,NA,10000270,Downtown Anniston (Boundary Increase),"Downtown Anniston Historic District (Boundary Increase), Calhoun, Alabama",33.65846,-85.83058
86001044,NA,Downtown Jacksonville Historic District,Alabama,Calhoun,Jacksonville,"Roughly bounded by College, Thomas, Coffee, and Spring Sts.",Listed,Single,FALSE,33,Education; Exploration/Settlement; Politics/Government; Architecture,District,https://catalog.archives.gov/id/77835835,FALSE,FALSE,FALSE,TRUE,FALSE,1986-05-13,NA,"See Also:Francis, Dr. J. C., Office",NA,86001044,Downtown Jacksonville,"Downtown Jacksonville Historic District, Calhoun, Alabama",33.81393,-85.76131
93000418,NA,East Anniston Residential Historic District,Alabama,Calhoun,Anniston,"Roughly, along Leighton and Christine Aves. from 11th St. to 22nd Sts. and Woodstock Ave. from 11th St. to Rocky Hollow",Listed,Multiple,FALSE,137,Community Planning And Development; Architecture,District,https://catalog.archives.gov/id/77834953,FALSE,FALSE,FALSE,TRUE,FALSE,1993-05-28,NA,See Also:Crowan Cottage;Kilby House;Saint Paul's Methodist E,NA,93000418,East Anniston Residential,"East Anniston Residential Historic District, Calhoun, Alabama",33.66373,-85.82425
06000981,NA,Fort Mcclellan Ammunition Storage Historic District,Alabama,Calhoun,Anniston,Pappy Dunn Blvd.,Listed,Single,FALSE,27,Military; Community Planning And Development; Architecture,District,https://catalog.archives.gov/id/77835869,FALSE,FALSE,FALSE,TRUE,FALSE,2006-11-08,NA,NA,NA,06000981,Fort Mcclellan Ammunition Storage,"Fort Mcclellan Ammunition Storage Historic District, Calhoun, Alabama",33.72204,-85.78127
06000982,NA,Fort Mcclellan Industrial Historic District,Alabama,Calhoun,Anniston,"Jimmy Parks Blvd., Transportation Rd., Idaho Ave.",Listed,Single,FALSE,52,Military; Community Planning And Development; Architecture,District,https://catalog.archives.gov/id/77835873,FALSE,FALSE,FALSE,TRUE,FALSE,2006-11-08,NA,Warehouse Area,NA,06000982,Fort Mcclellan Industrial,"Fort Mcclellan Industrial Historic District, Calhoun, Alabama",33.71771,-85.79007
06000983,NA,Fort Mcclellan Post Headquarters Historic District,Alabama,Calhoun,Anniston,"Buckner Circle, Headquarters Ave., Drennan Dr.",Listed,Single,FALSE,66,Military; Community Planning And Development; Architecture,District,https://catalog.archives.gov/id/77835867,FALSE,FALSE,FALSE,TRUE,FALSE,2006-11-08,NA,NA,NA,06000983,Fort Mcclellan Post Headquarters,"Fort Mcclellan Post Headquarters Historic District, Calhoun, Alabama",33.71645,-85.79696
85002867,NA,Glenwood Terrace Residential Historic District,Alabama,Calhoun,Anniston,"Roughly bounded by Oak St., Jefferson Ave., lots on S side of Glenwood Terr. & N side of Orchard St., and Highland Ave.",Listed,Multiple,FALSE,8,Architecture,District,https://catalog.archives.gov/id/77834925,FALSE,FALSE,TRUE,FALSE,FALSE,1985-10-03,NA,NA,NA,85002867,Glenwood Terrace Residential,"Glenwood Terrace Residential Historic District, Calhoun, Alabama",33.65452,-85.81703
06000436,NA,Profile Cotton Mills Historic District,Alabama,Calhoun,Jacksonville,"Alexandria St., A St., H St., and D St.",Listed,Single,FALSE,60,Industry; Social History,District,https://catalog.archives.gov/id/77835865,FALSE,FALSE,FALSE,TRUE,FALSE,2006-05-31,NA,Ide Cotton Mills,NA,06000436,Profile Cotton Mills,"Profile Cotton Mills Historic District, Calhoun, Alabama",33.81118,-85.76968
85002888,NA,Tyler Hill Residential Historic District,Alabama,Calhoun,Anniston,"Roughly bounded by E. Seventh, Knox and Goodwin and Lapsley Aves., E. Sixth St., and Leighton Ave.",Listed,Multiple,FALSE,12.5,Architecture,District,https://catalog.archives.gov/id/77834939,FALSE,FALSE,TRUE,FALSE,FALSE,1985-10-03,NA,See Also:Parker-Reynolds House,NA,85002888,Tyler Hill Residential,"Tyler Hill Residential Historic District, Calhoun, Alabama",33.65232,-85.82337
91000662,NA,West Fifteenth Street Historic District,Alabama,Calhoun,Anniston,416--712 W. Fifteenth St.,Listed,Single,FALSE,5.7,Community Planning And Development; Commerce; Black; Architecture,District,https://catalog.archives.gov/id/77835861,FALSE,FALSE,FALSE,TRUE,FALSE,1991-05-30,NA,NA,NA,91000662,West Fifteenth Street,"West Fifteenth Street Historic District, Calhoun, Alabama",33.66368,-85.83733
80000682,NA,Chambers County Courthouse Square Historic District,Alabama,Chambers,Lafayette,"Roughly bounded by Alabama and 2nd Aves., and 1st St.",Listed,Single,FALSE,15,Architecture,District,https://catalog.archives.gov/id/77835882,FALSE,FALSE,TRUE,FALSE,FALSE,1980-03-27,NA,NA,NA,80000682,Chambers County Courthouse Square,"Chambers County Courthouse Square Historic District, Chambers, Alabama",32.89916,-85.40088
99001177,NA,Fairfax Historic District,Alabama,Chambers,Valley,"Roughly bounded by River Rd., Spring St., Lamer St., Derson St., Combs St., and Cussetta Rd.",Listed,Multiple,FALSE,240,Industry; Community Planning And Development; Social History,District,https://catalog.archives.gov/id/77834987,FALSE,FALSE,FALSE,TRUE,FALSE,1999-09-24,NA,NA,NA,99001177,Fairfax,"Fairfax Historic District, Chambers, Alabama",32.79319,-85.18127
99001299,NA,Langdale Historic District,Alabama,Chambers,Valley,"Roughly bounded by 65th St., 20th Ave., 61st, 58th, and 55th Sts., 16th Ave., and Chattahoochie R.",Listed,Multiple,FALSE,NA,Industry; Community Planning And Development; Social History,District,https://catalog.archives.gov/id/77834991,FALSE,FALSE,FALSE,TRUE,FALSE,1999-11-12,NA,NA,NA,99001299,Langdale,"Langdale Historic District, Chambers, Alabama",32.81127,-85.16967
99001300,NA,Riverview Historic District,Alabama,Chambers,Valley,"Roughly bounded by School and G.I. Sts., Chattahoochee R. and along California St.",Listed,Multiple,FALSE,71,Industry; Community Planning And Development; Social History,District,https://catalog.archives.gov/id/77834993,FALSE,FALSE,FALSE,TRUE,FALSE,1999-11-12,NA,NA,NA,99001300,Riverview,"Riverview Historic District, Chambers, Alabama",32.78866,-85.14571
99001176,NA,Shawmut Historic District,Alabama,Chambers,Valley,"Roughly bounded by 25th Blvd., 29th Blvd., 20th Ave., 35th St., and 38th Blvd.",Listed,Multiple,FALSE,201,Industry; Community Planning And Development; Social History,District,https://catalog.archives.gov/id/77834989,FALSE,FALSE,FALSE,TRUE,FALSE,1999-09-24,NA,NA,NA,99001176,Shawmut,"Shawmut Historic District, Chambers, Alabama",32.8403,-85.18334
04000557,NA,Gragg Field Historic District,Alabama,Chilton,Clanton,700 Airport Rd.,Listed,Single,FALSE,2.1,Transportation; Social History; Black,District,https://catalog.archives.gov/id/77835894,FALSE,FALSE,FALSE,TRUE,FALSE,2004-06-02,NA,Gragg-Wade Field Airport,NA,04000557,Gragg Field,"Gragg Field Historic District, Chilton, Alabama",32.84989,-86.61006
98000410,NA,Grove Hill Courthouse Square Historic District,Alabama,Clarke,Grove Hill,"Roughly along Cobb, Court, Jackson, and Main Sts.",Listed,Multiple,FALSE,17,Architecture; Commerce; Community Planning And Development,District,https://catalog.archives.gov/id/77835015,FALSE,FALSE,FALSE,TRUE,FALSE,1998-04-30,NA,NA,NA,98000410,Grove Hill Courthouse Square,"Grove Hill Courthouse Square Historic District, Clarke, Alabama",31.70937,-87.77746
97001656,NA,Jackson Historic District,Alabama,Clarke,Jackson,"Roughly along College, Forest, and Carroll Aves., bounded by Cedar, Florida, Commerce, Clinton, and Spruce Sts.",Listed,Multiple,FALSE,180,Architecture; Commerce; Community Planning And Development,District,https://catalog.archives.gov/id/77835013,FALSE,FALSE,FALSE,TRUE,FALSE,1998-01-23,NA,NA,NA,97001656,Jackson,"Jackson Historic District, Clarke, Alabama",31.51744,-87.89318
99000151,NA,Thomasville Historic District,Alabama,Clarke,Thomasville,"Roughly bounded by AL 43, 1145 W. Front St., Wilson St., and 818 W. Third St.",Listed,Multiple,FALSE,138,Commerce; Community Planning And Development; Architecture,District,https://catalog.archives.gov/id/77835017,FALSE,FALSE,FALSE,TRUE,FALSE,1999-02-12,NA,NA,NA,99000151,Thomasville,"Thomasville Historic District, Clarke, Alabama",31.91372,-87.73804
98000409,NA,Whatley Historic District,Alabama,Clarke,Whatley,"Roughly along Whatley Rd., from Grove Hill to the RR tracks",Listed,Multiple,FALSE,45,Architecture; Community Planning And Development,District,https://catalog.archives.gov/id/77835019,FALSE,FALSE,FALSE,TRUE,FALSE,1998-04-30,NA,NA,NA,98000409,Whatley,"Whatley Historic District, Clarke, Alabama",31.6502,-87.70969
73000338,NA,Colbert County Courthouse Square Historic District,Alabama,Colbert,Tuscumbia,"Roughly bounded by E. and W. 2nd, N. and S. Cave, E. and W. 6th, and N. and S. Indian Sts.",Listed,Single,FALSE,72,Architecture,District,https://catalog.archives.gov/id/77835946,FALSE,FALSE,FALSE,TRUE,FALSE,1973-05-24,NA,See Also:Tuscumbia Historic District,NA,73000338,Colbert County Courthouse Square,"Colbert County Courthouse Square Historic District, Colbert, Alabama",34.7334,-87.70357
84000603,NA,Nitrate Village No. 1 Historic District,Alabama,Colbert,Sheffield,"Roughly bounded by Wilson Dam Circle, Wheeler and Wilson Dam Aves., Fontana, and Pickwick Sts.",Listed,Single,FALSE,75.7,Industry; Community Planning And Development; Architecture,District,https://catalog.archives.gov/id/77835952,FALSE,FALSE,TRUE,FALSE,FALSE,1984-08-30,NA,NA,NA,84000603,Nitrate Village No. 1,"Nitrate Village No. 1 Historic District, Colbert, Alabama",34.74259,-87.72225
10000271,NA,Sheffield Downtown Commercial Historic District,Alabama,Colbert,Sheffield,"1st & 5th Sts., Pittsburgh & Columbia Aves.",Listed,Single,FALSE,47,Commerce; Architecture; Industry; Politics/Government,District,https://catalog.archives.gov/id/77835962,FALSE,FALSE,FALSE,TRUE,FALSE,2010-05-24,NA,NA,NA,10000271,Sheffield Downtown Commercial,"Sheffield Downtown Commercial Historic District, Colbert, Alabama",34.7607777,-87.6996533
02000481,NA,Sheffield Residential Historic District,Alabama,Colbert,Sheffield,"Roughly bounded by Riverside Pk, River Bluff Dr., Wood, Third, Second Sts., 15th Ave., 27th St., and 19th Ave.",Listed,Single,FALSE,160,Community Planning And Development; Architecture,District,https://catalog.archives.gov/id/77835950,FALSE,FALSE,FALSE,TRUE,FALSE,2002-05-16,NA,NA,NA,02000481,Sheffield Residential,"Sheffield Residential Historic District, Colbert, Alabama",34.76593,-87.69641
85001158,NA,Tuscumbia Historic District,Alabama,Colbert,Tuscumbia,"Roughly bounded by N. & E. Commons, Eight St. and Spring Rd., Hooks, W. 5th & S. Milton including Steel Bridge",Listed,Single,FALSE,232,Commerce; Politics/Government; Architecture,District,https://catalog.archives.gov/id/77835948,FALSE,FALSE,FALSE,TRUE,FALSE,1985-05-23,NA,See Also:70000101;73000338;82001603;84000749,NA,85001158,Tuscumbia,"Tuscumbia Historic District, Colbert, Alabama",34.7312,-87.70392
93001542,NA,New Evergreen Commercial Historic District,Alabama,Conecuh,Evergreen,"Roughly bounded by Mill, Cooper, Rural, Court, Liberty, E. Front, Cary and Despious Sts.",Listed,Single,FALSE,12,Commerce; Transportation,District,https://catalog.archives.gov/id/77835974,FALSE,FALSE,FALSE,TRUE,FALSE,1994-01-21,NA,See Also:Louisville and Nashville Depot,NA,93001542,New Evergreen Commercial,"New Evergreen Commercial Historic District, Conecuh, Alabama",31.43314,-86.95541
88003238,AD,Andalusia Commercial Historic District (Additional Documentation),Alabama,Covington,Andalusia,"Court Sq., O'Neal Ct., Central, Church, Coffee, North Cotton, South Cotton, Crescent, Dunson, Historic Central, Pear, East Three Notch, and South Three Notch Sts.",Listed,Add.doc.,FALSE,49.5,Community Planning And Development; Transportation; Architecture; Commerce,District,https://catalog.archives.gov/id/77835990,FALSE,FALSE,FALSE,TRUE,FALSE,1989-01-26,NA,NA,NA,88003238,Andalusia Commercial (Additional Documentation),"Andalusia Commercial Historic District (Additional Documentation), Covington, Alabama",31.30687,-86.48203
100008373,BC,Andalusia Commercial Historic District (Boundary Increase And Decrease),Alabama,Covington,Andalusia,"Court Sq., O'Neal Ct., Central, Church, Coffee, North Cotton, South Cotton, Crescent, Dunson, Historic Central, Pear, East Three Notch, and South Three Notch Sts.",Listed,Boundary,FALSE,49.5,Community Planning And Development; Transportation; Architecture; Commerce; Politics/Government,District,https://catalog.archives.gov/id/77835990,FALSE,FALSE,FALSE,TRUE,FALSE,2022-11-17,NA,NA,NA,88003238,Andalusia Commercial (Boundary Increase And Decrease),"Andalusia Commercial Historic District (Boundary Increase And Decrease), Covington, Alabama",31.30687,-86.48203
10001050,NA,Florala Historic District,Alabama,Covington,Florala,"23216-24310 Fifth Ave, N Fifth St. 519-1189 S Fifth St. 1113-1115 Fourth St, 22510-22664 Wall St",Listed,Single,FALSE,69.5,Commerce; Architecture,District,https://catalog.archives.gov/id/77835996,FALSE,FALSE,FALSE,TRUE,FALSE,2010-12-21,NA,NA,NA,10001050,Florala,"Florala Historic District, Covington, Alabama",31.00509,-86.32766
09000692,NA,J.w. Shreve Addition Historic District,Alabama,Covington,Andalusia,"115-300 6th Ave, 302-425 College St., 403-505 E. Three Notch St.",Listed,Single,FALSE,30,Architecture,District,https://catalog.archives.gov/id/77835986,FALSE,FALSE,FALSE,TRUE,FALSE,2009-09-09,NA,NA,NA,09000692,J.w. Shreve Addition,"J.w. Shreve Addition Historic District, Covington, Alabama",31.31055,-86.47726
01001164,NA,Opp Commercial Historic District,Alabama,Covington,Opp,"Roughly bounded by Covington Ave., Hart, Main, Whaley and College Sts.",Listed,Single,FALSE,160,Architecture; Community Planning And Development; Transportation; Commerce,District,https://catalog.archives.gov/id/77835992,FALSE,FALSE,FALSE,TRUE,FALSE,2001-10-29,NA,NA,NA,01001164,Opp Commercial,"Opp Commercial Historic District, Covington, Alabama",31.28206,-86.25463
04000558,NA,Brantley Historic District,Alabama,Crenshaw,Brantley,"Roughly bounded by Sasser St, Fulton Ave., Peachtree St. and Wyatt, and Central of Georgia RR",Listed,Single,FALSE,48.8,Architecture; Commerce,District,https://catalog.archives.gov/id/77836002,FALSE,FALSE,FALSE,TRUE,FALSE,2004-06-02,NA,NA,NA,04000558,Brantley,"Brantley Historic District, Crenshaw, Alabama",31.58235,-86.25716
04000926,NA,Luverne Historic District,Alabama,Crenshaw,Luverne,"Bounded by 1st, 6th Sts., Legrande, Glenwood, Folmar and Hawkins Aves.",Listed,Single,FALSE,100,Architecture; Commerce,District,https://catalog.archives.gov/id/77836000,FALSE,FALSE,FALSE,TRUE,FALSE,2005-01-14,NA,NA,NA,04000926,Luverne,"Luverne Historic District, Crenshaw, Alabama",31.71557,-86.2638
85000738,NA,Cullman Downtown Commercial Historic District,Alabama,Cullman,Cullman,"Roughly bounded by 4th and 1st Aves., 2nd and 5th Sts. SE",Listed,Single,FALSE,11,Commerce; Transportation; Architecture,District,https://catalog.archives.gov/id/77836012,FALSE,FALSE,FALSE,TRUE,FALSE,1985-04-11,NA,See Also:Stiefelmeyer's,NA,85000738,Cullman Downtown Commercial,"Cullman Downtown Commercial Historic District, Cullman, Alabama",34.17583,-86.83994
84000615,NA,Cullman Historic District,Alabama,Cullman,Cullman,"Roughly bounded by 1st and 8th Aves., 3rd and 9th Sts.",Listed,Single,FALSE,88.5,Transportation; European; Exploration/Settlement; Architecture,District,https://catalog.archives.gov/id/77836014,FALSE,FALSE,TRUE,FALSE,FALSE,1984-08-30,NA,Die Deutsche Kolonie Von Nord Alabama,NA,84000615,Cullman,"Cullman Historic District, Cullman, Alabama",34.1732,-86.8369
78000487,NA,Carlowville Historic District,Alabama,Dallas,Selma,17 Mi. (27 km) S of Selma on AL 89,Listed,Single,FALSE,780,Architecture,District,https://catalog.archives.gov/id/77836044,FALSE,FALSE,TRUE,FALSE,FALSE,1978-01-18,NA,NA,NA,78000487,Carlowville,"Carlowville Historic District, Dallas, Alabama",32.08741,-87.03378
90000886,NA,Icehouse Historic District,Alabama,Dallas,Selma,"Roughly bounded by Jefferson Davis and Dallas Aves., Union and Lapsley Sts., and Valley Cr.",Listed,Single,FALSE,116,Community Planning And Development; Architecture,District,https://catalog.archives.gov/id/77836054,FALSE,FALSE,FALSE,TRUE,FALSE,1990-06-28,NA,NA,NA,90000886,Icehouse,"Icehouse Historic District, Dallas, Alabama",32.40986,-87.03138
78000486,NA,Old Town Historic District,Alabama,Dallas,Selma,"Roughly bounded by the Alabama River, Jefferson Davis Ave., Pettus, Broad, and Franklin Sts.",Listed,Single,FALSE,242,Politics/Government; Architecture,District,https://catalog.archives.gov/id/77836062,FALSE,TRUE,FALSE,FALSE,FALSE,1978-05-03,NA,"See Also:Morgan,John Tyler,House;St. Paul's Episcopal Church",NA,78000486,Old Town,"Old Town Historic District, Dallas, Alabama",32.4093,-87.02332
03001137,NA,Old Town Historic District Boundary Increase And Additional Documentation,Alabama,Dallas,Selma,"Jefferson Davis Ave.; area roughly bounded by Broad, Dallal, US 80 and Franlin; Selma Ave.; and Franklin St.",Listed,Single,FALSE,81,Industry; Architecture; Commerce; Politics/Government; Education; Black; Transportation,District,https://catalog.archives.gov/id/77836076,FALSE,FALSE,FALSE,TRUE,FALSE,2003-11-15,NA,NA,NA,03001137,Old Town Boundary Increase And Additional Documentation,"Old Town Historic District Boundary Increase And Additional Documentation, Dallas, Alabama",32.239262,-86.872528
90000887,AD,Riverview Historic District,Alabama,Dallas,Selma,"Roughly bounded by Selma Ave., Satterfield and Lapsley Sts. and the Alabama R.",Listed,Add.doc.,FALSE,86,Community Planning And Development; Architecture,District,NA,FALSE,FALSE,FALSE,TRUE,FALSE,1990-06-28,NA,NA,NA,90000887,Riverview,"Riverview Historic District, Dallas, Alabama",32.40418,-87.03074
100009126,MP,Selma University Historic District,Alabama,Dallas,Selma,1501 Boynton St.,Listed,Multiple,FALSE,13,Social History; Ethnic Heritage-Black; Education,District,NA,FALSE,FALSE,TRUE,TRUE,FALSE,2023-07-14,NA,Alabama Baptist Normal and Theological School; Alabama Baptist Colored University; Selma University,NA,100009126,Selma University,"Selma University Historic District, Dallas, Alabama",33.10432,-86.86455
72000160,NA,Water Avenue Historic District,Alabama,Dallas,Selma,Water Ave.,Listed,Single,FALSE,8.9,Commerce; Architecture,District,NA,FALSE,FALSE,TRUE,FALSE,FALSE,1972-12-26,NA,NA,NA,72000160,Water Avenue,"Water Avenue Historic District, Dallas, Alabama",32.40847,-87.01443
05000650,AD,Water Avenue Historic District (Additional Documentation),Alabama,Dallas,Selma,"Water Ave. bounded by Lauderdale St., MLK Blvd., Beech Creek., Alabama R,",Listed,Add.doc.,FALSE,10,Commerce; Architecture,District,https://catalog.archives.gov/id/77836072,FALSE,FALSE,FALSE,TRUE,FALSE,2005-07-07,NA,NA,NA,05000650,Water Avenue (Additional Documentation),"Water Avenue Historic District (Additional Documentation), Dallas, Alabama",32.40847,-87.01443
100003108,MP,Water Avenue Historic District (Boundary Increase),Alabama,Dallas,Selma,Address Restricted,Listed,Multiple,TRUE,80.5,Commerce; Architecture; Black; Military,District,NA,FALSE,FALSE,TRUE,FALSE,FALSE,2021-06-25,NA,NA,NA,05000650,Water Avenue (Boundary Increase),"Water Avenue Historic District (Boundary Increase), Dallas, Alabama",32.40847,-87.01443
06000181,NA,Collinsville Historic District,Alabama,De Kalb,Collinsville,"Valley Ave., Main St. and Grand Ave.",Listed,Single,FALSE,60,Architecture,District,https://catalog.archives.gov/id/77836084,FALSE,FALSE,FALSE,TRUE,FALSE,2006-03-29,NA,NA,NA,06000181,Collinsville,"Collinsville Historic District, De Kalb, Alabama",34.26359,-85.86022
89000308,NA,Fort Payne Boom Town Historic District,Alabama,De Kalb,Fort Payne,Roughly Gault St. from 4th St. NE. to 6th St. NE.,Listed,Single,FALSE,8,Industry; Architecture,District,https://catalog.archives.gov/id/77836090,FALSE,FALSE,FALSE,TRUE,FALSE,1989-04-21,NA,See Also:Alabama Great Southern Railroad Depo;Fort Payne Ope,NA,89000308,Fort Payne Boom Town,"Fort Payne Boom Town Historic District, De Kalb, Alabama",34.44425,-85.71941
89000307,NA,Fort Payne Main Street Historic District,Alabama,De Kalb,Fort Payne,Roughly Gault Ave. from 2nd St. NE. to 2nd St. NW.,Listed,Single,FALSE,6,Politics/Government; Architecture,District,https://catalog.archives.gov/id/77836094,FALSE,FALSE,FALSE,TRUE,FALSE,1989-04-21,NA,NA,NA,89000307,Fort Payne Main Street,"Fort Payne Main Street Historic District, De Kalb, Alabama",34.44104,-85.7226
88000444,NA,Fort Payne Residential Historic District,Alabama,De Kalb,Fort Payne,"Roughly bounded by Forrest Ave. and Elm St., Fifth St. NW, Grand and Alabama Aves., and Fourth St. SW and Second St. NW",Listed,Single,FALSE,34,Industry; Architecture,District,https://catalog.archives.gov/id/77836092,FALSE,FALSE,FALSE,TRUE,FALSE,1988-05-04,NA,NA,NA,88000444,Fort Payne Residential,"Fort Payne Residential Historic District, De Kalb, Alabama",34.44425,-85.72219
92000055,NA,East Wetumpka Commercial Historic District,Alabama,Elmore,Wetumpka,"Roughly, Company St. from Spring St. to E. Bridge St. and E. Bridge and Commerce Sts. from Main to Hill Sts.",Listed,Single,FALSE,6,Commerce; Architecture,District,https://catalog.archives.gov/id/77836119,FALSE,FALSE,FALSE,TRUE,FALSE,1992-02-20,NA,NA,NA,92000055,East Wetumpka Commercial,"East Wetumpka Commercial Historic District, Elmore, Alabama",32.53743,-86.20515
99000884,NA,East Wetumpka Commercial Historic District (Boundary Increase),Alabama,Elmore,Wetumpka,206 S. East Main St.,Listed,Single,FALSE,0.9,Architecture,District,https://catalog.archives.gov/id/77836117,FALSE,FALSE,FALSE,TRUE,FALSE,1999-07-28,NA,NA,NA,99000884,East Wetumpka Commercial (Boundary Increase),"East Wetumpka Commercial Historic District (Boundary Increase), Elmore, Alabama",32.53743,-86.20515
92000072,NA,Tallassee Commercial Historic District,Alabama,Elmore,Tallassee,"Roughly, 3 blocks on S side Barnett Blvd. between old River Rd. and DuBois St.",Listed,Single,FALSE,6.5,Community Planning And Development; Architecture,District,https://catalog.archives.gov/id/77836121,FALSE,FALSE,FALSE,TRUE,FALSE,1992-03-06,NA,NA,NA,92000072,Tallassee Commercial,"Tallassee Commercial Historic District, Elmore, Alabama",32.53513,-85.89246
100004641,RS,Atmore Commercial Historic District,Alabama,Escambia,Atmore,"Carney, Main, Trammell, Roberts, Presley, E. Church & Ridgeley Sts., Pensacola, Nashville & Louisville Aves.",Listed,Resubmission,FALSE,70.09,Architecture; Commerce; Transportation,District,NA,FALSE,FALSE,FALSE,TRUE,FALSE,2021-06-18,NA,NA,NA,100004641,Atmore Commercial,"Atmore Commercial Historic District, Escambia, Alabama",31.10712,-87.06969
02000484,NA,Alabama City Wall Street Historic District,Alabama,Etowah,Gadsden,"Roughly along Wall St., from Norris Ave. to Meighan Blvd.",Listed,Single,FALSE,10,Architecture; Social History,District,https://catalog.archives.gov/id/77836151,FALSE,FALSE,FALSE,TRUE,FALSE,2002-05-16,NA,NA,NA,02000484,Alabama City Wall Street,"Alabama City Wall Street Historic District, Etowah, Alabama",34.02052,-86.04554
13000893,NA,Attalla Downtown Historic District,Alabama,Etowah,Attalla,"3rd St. N., 4th St. N. & 5th Ave. S.",Listed,Single,FALSE,10.8,Commerce; Architecture,District,NA,FALSE,FALSE,FALSE,TRUE,FALSE,2013-12-11,NA,NA,NA,13000893,Attalla Downtown,"Attalla Downtown Historic District, Etowah, Alabama",34.02284,-86.08929
97001165,NA,Gadsden Downtown Historic District,Alabama,Etowah,Gadsden,"Along Broad St., roughly bounded by Locust, 3rd, S. 5th, Chestnut, and 7th Sts.",Listed,Single,FALSE,43,Architecture; Commerce,District,https://catalog.archives.gov/id/77836147,FALSE,FALSE,FALSE,TRUE,FALSE,1997-09-26,NA,NA,NA,97001165,Gadsden Downtown,"Gadsden Downtown Historic District, Etowah, Alabama",34.01281,-86.00317
05000649,NA,Turrentine Historic District,Alabama,Etowah,Gadsen,300-633 Turrentine Ave.,Listed,Single,FALSE,17,Architecture,District,https://catalog.archives.gov/id/77836141,FALSE,FALSE,FALSE,TRUE,FALSE,2005-07-06,NA,NA,NA,05000649,Turrentine,"Turrentine Historic District, Etowah, Alabama",34.0086,-86.01406
12001020,NA,Fayette County Courthouse Historic District (Boundary Increase),Alabama,Fayette,Fayette,"Temple Ave. N. & S., 1st Ave. E. & W., 2nd St. S., 1st St. N.",Listed,Single,FALSE,17,Architecture; Commerce,District,NA,FALSE,FALSE,FALSE,TRUE,FALSE,2014-03-26,NA,NA,NA,12001020,Fayette County Courthouse (Boundary Increase),"Fayette County Courthouse Historic District (Boundary Increase), Fayette, Alabama",33.68472,-87.83111
100003123,RS,Russellville Commercial Historic District,Alabama,Franklin,Russellville,"Along sections of Jackson & Coffee Aves., Lawrence, Lauderdale & Madison Sts.",Listed,Resubmission,FALSE,104,Architecture; Commerce; Politics/Government; Religion; Entertainment/Recreation,District,NA,FALSE,FALSE,FALSE,TRUE,FALSE,2019-01-29,NA,NA,NA,100003123,Russellville Commercial,"Russellville Commercial Historic District, Franklin, Alabama",34.507632,-87.728983
100011147,RS,Geneva Commercial Historic District,Alabama,Geneva,Geneva,"S Commerce St, E Church Ave, E Water Ave, E Town Ave",Listed,Resubmission,FALSE,23,Commerce,District,NA,FALSE,FALSE,FALSE,TRUE,FALSE,2026-05-13,NA,NA,NA,100011147,Geneva Commercial,"Geneva Commercial Historic District, Geneva, Alabama",32.6433215,-85.3739174
76000328,NA,Greensboro Historic District,Alabama,Hale,Greensboro,Main St. between Hobson and 1st,Listed,Single,FALSE,106,Commerce; Politics/Government; Architecture,District,https://catalog.archives.gov/id/77836200,FALSE,FALSE,TRUE,FALSE,FALSE,1976-08-13,NA,NA,NA,76000328,Greensboro,"Greensboro Historic District, Hale, Alabama",32.70414,-87.59455
100011166,SG,Headland Commercial Historic District,Alabama,Henry,Headland,Four blocks in downtown Headland centered around the Public Square,Listed,Single,FALSE,18.5,Commerce,District,NA,FALSE,FALSE,FALSE,TRUE,FALSE,2024-12-11,NA,NA,NA,100011166,Headland Commercial,"Headland Commercial Historic District, Henry, Alabama",31.28206,-86.25463
02000479,NA,Bridgeport Historic District,Alabama,Jackson,Bridgeport,"Roughly bounded by Bridgeport City Limits, Enrich Ave., Bridgeport, 5th Ave., Broadway Ave., 8th St., and 11th Ave.",Listed,Single,FALSE,160,Commerce; Architecture; Transportation; Military,District,https://catalog.archives.gov/id/77836238,FALSE,FALSE,FALSE,TRUE,FALSE,2002-05-16,NA,NA,NA,02000479,Bridgeport,"Bridgeport Historic District, Jackson, Alabama",34.94966,-85.7105
83002970,NA,College Hill Historic District,Alabama,Jackson,Scottsboro,306--418 and 405--411 College Ave.,Listed,Single,FALSE,7.1,Architecture,District,https://catalog.archives.gov/id/77836232,FALSE,FALSE,FALSE,TRUE,FALSE,1983-03-30,NA,NA,NA,83002970,College Hill,"College Hill Historic District, Jackson, Alabama",34.67008,-86.03109
82002037,NA,Public Square Historic District,Alabama,Jackson,Scottsboro,"Roughly bounded by Appletree, Andrews, Willow and Caldwell Sts.",Listed,Single,FALSE,11,Commerce; Politics/Government,District,https://catalog.archives.gov/id/77836240,FALSE,FALSE,FALSE,TRUE,FALSE,1982-04-15,NA,Scottsboro Public Square Historic District,NA,82002037,Public Square,"Public Square Historic District, Jackson, Alabama",34.67239,-86.03404
78000491,NA,Stevenson Historic District,Alabama,Jackson,Stevenson,Irregular pattern along RR tracks,Listed,Single,FALSE,91.3,Military; Transportation; Architecture,District,https://catalog.archives.gov/id/77836234,FALSE,TRUE,FALSE,FALSE,FALSE,1978-09-13,NA,See Also: Fort Harker;Stevenson Railroad Depot and Hotel,NA,78000491,Stevenson,"Stevenson Historic District, Jackson, Alabama",34.86869,-85.83886
86001981,NA,Anderson Place Historic District,Alabama,Jefferson,Birmingham,"Roughly bounded by Fourteenth Ave. S, Eighteenth St. S, Sixteen Ave. S, and Fifteenth St. S",Listed,Single,FALSE,23,Community Planning And Development; Architecture,District,https://catalog.archives.gov/id/77836396,FALSE,FALSE,FALSE,TRUE,FALSE,1986-08-28,NA,See Also:Anderson Place Historic District (Boundary Increase,NA,86001981,Anderson Place,"Anderson Place Historic District, Jefferson, Alabama",33.49344,-86.80055
91000592,NA,Anderson Place Historic District (Boundary Increase),Alabama,Jefferson,Birmingham,"Roughly, 16th Ave. S. from 15th St. to a line S from 18th St.",Listed,Single,FALSE,14,Community Planning And Development; Architecture,District,https://catalog.archives.gov/id/77836398,FALSE,FALSE,FALSE,TRUE,FALSE,1991-05-15,NA,See Also:Anderson Place Historic District,NA,91000592,Anderson Place (Boundary Increase),"Anderson Place Historic District (Boundary Increase), Jefferson, Alabama",33.49344,-86.80055
91000661,NA,Automotive Historic District,Alabama,Jefferson,Birmingham,"Roughly bounded by First Ave. N., 24th St. S., Fifth Ave. S. and 20th St. S.",Listed,Single,FALSE,42,Commerce; Transportation; Architecture,District,https://catalog.archives.gov/id/77836470,FALSE,FALSE,FALSE,TRUE,FALSE,1991-05-30,NA,NA,NA,91000661,Automotive,"Automotive Historic District, Jefferson, Alabama",33.51177,-86.80027
98000106,NA,Avondale Park Historic District,Alabama,Jefferson,Birmingham,"Roughly bounded by 47th st., 7th Ave., 8th Court, 34th St.,, and AL 4",Listed,Single,FALSE,200,Entertainment/Recreation; Architecture,District,https://catalog.archives.gov/id/77836496,FALSE,FALSE,FALSE,TRUE,FALSE,1998-02-20,NA,NA,NA,98000106,Avondale Park,"Avondale Park Historic District, Jefferson, Alabama",33.51885,-86.7724
00000713,NA,Belview Heights Historic District,Alabama,Jefferson,Birmingham,"Roughly along 41st., 42st., 43rd., 44th, and 45th Sts., and M and Martin Aves.",Listed,Single,FALSE,150,Architecture; Community Planning And Development,District,https://catalog.archives.gov/id/77836390,FALSE,FALSE,FALSE,TRUE,FALSE,2000-06-22,NA,NA,NA,00000713,Belview Heights,"Belview Heights Historic District, Jefferson, Alabama",33.49083,-86.89093
06000940,MP,Birmingham Civil Rights Historic District,Alabama,Jefferson,Birmingham,"Roughly bounded 9th Ave., Richard Arrington Jr. Blvd., 1st Ave. and 14th St.",Listed,Multiple,FALSE,36,Black; Social History,District,https://catalog.archives.gov/id/77835231,FALSE,TRUE,FALSE,FALSE,FALSE,2006-10-19,NA,NA,NA,06000940,Birmingham Civil Rights,"Birmingham Civil Rights Historic District, Jefferson, Alabama",33.52118,-86.8112
100004132,RS,Birmingham Wholesale & Retail (West) Historic District,Alabama,Jefferson,Birmingham,1st through 6 Aves. N. Bet. 11th and 16th Sts. N.,Listed,Resubmission,FALSE,69.7,Commerce,District,NA,FALSE,FALSE,FALSE,TRUE,FALSE,2024-08-19,NA,NA,NA,100004132,Birmingham Wholesale & Retail (West),"Birmingham Wholesale & Retail (West) Historic District, Jefferson, Alabama",30.5655346,-88.232736
15000429,NA,Birmingham Wholesale Warehouse Loop West Historic District,Alabama,Jefferson,Birmingham,"Roughly bounded by RRs., 14th St. S., 2nd Ave. S. & I-65",Listed,Single,FALSE,24.3,Commerce; Architecture,District,NA,FALSE,FALSE,FALSE,TRUE,FALSE,2015-07-21,NA,NA,NA,15000429,Birmingham Wholesale Warehouse Loop West,"Birmingham Wholesale Warehouse Loop West Historic District, Jefferson, Alabama",33.5312,-86.83008
100004133,RS,Bush Hills Historic District,Alabama,Jefferson,Birmingham,"Roughly bounded by Princeton Pkwy. W, 3rd Ave. W, Bush Blvd., I-20/59, 8th Court W, and 8th Ave. W",Listed,Resubmission,FALSE,301.6,Architecture; Community Planning And Development,District,NA,FALSE,FALSE,FALSE,TRUE,FALSE,2024-08-19,NA,NA,NA,100004133,Bush Hills,"Bush Hills Historic District, Jefferson, Alabama",33.69127,-86.67857
06000187,NA,Cahaba Homestead Village Historic District,Alabama,Jefferson,Trussville,Approx. bet I-59 and AL 11,Listed,Single,FALSE,208,Community Planning And Development; Social History; Education; Politics/Government,District,https://catalog.archives.gov/id/77836478,FALSE,FALSE,FALSE,TRUE,FALSE,2006-03-29,NA,Cahaba Project; The Project,NA,06000187,Cahaba Homestead Village,"Cahaba Homestead Village Historic District, Jefferson, Alabama",33.62927,-86.60789
07001027,NA,Center Street Historic District,Alabama,Jefferson,Birmingham,940-1145 Center St.;2-9th Ct. W; 4-10th Ave. N; 2-4 10th Ct. N; 16-24 11th Ave. N; 1-2 11th Ct. N.,Listed,Multiple,FALSE,8.5,Black,District,https://catalog.archives.gov/id/77835255,FALSE,FALSE,FALSE,TRUE,FALSE,2007-10-01,NA,Dynamite Hill,NA,07001027,Center Street,"Center Street Historic District, Jefferson, Alabama",33.52154,-86.83614
87000940,NA,Chestnut Hill Historic District,Alabama,Jefferson,Birmingham,Roughly bounded by Highland Ave. and Thirty-first St.,Listed,Single,FALSE,34,Community Planning And Development; Landscape Architecture; Architecture,District,https://catalog.archives.gov/id/77836402,FALSE,FALSE,FALSE,TRUE,FALSE,1987-06-12,NA,NA,NA,87000940,Chestnut Hill,"Chestnut Hill Historic District, Jefferson, Alabama",33.51038,-86.78027
03001133,NA,Country Club Historic District,Alabama,Jefferson,Birmingham,"Roughly bounded by Highland Ave, 33rd St., 34th St., Pawnee Ave., and 29th St.",Listed,Single,FALSE,446,Architecture; Community Planning And Development,District,https://catalog.archives.gov/id/77836384,FALSE,FALSE,FALSE,TRUE,FALSE,2003-11-17,NA,NA,NA,03001133,Country Club,"Country Club Historic District, Jefferson, Alabama",33.50742,-86.7785
86001890,NA,Cullom Street-Twelfth Street South Historic District,Alabama,Jefferson,Birmingham,"Roughly bounded by Eleventh Ave., Twelfth St. S, Cullom St., and Thirteenth St. S",Listed,Single,FALSE,11,Community Planning And Development; Architecture,District,https://catalog.archives.gov/id/77836394,FALSE,FALSE,FALSE,TRUE,FALSE,1986-08-21,NA,NA,NA,86001890,Cullom Street-Twelfth Street South,"Cullom Street-Twelfth Street South Historic District, Jefferson, Alabama",33.49372,-86.80749
92000852,NA,Downtown Bessemer Historic District,Alabama,Jefferson,Bessemer,"Roughly bounded by 21st St. N., Carolina Ave., 19th St. N., 5th Ave. N. and the Southern RR tracks",Listed,Single,FALSE,26,Commerce; Architecture,District,https://catalog.archives.gov/id/77836448,FALSE,FALSE,FALSE,TRUE,FALSE,1992-07-15,NA,See Also:Southern Railway Terminal Station,NA,92000852,Downtown Bessemer,"Downtown Bessemer Historic District, Jefferson, Alabama",33.40225,-86.95157
82002039,NA,Downtown Birmingham Historic District,Alabama,Jefferson,Birmingham,"Roughly bounded by 3rd Ave., 24th St., 1rst Ave., and 20th St.",Listed,Single,FALSE,8.4,Commerce; Architecture,District,https://catalog.archives.gov/id/77836332,FALSE,FALSE,TRUE,FALSE,FALSE,1982-02-11,NA,See Also:Downtown Birmingham Historic District (Boundary Inc,NA,82002039,Downtown Birmingham,"Downtown Birmingham Historic District, Jefferson, Alabama",33.51677,-86.8036
98000105,NA,Downtown Birmingham Historic District (Boundary Increase Ii),Alabama,Jefferson,Birmingham,"Roughly along 23rd St. and 3rd Ave., bounded by 5th Ave., 22nd St., and 2nd Ave.",Listed,Single,FALSE,13,Commerce; Architecture,District,https://catalog.archives.gov/id/77836446,FALSE,FALSE,FALSE,TRUE,FALSE,1998-02-20,NA,NA,NA,98000105,Downtown Birmingham (Boundary Increase Ii),"Downtown Birmingham Historic District (Boundary Increase Ii), Jefferson, Alabama",33.51677,-86.8036
14001001,NA,Downtown Birmingham Historic District (Boundary Increase Iii),Alabama,Jefferson,Birmingham,"Portions of 1st, 2nd, 3rd, 4th , 5th, 20th, 22nd, 23rd, 24th & 25th Sts., N., Richard Arrington Jr. Blvd.",Listed,Single,FALSE,25.2,Commerce; Architecture,District,NA,FALSE,FALSE,FALSE,TRUE,FALSE,2016-07-12,NA,NA,NA,14001001,Downtown Birmingham (Boundary Increase Iii),"Downtown Birmingham Historic District (Boundary Increase Iii), Jefferson, Alabama",33.51677,-86.8036
85000305,NA,Downtown Birmingham Historic District (Boundary Increase),Alabama,Jefferson,Birmingham,312--322 21rst St. N and 1923 3rd. Ave.,Listed,Single,FALSE,0.3,Commerce; Architecture,District,https://catalog.archives.gov/id/77836352,FALSE,FALSE,TRUE,FALSE,FALSE,1985-02-21,NA,See Also:Downtown Birmingham Historic District,NA,85000305,Downtown Birmingham (Boundary Increase),"Downtown Birmingham Historic District (Boundary Increase), Jefferson, Alabama",33.51677,-86.8036
89000315,NA,Downtown Birmingham Retail And Theatre Historic District,Alabama,Jefferson,Birmingham,"Roughly bounded by 3rd Ave. North, 20th St. North, Morris Ave., and 17th St. North",Listed,Single,FALSE,39,Commerce; Architecture; Entertainment/Recreation,District,https://catalog.archives.gov/id/77836464,FALSE,FALSE,FALSE,TRUE,FALSE,1989-05-05,NA,See Also:79000386;81000126;85000918;85002718;83002971,NA,89000315,Downtown Birmingham Retail And Theatre,"Downtown Birmingham Retail And Theatre Historic District, Jefferson, Alabama",33.51427,-86.80832
98000709,NA,Downtown Birmingham Retail And Theatre Historic District (Boundary Increase),Alabama,Jefferson,Birmingham,"1914, 1917, 1919, 1930 4th Ave.,N.",Listed,Single,FALSE,1.5,Architecture,District,https://catalog.archives.gov/id/77836466,FALSE,FALSE,FALSE,TRUE,FALSE,1998-06-26,NA,See Also: Downtown Birmingham Retail and Theatre historic Di,NA,98000709,Downtown Birmingham Retail And Theatre (Boundary Increase),"Downtown Birmingham Retail And Theatre Historic District (Boundary Increase), Jefferson, Alabama",33.51427,-86.80832
09000604,NA,Downtown Ensley Historic District,Alabama,Jefferson,Birmingham,17th-21st Sts. Ensley & Avenues C-H,Listed,Single,FALSE,64.4,Commerce; Architecture,District,https://catalog.archives.gov/id/77836458,FALSE,FALSE,FALSE,TRUE,FALSE,2010-07-26,NA,NA,NA,09000604,Downtown Ensley,"Downtown Ensley Historic District, Jefferson, Alabama",33.51462,-86.89726
83002973,AD,Five Points South Historic District,Alabama,Jefferson,Birmingham,"Roughly bounded by 10th and 15th Aves., 19th and 21st Sts.",Listed,Add.doc.,FALSE,33,Commerce; Architecture,District,NA,FALSE,FALSE,FALSE,TRUE,FALSE,1983-03-16,NA,See Also:86001984;91000593,NA,83002973,Five Points South,"Five Points South Historic District, Jefferson, Alabama",33.49955,-86.79582
91000593,NA,Five Points South Historic District (Boundary Increase Ii),Alabama,Jefferson,Birmingham,"Roughly bounded by 15th Ave. S., 20th St. S., 16th Ave. S. and 18th St.",Listed,Single,FALSE,11,Architecture,District,https://catalog.archives.gov/id/77836354,FALSE,FALSE,FALSE,TRUE,FALSE,1991-05-15,NA,See Also:Five Points South Historic District;Five Points Sou,NA,91000593,Five Points South (Boundary Increase Ii),"Five Points South Historic District (Boundary Increase Ii), Jefferson, Alabama",33.49955,-86.79582
86001984,NA,Five Points South Historic District (Boundary Increase),Alabama,Jefferson,Birmingham,"Roughly bounded by Twelfth Ave., Nineteenth St., Thirteenth Ave., and Seventeenth St.",Listed,Single,FALSE,12,Architecture,District,https://catalog.archives.gov/id/77836329,FALSE,FALSE,FALSE,TRUE,FALSE,1986-08-28,NA,See Also:Five Points South Historic District;Five Points Sou,NA,86001984,Five Points South (Boundary Increase),"Five Points South Historic District (Boundary Increase), Jefferson, Alabama",33.49955,-86.79582
82002041,NA,Fourth Avenue Historic District,Alabama,Jefferson,Birmingham,1600--1800 blks of 4th Ave. N and part of the 300 blks of 17th and 18th Sts. N,Listed,Single,FALSE,4.2,Commerce; Black; Architecture,District,https://catalog.archives.gov/id/77836370,FALSE,FALSE,TRUE,FALSE,FALSE,1982-02-11,NA,See Also:Alabama Penny Savings Bank;80004471,NA,82002041,Fourth Avenue,"Fourth Avenue Historic District, Jefferson, Alabama",33.51511,-86.81193
84000628,NA,Glen Iris Park Historic District,Alabama,Jefferson,Birmingham,1-20 Glen Iris Park,Listed,Single,FALSE,35,Community Planning And Development; Landscape Architecture; Architecture,District,https://catalog.archives.gov/id/77836406,FALSE,FALSE,FALSE,TRUE,FALSE,1984-08-30,NA,NA,NA,84000628,Glen Iris Park,"Glen Iris Park Historic District, Jefferson, Alabama",33.48983,-86.81166
03001132,NA,Hanover Place Historic District,Alabama,Jefferson,Birmingham,"Roughly bounded by, Highland Ave., Hanover Cir., and US 31",Listed,Single,FALSE,60,Architecture; Community Planning And Development,District,https://catalog.archives.gov/id/77836386,FALSE,FALSE,FALSE,TRUE,FALSE,2003-11-17,NA,NA,NA,03001132,Hanover Place,"Hanover Place Historic District, Jefferson, Alabama",33.50598,-86.78676
77000206,NA,Highland Avenue Historic District,Alabama,Jefferson,Birmingham,2000 block thru 3200 block 11th Court S.,Listed,Single,FALSE,114,Commerce; Architecture,District,https://catalog.archives.gov/id/77836450,FALSE,FALSE,FALSE,TRUE,FALSE,1977-11-17,NA,See Also:Enslen House,NA,77000206,Highland Avenue,"Highland Avenue Historic District, Jefferson, Alabama",33.50538,-86.78398
02000482,NA,Hollywood Historic District,Alabama,Jefferson,Homewood,"Roughly bounded by Al 31, AL 280 and Lakeshore Dr.",Listed,Single,FALSE,815,Architecture; Community Planning And Development,District,https://catalog.archives.gov/id/77836382,FALSE,FALSE,FALSE,TRUE,FALSE,2002-05-16,NA,NA,NA,02000482,Hollywood,"Hollywood Historic District, Jefferson, Alabama",33.47955,-86.78199
99000467,NA,Howard College Estates Historic District,Alabama,Jefferson,Birmingham,"Roughly along 77th Way, 77th Place, Vanderbilt St., 8th Court, 8th, Rugby, and Belmont Aves.",Listed,Single,FALSE,38,Architecture,District,https://catalog.archives.gov/id/77836301,FALSE,FALSE,FALSE,TRUE,FALSE,1999-04-22,NA,NA,NA,99000467,Howard College Estates,"Howard College Estates Historic District, Jefferson, Alabama",33.55599,-86.7168
00000710,NA,Lakewood Historic District,Alabama,Jefferson,Birmingham,"Roughly bounded by Lee Ave., 82nd St., Spring St., and 80th St.",Listed,Single,FALSE,40,Architecture,District,https://catalog.archives.gov/id/77836289,FALSE,FALSE,FALSE,TRUE,FALSE,2000-06-22,NA,NA,NA,00000710,Lakewood,"Lakewood Historic District, Jefferson, Alabama",33.56078,-86.71236
94001546,NA,Leeds Downtown Historic District,Alabama,Jefferson,Leeds,"Roughly bounded by Ninth St. NE., Thornton and Railroad Aves. and Parkway Dr. SE.",Listed,Single,FALSE,10,Commerce; Transportation,District,https://catalog.archives.gov/id/77836520,FALSE,FALSE,FALSE,TRUE,FALSE,1995-01-12,NA,See Also:Southern Railroad Depot,NA,94001546,Leeds Downtown,"Leeds Downtown Historic District, Jefferson, Alabama",33.54291,-86.5405
100002766,SG,Magnolia Avenue South Historic District,Alabama,Jefferson,Birmingham,"Magnolia Ave. bounded by Richard Arrington, Jr. Blvd. & 24th St. S",Listed,Single,FALSE,13.8,Architecture; Community Planning And Development,District,NA,FALSE,FALSE,FALSE,TRUE,FALSE,2018-08-09,NA,NA,NA,100002766,Magnolia Avenue South,"Magnolia Avenue South Historic District, Jefferson, Alabama",33.58954630963,-86.999538649524
93001031,NA,Miles Memorial College Historic District,Alabama,Jefferson,Fairfield,5501 Myron Massey Blvd.,Listed,Single,FALSE,36,Black; Education,District,https://catalog.archives.gov/id/77836490,FALSE,FALSE,FALSE,TRUE,FALSE,1994-01-03,NA,Miles College Historic District,NA,93001031,Miles Memorial College,"Miles Memorial College Historic District, Jefferson, Alabama",33.48059,-86.90906
03001130,NA,Milner Heights Historic District,Alabama,Jefferson,Birmingham,"Roughly bounded by 28th St., Highland Ave., 27th Ave., Arlington Ave., and 23rd St.",Listed,Single,FALSE,160,Architecture; Community Planning And Development,District,https://catalog.archives.gov/id/77836388,FALSE,FALSE,FALSE,TRUE,FALSE,2003-11-17,NA,NA,NA,03001130,Milner Heights,"Milner Heights Historic District, Jefferson, Alabama",33.50215,-86.78596
73000349,NA,Morris Avenue Historic District,Alabama,Jefferson,Birmingham,2000-2400 blocks of Morris Ave.,Listed,Single,FALSE,12,Commerce; Architecture,District,https://catalog.archives.gov/id/77836358,FALSE,FALSE,TRUE,FALSE,FALSE,1973-04-24,NA,NA,NA,73000349,Morris Avenue,"Morris Avenue Historic District, Jefferson, Alabama",33.51501,-86.8015
86000009,NA,Morris Avenue-First Avenue North Historic District,Alabama,Jefferson,Birmingham,2000--2400 blks. of Morris Ave. and 2100--2500 blks. of First Ave. N.,Listed,Single,FALSE,9,Commerce; Architecture,District,https://catalog.archives.gov/id/77836344,FALSE,FALSE,FALSE,TRUE,FALSE,1986-01-09,NA,NA,NA,86000009,Morris Avenue-First Avenue North,"Morris Avenue-First Avenue North Historic District, Jefferson, Alabama",33.51574,-86.80202
100008399,SG,Mountain Brook Office Park Historic District,Alabama,Jefferson,Mountain Brook,"2900 Cahaba Rd.,1-17 Office Park Cir., 100-510 Office Park Dr.",Listed,Single,FALSE,79.5,Architecture; Community Planning And Development,District,NA,FALSE,TRUE,FALSE,TRUE,FALSE,2022-11-25,NA,NA,NA,100008399,Mountain Brook Office Park,"Mountain Brook Office Park Historic District, Jefferson, Alabama",33.477181,-86.774941
01001166,AD,Norwood Historic District (Additional Documentation),Alabama,Jefferson,Birmingham,"Generally bounded by Carraway Blvd., 19th Ave. North, Norwood Blvd., 17th Ave. North, Vanderbilt Rd., and I 20/59",Listed,Add.doc.,FALSE,334,Architecture; Community Planning And Development,District,https://catalog.archives.gov/id/77836380,FALSE,FALSE,FALSE,TRUE,FALSE,2001-10-29,NA,Norwood Boulevard Historic District; Norwood Park,NA,01001166,Norwood (Additional Documentation),"Norwood Historic District (Additional Documentation), Jefferson, Alabama",33.533994,-86.799157
100007201,BC,Norwood Historic District (Boundary Increase),Alabama,Jefferson,Birmingham,"Generally bounded by Carraway Blvd., 19th Ave. North, Norwood Blvd., 17th Ave. North, Vanderbilt Rd., and I 20/59",Listed,Boundary,FALSE,261,Architecture; Community Planning And Development,District,https://catalog.archives.gov/id/77836380,FALSE,FALSE,FALSE,TRUE,FALSE,2021-12-03,NA,Norwood Boulevard Historic District; Norwood Park,NA,01001166,Norwood (Boundary Increase),"Norwood Historic District (Boundary Increase), Jefferson, Alabama",33.53937,-86.80085
100004642,SG,Palmerdale Homesteads Historic District,Alabama,Jefferson,Pinson,"Parts of Miles Springs, N. & S. Valley, Brookwood, Southfield N. & S., Midwood, Marsh Mountain & W. Hill Rds., Helms Cir. & AL 75",Listed,Single,FALSE,420,Social History; Politics/Government; Community Planning And Development; Architecture,District,NA,FALSE,FALSE,TRUE,FALSE,FALSE,2019-11-21,NA,Palmer Station,NA,100004642,Palmerdale Homesteads,"Palmerdale Homesteads Historic District, Jefferson, Alabama",33.62927,-86.60789
88003241,NA,Phelan Park Historic District,Alabama,Jefferson,Birmingham,"Roughly bounded by 13th Ave. S., 14th St. S., 16th Ave. S., and 13th Pl. S.",Listed,Single,FALSE,35,Community Planning And Development; Architecture,District,https://catalog.archives.gov/id/77836400,FALSE,FALSE,FALSE,TRUE,FALSE,1989-01-26,NA,Phelan Park,NA,88003241,Phelan Park,"Phelan Park Historic District, Jefferson, Alabama",33.49455,-86.80277
15000975,NA,Pinson Hills Historic District,Alabama,Jefferson,Pinson,"Roughly Cedar, Church, Main, Mountain, Pinson & Walnut Sts., Pinewood & Leslie Drs., Center Point & Silver Lake Rds.",Listed,Single,FALSE,40,Community Planning And Development; Architecture,District,NA,FALSE,FALSE,FALSE,TRUE,FALSE,2016-01-19,NA,NA,NA,15000975,Pinson Hills,"Pinson Hills Historic District, Jefferson, Alabama",33.69127,-86.67857
15000976,NA,Pinson Main Street Historic District,Alabama,Jefferson,Pinson,"Roughly Clayton, Lane, Main & Spring Sts., Elm & Powell Aves., Marvin's Way, Old Bradford Rd. & Pinson Plz.",Listed,Single,FALSE,20,Commerce; Architecture,District,NA,FALSE,FALSE,FALSE,TRUE,FALSE,2016-01-19,NA,NA,NA,15000976,Pinson Main Street,"Pinson Main Street Historic District, Jefferson, Alabama",33.68989,-86.68588
89000118,NA,Pratt City Carline Historic District,Alabama,Jefferson,Birmingham,Ave. U from Ave. A to Carline and Carline from Ave. W to 6th St.,Listed,Single,FALSE,80,Community Planning And Development; Commerce; Engineering; Transportation; Black; European; Architecture,District,https://catalog.archives.gov/id/77836460,FALSE,FALSE,TRUE,FALSE,FALSE,1989-03-02,NA,Carline District,NA,89000118,Pratt City Carline,"Pratt City Carline Historic District, Jefferson, Alabama",33.53149,-86.88444
85002719,NA,Red Mountain Suburbs Historic District,Alabama,Jefferson,Birmingham (Also In Mountain Brook),"Roughly bounded by Crest and Argyle and Altamont, Country Club, Salisbury, and Lanark Rds.",Listed,Single,FALSE,333,Industry; Community Planning And Development; Landscape Architecture; Commerce; Architecture,District,https://catalog.archives.gov/id/77836364,FALSE,FALSE,TRUE,TRUE,FALSE,1985-10-03,NA,Redmont Park;Altamont;Milner Heights;Valley View,NA,85002719,Red Mountain Suburbs,"Red Mountain Suburbs Historic District, Jefferson, Alabama",33.50177,-86.77416
99000149,NA,Roebuck Springs Historic District,Alabama,Jefferson,Birmingham,Roughly off of Blountsville Cty Rd.,Listed,Single,FALSE,135,Landscape Architecture; Community Planning And Development; Architecture,District,https://catalog.archives.gov/id/77836512,FALSE,FALSE,FALSE,TRUE,FALSE,1999-02-12,NA,NA,NA,99000149,Roebuck Springs,"Roebuck Springs Historic District, Jefferson, Alabama",33.57722,-86.7041
04000236,NA,Rosedale Historic District,Alabama,Jefferson,Homewood,"Roughly bounded by 25th Court S, Central Ave., 27th Court S., Loveless/BM Montgomery St.",Listed,Single,FALSE,250,Architecture; Black,District,https://catalog.archives.gov/id/77836416,FALSE,FALSE,FALSE,TRUE,FALSE,2004-03-31,NA,NA,NA,04000236,Rosedale,"Rosedale Historic District, Jefferson, Alabama",33.48373,-86.79441
04000235,NA,Rosedale Park Historic District,Alabama,Jefferson,Homewood,"Roughly bounded by Woodcrest Place, 26th Ave. S, 18th St. S, and 25th Ct. S",Listed,Single,FALSE,25,Architecture; Black,District,https://catalog.archives.gov/id/77836504,FALSE,FALSE,FALSE,TRUE,FALSE,2004-03-31,NA,NA,NA,04000235,Rosedale Park,"Rosedale Park Historic District, Jefferson, Alabama",33.4872,-86.78963
85002898,NA,"Smith, Joseph Riley, Historic District",Alabama,Jefferson,Birmingham,"300--400 blks. of Tenth Ave., 100--400 blks. of Ninth Ct., 944 Fourth St. W, and 948 Third St. W",Listed,Single,FALSE,35,Architecture,District,https://catalog.archives.gov/id/77836297,FALSE,FALSE,FALSE,TRUE,FALSE,1985-10-10,NA,College Hills,NA,85002898,"Smith, Joseph Riley,","Smith, Joseph Riley, Historic District, Jefferson, Alabama",33.51677,-86.84027
85002899,NA,Smithfield Historic District,Alabama,Jefferson,Birmingham,"Roughly bounded by Eighth Ave. N, Sixth St. N, Fourth Terr.  N, and First St. N",Listed,Single,FALSE,90,Black; Architecture,District,https://catalog.archives.gov/id/77836317,FALSE,FALSE,FALSE,TRUE,FALSE,1985-10-15,NA,Smithfield,NA,85002899,Smithfield,"Smithfield Historic District, Jefferson, Alabama",33.51205,-86.83193
98001022,NA,Smithfield Historic District (Boundary Increase),Alabama,Jefferson,Birmingham,Roughly along 4th Court and Center St.,Listed,Single,FALSE,30,Architecture; Black,District,https://catalog.archives.gov/id/77836500,FALSE,FALSE,FALSE,TRUE,FALSE,1998-08-14,NA,NA,NA,98001022,Smithfield (Boundary Increase),"Smithfield Historic District (Boundary Increase), Jefferson, Alabama",33.51205,-86.83193
97000652,NA,South East Lake Historic District,Alabama,Jefferson,Birmingham,"Roughly Bounded by 78th, and 8th Sts., and Division, First, Second, and Fifth Aves.",Listed,Single,FALSE,180,Architecture,District,https://catalog.archives.gov/id/77836274,FALSE,FALSE,FALSE,TRUE,FALSE,1997-07-03,NA,NA,NA,97000652,South East Lake,"South East Lake Historic District, Jefferson, Alabama",33.56577,-86.72065
03001136,NA,South Highlands Of East Lake Historic District,Alabama,Jefferson,Birmingham,"Roughly bounded by 8th Ave., 85th St., 5th Ave., and 78th St.",Listed,Single,FALSE,1795,Architecture,District,https://catalog.archives.gov/id/77836258,FALSE,FALSE,FALSE,TRUE,FALSE,2003-11-17,NA,NA,NA,03001136,South Highlands Of East Lake,"South Highlands Of East Lake Historic District, Jefferson, Alabama",33.59337,-86.71429
05000647,NA,Southside Historic District,Alabama,Jefferson,Birmingham,"2800 University Blvd., parts of 4th -7th Ave. S and 22nd-32nd St. S",Listed,Single,FALSE,100,Architecture; Commerce; Social History,District,https://catalog.archives.gov/id/77836366,FALSE,FALSE,FALSE,TRUE,FALSE,2005-07-06,NA,NA,NA,05000647,Southside,"Southside Historic District, Jefferson, Alabama",33.51283,-86.79006
11000374,NA,Southside Historic District (Boundary Increase),Alabama,Jefferson,Birmingham,"2800 University Blvd., parts of 4th - 7th Aves. S., 22nd - 32nd Sts. S.",Listed,Single,FALSE,1,Commerce,Building,https://catalog.archives.gov/id/77836442,FALSE,FALSE,FALSE,TRUE,FALSE,2011-06-28,NA,"Lakeview, Seventh Avenue South, Bear Mash",NA,11000374,Southside (Boundary Increase),"Southside Historic District (Boundary Increase), Jefferson, Alabama",33.51283,-86.79006
09000105,NA,Tarrant City Downtown Historic District,Alabama,Jefferson,Tarrant,"Parts of E. Lake Blvd., Ford Ave., Jackson Blvd., Pinson St., Wharton Ave.",Listed,Single,FALSE,50,Architecture; Commerce,District,https://catalog.archives.gov/id/77836454,FALSE,FALSE,FALSE,TRUE,FALSE,2010-04-26,NA,NA,NA,09000105,Tarrant City Downtown,"Tarrant City Downtown Historic District, Jefferson, Alabama",33.58216,-86.77058
95001060,NA,Thomas By-Product Coke Works Historic District,Alabama,Jefferson,Birmingham,Roughly bounded by RR Tracks and the sand and gravel quarry,Listed,Single,FALSE,35,Industry; Engineering,District,https://catalog.archives.gov/id/77836510,FALSE,FALSE,FALSE,TRUE,FALSE,1995-09-13,NA,Republic Steel Corporation's Thomas Works,NA,95001060,Thomas By-Product Coke Works,"Thomas By-Product Coke Works Historic District, Jefferson, Alabama",33.52372,-86.86377
89000119,NA,Thomas Historic District,Alabama,Jefferson,Birmingham,"Roughly area between 1st and 8th Sts., N of Village Creek and W of St. Louis and San Francisco Railroad tracks",Listed,Single,FALSE,100,Industry; Community Planning And Development,District,https://catalog.archives.gov/id/77836480,FALSE,FALSE,TRUE,FALSE,FALSE,1989-03-02,NA,NA,NA,89000119,Thomas,"Thomas Historic District, Jefferson, Alabama",33.52983,-86.86166
90002179,NA,Woodlawn Comercial Historic District,Alabama,Jefferson,Birmingham,Area around jct. of 1st Ave. N. and 55th Pl.,Listed,Single,FALSE,6,Community Planning And Development; Architecture,District,https://catalog.archives.gov/id/77836378,FALSE,FALSE,FALSE,TRUE,FALSE,1991-01-25,NA,See Also:Woodlawn City Hall,NA,90002179,Woodlawn Comercial,"Woodlawn Comercial Historic District, Jefferson, Alabama",33.53959,-86.75312
06000438,NA,Woodlawn Highlands Historic District,Alabama,Jefferson,Birmingham,"Bounded by 5th Ave. S, Crestwood Blvd., and 56th and 61st Sts. S.",Listed,Single,FALSE,407,Architecture,District,https://catalog.archives.gov/id/77836270,FALSE,FALSE,FALSE,TRUE,FALSE,2006-05-31,NA,Crestwood North Historic District,NA,06000438,Woodlawn Highlands,"Woodlawn Highlands Historic District, Jefferson, Alabama",33.53622,-86.75065
03001129,NA,Woodlawn Historic District,Alabama,Jefferson,Birmingham,"Roughly bounded by 1st Ave. N, 47th St. N, 61st St.N,  and I-20/59",Listed,Single,FALSE,241,Architecture,District,https://catalog.archives.gov/id/77836276,FALSE,FALSE,FALSE,TRUE,FALSE,2003-11-17,NA,NA,NA,03001129,Woodlawn,"Woodlawn Historic District, Jefferson, Alabama",33.54105,-86.75738
97000648,NA,Cherry Street Historic District,Alabama,Lauderdale,Florence,"Cherry St., between Hermitage Dr. and E. Tombigbee St.",Listed,Single,FALSE,17,Architecture,District,https://catalog.archives.gov/id/77836547,FALSE,FALSE,FALSE,TRUE,FALSE,1997-07-03,NA,NA,NA,97000648,Cherry Street,"Cherry Street Historic District, Lauderdale, Alabama",34.80821,-87.67254
94001547,NA,College Place Historic District,Alabama,Lauderdale,Florence,"Along Sherwood Ave., between W. Lelia St. and Circular Rd.",Listed,Single,FALSE,18,Architecture,District,https://catalog.archives.gov/id/77836533,FALSE,FALSE,FALSE,TRUE,FALSE,1995-01-12,NA,NA,NA,94001547,College Place,"College Place Historic District, Lauderdale, Alabama",34.81276,-87.68081
98001030,NA,College Place Historic District (Boundary Increase),Alabama,Lauderdale,Florence,Roughly along W. Lelia and W. Mattie Lou Sts.,Listed,Single,FALSE,1.6,Architecture,District,https://catalog.archives.gov/id/77836537,FALSE,FALSE,FALSE,TRUE,FALSE,1998-08-14,NA,NA,NA,98001030,College Place (Boundary Increase),"College Place Historic District (Boundary Increase), Lauderdale, Alabama",34.81276,-87.68081
95001021,NA,Downtown Florence Historic District,Alabama,Lauderdale,Florence,"Roughly, 104 N. Court St.--119 S. Court St. (E side), 100--128 E. Tennessee St. and 106, 108 and 110 S. Seminary St.",Listed,Single,FALSE,2,Commerce; Architecture,District,https://catalog.archives.gov/id/77836573,FALSE,FALSE,FALSE,TRUE,FALSE,1995-08-22,NA,NA,NA,95001021,Downtown Florence,"Downtown Florence Historic District, Lauderdale, Alabama",34.80015,-87.6759
01001292,NA,Downtown Florence Historic District (Boundary Increase),Alabama,Lauderdale,Florence,"Roughly bounded by Pine St., Alabama St., Wood Ave., and Tuscaloosa St.",Listed,Single,FALSE,11,Commerce; Architecture,District,https://catalog.archives.gov/id/77836575,FALSE,FALSE,FALSE,TRUE,FALSE,2001-12-18,NA,NA,NA,01001292,Downtown Florence (Boundary Increase),"Downtown Florence Historic District (Boundary Increase), Lauderdale, Alabama",34.80015,-87.6759
02001065,NA,Locust Street Historic District,Alabama,Lauderdale,Florence,"Roughly bounded by Pine St., College St., Locust St., and Irvine Ave.",Listed,Single,FALSE,60,Architecture,District,https://catalog.archives.gov/id/77836549,FALSE,FALSE,FALSE,TRUE,FALSE,2002-10-03,NA,NA,NA,02001065,Locust Street,"Locust Street Historic District, Lauderdale, Alabama",34.80122,-87.68144
76000336,AD,Sannoner Historic District,Alabama,Lauderdale,Florence,Includes both sides of N. Pine and N. Court from Tuscaloosa Ave. to University of Alabama,Listed,Add.doc.,FALSE,25,Architecture,District,NA,FALSE,FALSE,TRUE,TRUE,FALSE,1976-01-01,NA,See Also:Courtview,NA,76000336,Sannoner,"Sannoner Historic District, Lauderdale, Alabama",34.80398,-87.6792
95000092,NA,Seminary-O'neal Historic District,Alabama,Lauderdale,Florence,"Roughly, Seminary St. between Hermitage Dr. and Irvine Ave. and Irvine between Seminary and Wood Ave.",Listed,Single,FALSE,5,Architecture,District,https://catalog.archives.gov/id/77836529,FALSE,FALSE,FALSE,TRUE,FALSE,1995-02-17,NA,NA,NA,95000092,Seminary-O'neal,"Seminary-O'neal Historic District, Lauderdale, Alabama",34.80591,-87.677
76000337,NA,Walnut Street Historic District,Alabama,Lauderdale,Florence,N. Walnut between Hermitage and Tuscaloosa,Listed,Single,FALSE,12,Architecture; Social History,District,https://catalog.archives.gov/id/77836557,FALSE,FALSE,FALSE,TRUE,FALSE,1976-12-12,NA,See Also: Walnut Street Historic District (Boundary Increase,NA,76000337,Walnut Street,"Walnut Street Historic District, Lauderdale, Alabama",34.80564,-87.6742
96000021,NA,Walnut Street Historic District (Boundary Increase Ii),Alabama,Lauderdale,Florence,Jct. of Poplar and Tuscaloosa Sts.,Listed,Single,FALSE,4,Architecture,District,https://catalog.archives.gov/id/77836543,FALSE,FALSE,FALSE,TRUE,FALSE,1996-02-16,NA,NA,NA,96000021,Walnut Street (Boundary Increase Ii),"Walnut Street Historic District (Boundary Increase Ii), Lauderdale, Alabama",34.80564,-87.6742
92001836,NA,Walnut Street Historic District (Boundary Increase),Alabama,Lauderdale,Florence,415--609 N. Poplar St. (odd numbers),Listed,Single,FALSE,5.5,Architecture,District,https://catalog.archives.gov/id/77836531,FALSE,FALSE,FALSE,TRUE,FALSE,1993-03-04,NA,See Also:Walnut Street Historic District,NA,92001836,Walnut Street (Boundary Increase),"Walnut Street Historic District (Boundary Increase), Lauderdale, Alabama",34.80564,-87.6742
78000493,NA,Wood Avenue Historic District,Alabama,Lauderdale,Florence,N Wood Ave. roughly bounded by Tuscaloosa and Hawthorne Sts.,Listed,Single,FALSE,25,Architecture,District,https://catalog.archives.gov/id/77836553,FALSE,FALSE,TRUE,FALSE,FALSE,1978-10-10,NA,NA,NA,78000493,Wood Avenue,"Wood Avenue Historic District, Lauderdale, Alabama",34.81648,-87.67753
97000656,NA,Wood Avenue Historic District (Boundary Increase Ii),Alabama,Lauderdale,Florence,"Roughly, along Kendrick Ave., and 633 Hermitage Dr.",Listed,Single,FALSE,5,Architecture,District,https://catalog.archives.gov/id/77836535,FALSE,FALSE,FALSE,TRUE,FALSE,1997-07-03,NA,see also:Wood Avenue Historic District;Wood Avenue Historic,NA,97000656,Wood Avenue (Boundary Increase Ii),"Wood Avenue Historic District (Boundary Increase Ii), Lauderdale, Alabama",34.81648,-87.67753
96000020,NA,Wood Avenue Historic District (Boundary Increase),Alabama,Lauderdale,Florence,"Roughly, along E. Hawthorne, Meridian and Kendrick Sts.",Listed,Single,FALSE,15,Architecture,District,https://catalog.archives.gov/id/77836545,FALSE,FALSE,FALSE,TRUE,FALSE,1996-02-16,NA,NA,NA,96000020,Wood Avenue (Boundary Increase),"Wood Avenue Historic District (Boundary Increase), Lauderdale, Alabama",34.81648,-87.67753
91000597,NA,Courtland Historic District,Alabama,Lawrence,Courtland,"Roughly bounded by Clinton, Madison, Van Buren, Jefferson, Ussery, Tennessee, Monroe and Academy Sts.",Listed,Single,FALSE,96,Community Planning And Development; Architecture,District,https://catalog.archives.gov/id/77836598,FALSE,FALSE,FALSE,TRUE,FALSE,1991-05-13,NA,NA,NA,91000597,Courtland,"Courtland Historic District, Lawrence, Alabama",34.66802,-87.30912
98000710,NA,Courtland Historic District (Boundary Increase),Alabama,Lawrence,Courtland,"Roughly bounded by Clinton, Madison, Van Buren, Jefferson, Ussery, Tennessee, Monroe and Academy Sts.",Listed,Single,FALSE,4,Community Planning And Development; Architecture,District,https://catalog.archives.gov/id/77836600,FALSE,FALSE,FALSE,TRUE,FALSE,1998-06-26,NA,See Also: Courtland Historic District,NA,98000710,Courtland (Boundary Increase),"Courtland Historic District (Boundary Increase), Lawrence, Alabama",34.66802,-87.30912
98001026,NA,Moulton Courthouse Square Historic District,Alabama,Lawrence,Moulton,"Roughly bounded by Lawrence, Main, Court, and Market Sts.",Listed,Single,FALSE,9,Architecture; Commerce; Politics/Government,District,https://catalog.archives.gov/id/77836592,FALSE,FALSE,FALSE,TRUE,FALSE,1998-08-14,NA,NA,NA,98001026,Moulton Courthouse Square,"Moulton Courthouse Square Historic District, Lawrence, Alabama",34.48111,-87.29189
76000338,NA,Auburn University Historic District,Alabama,Lee,Auburn,Auburn University campus,Listed,Single,FALSE,14.5,Education; Architecture,District,https://catalog.archives.gov/id/77836632,FALSE,FALSE,TRUE,FALSE,FALSE,1976-06-03,NA,Auburn University,NA,76000338,Auburn University,"Auburn University Historic District, Lee, Alabama",32.60504,-85.48266
87000981,NA,Geneva Street Historic District,Alabama,Lee,Opelika,"Roughly bounded by S. Seventh, Glenn, Stowe, Geneva, and S. Tenth Sts., and Ave. C",Listed,Single,FALSE,33.6,Architecture,District,https://catalog.archives.gov/id/77836608,FALSE,FALSE,FALSE,TRUE,FALSE,1987-09-15,NA,NA,NA,87000981,Geneva Street,"Geneva Street Historic District, Lee, Alabama",32.64125,-85.37578
73000352,NA,Loachapoka Historic District,Alabama,Lee,Loachapoka,Both sides of AL 14 in Loachapoka,Listed,Single,FALSE,567,Commerce; Agriculture; Transportation; Education; Politics/Government; Architecture,District,https://catalog.archives.gov/id/77836626,FALSE,FALSE,TRUE,FALSE,FALSE,1973-05-11,NA,NA,NA,73000352,Loachapoka,"Loachapoka Historic District, Lee, Alabama",32.6043,-85.59801
01001409,NA,Northside Historic District,Alabama,Lee,Opelika,"Roughly Bounded by 7th Ave., 3rd St., 2nd Ave., and N. 11th St.",Listed,Single,FALSE,120,Architecture,District,https://catalog.archives.gov/id/77836620,FALSE,FALSE,FALSE,TRUE,FALSE,2001-12-31,NA,NA,NA,01001409,Northside,"Northside Historic District, Lee, Alabama",32.652956,-85.386366
78003194,NA,Old Main And Church Street Historic District,Alabama,Lee,Auburn,"Roughly bounded by E. Drake Ave., Western RR of Alabama, N. Gay St., N. College St. and Bragg Ave. and Warrior Ct.",Listed,Single,FALSE,31,Education; Architecture,District,https://catalog.archives.gov/id/77836630,FALSE,FALSE,TRUE,FALSE,FALSE,1978-10-19,NA,NA,NA,78003194,Old Main And Church Street,"Old Main And Church Street Historic District, Lee, Alabama",32.61101,-85.48175
14000090,NA,Pepperell Mill And Mill Village Historic District,Alabama,Lee,Opelika,"Pepperell Pkwy., 28th St. N., 1st Ave. & 30th St. N.",Listed,Single,FALSE,134,Industry; Community Planning And Development; Architecture,District,NA,FALSE,FALSE,FALSE,TRUE,FALSE,2014-03-31,NA,NA,NA,14000090,Pepperell Mill And Mill Village,"Pepperell Mill And Mill Village Historic District, Lee, Alabama",32.63461,-85.42004
84000640,NA,Railroad Avenue Historic District,Alabama,Lee,Opelika,"Roughly bounded by 7th and 10th Sts., 1st Ave. and Ave. B",Listed,Single,FALSE,28.2,Commerce; Transportation; Architecture,District,https://catalog.archives.gov/id/77836628,FALSE,FALSE,FALSE,TRUE,FALSE,1984-08-30,NA,See Also:Lee County Courthouse;Old Post Office and Federal B,NA,84000640,Railroad Avenue,"Railroad Avenue Historic District, Lee, Alabama",32.64791,-85.37884
97001164,NA,Athens Courthouse Square Commercial Historic District,Alabama,Limestone,Athens,"Roughly bounded by Clinton, Hobbs, Madison, and Green Sts.",Listed,Single,FALSE,14,Transportation; Politics/Government; Commerce; Architecture,District,https://catalog.archives.gov/id/77836666,FALSE,FALSE,FALSE,TRUE,FALSE,1997-10-10,NA,NA,NA,97001164,Athens Courthouse Square Commercial,"Athens Courthouse Square Commercial Historic District, Limestone, Alabama",34.8031,-86.97162
85000254,NA,Athens State College Historic District,Alabama,Limestone,Athens,"202--212 and 311 N. Beaty St., central campus area roughly bounded by Beaty, Pryor and Hobbs Sts.",Listed,Single,FALSE,8.6,Education; Architecture,District,https://catalog.archives.gov/id/77836670,FALSE,FALSE,FALSE,TRUE,FALSE,1985-02-14,NA,Athens College,NA,85000254,Athens State College,"Athens State College Historic District, Limestone, Alabama",34.804871,-86.96512
89000943,NA,"Houston, George S., Historic District",Alabama,Limestone,Athens,"Roughly 2nd Ave., Jefferson St., McClellan St., Marion St., Hobbs St., Madison St., Washington St., and Houston St.",Listed,Single,FALSE,43,Architecture,District,https://catalog.archives.gov/id/77836656,FALSE,FALSE,FALSE,TRUE,FALSE,1989-07-20,NA,See Also:Houston Memorial Library,NA,89000943,"Houston, George S.,","Houston, George S., Historic District, Limestone, Alabama",34.80703,-86.97445
84000646,NA,Robert Beaty Historic District,Alabama,Limestone,Athens,"Roughly bounded by Louisville and Nashville RR, Forrest, East, and Washington Sts.",Listed,Single,FALSE,43.4,Exploration/Settlement; Architecture,District,https://catalog.archives.gov/id/77836664,FALSE,FALSE,FALSE,TRUE,FALSE,1984-08-30,NA,NA,NA,84000646,Robert Beaty,"Robert Beaty Historic District, Limestone, Alabama",34.79953,-86.96806
73000356,NA,Lowndesboro Historic District,Alabama,Lowndes,Lowndesboro,N of U.S. 80,Listed,Single,FALSE,1800,Agriculture; Architecture; Black,District,https://catalog.archives.gov/id/77836680,FALSE,FALSE,TRUE,FALSE,FALSE,1973-12-12,NA,NA,NA,73000356,Lowndesboro,"Lowndesboro Historic District, Lowndes, Alabama",32.27589,-86.61134
84000650,NA,Main Street Historic District,Alabama,Macon,Tuskegee,Main St.,Listed,Single,FALSE,70,Commerce; Education; Politics/Government; Architecture,District,https://catalog.archives.gov/id/77836696,FALSE,FALSE,FALSE,TRUE,FALSE,1984-03-12,NA,NA,NA,84000650,Main Street,"Main Street Historic District, Macon, Alabama",32.42406,-85.69088
85000445,NA,North Main Street Historic District,Alabama,Macon,Tuskegee,"600, 615, 616 N. Main, 101, 110 E. Water, 700 Water, 701 Maple and 811 N. Maple Sts.",Listed,Single,FALSE,7.8,Commerce; Education; Politics/Government; Architecture,District,https://catalog.archives.gov/id/77836688,FALSE,FALSE,FALSE,TRUE,FALSE,1985-03-07,NA,NA,NA,85000445,North Main Street,"North Main Street Historic District, Macon, Alabama",32.42903,-85.69523
01001407,NA,Alabama Agricultural And Mechanical University Historic District,Alabama,Madison,Normal,Chase Rd.,Listed,Single,FALSE,291,Education; Architecture; Community Planning And Development; Black,District,https://catalog.archives.gov/id/77836786,FALSE,FALSE,TRUE,FALSE,FALSE,2001-12-31,NA,Normal Hill College Historic District,NA,01001407,Alabama Agricultural And Mechanical University,"Alabama Agricultural And Mechanical University Historic District, Madison, Alabama",34.77899,-86.57235
11000406,NA,Dallas Mill Village Historic District,Alabama,Madison,Huntsville,"Dickson St. NE. to Russell St. NE., Rison Ave. NE. to Pratt Ave. NE.",Listed,Single,FALSE,66,Architecture; Community Planning And Development,District,https://catalog.archives.gov/id/77836752,FALSE,FALSE,FALSE,TRUE,FALSE,2011-06-27,NA,NA,NA,11000406,Dallas Mill Village,"Dallas Mill Village Historic District, Madison, Alabama",34.74247,-86.57861
100006659,SG,Edmonton Heights Historic District,Alabama,Madison,Huntsville,"3800-3822 Colton Ln. NE, 3802-3831 Crane Dr. NE, 3802-3811 Eton Rd. NE, 3812-3818 Melody Cir. NE, 3800-3836 Melody Rd. NE, 3800-3814 Meridian St. North, 200-303 Salem Dr. NE, 202-250 Victory Ln. NE, 100-125 Whitney Ave. NE, 100-199 Wilkenson Dr. NE",Listed,Single,FALSE,78,Architecture; Community Planning And Development; Ethnic Heritage-Black,District,NA,FALSE,FALSE,FALSE,TRUE,FALSE,2021-06-21,NA,NA,NA,100006659,Edmonton Heights,"Edmonton Heights Historic District, Madison, Alabama",34.777591,-86.566381
12000522,NA,Five Points Historic District,Alabama,Madison,Huntsville,"Roughly Beirne, Clinton, Eustis, Grayson, McCullough, Pratt, Randolph, Russell, Ward, Wellman, & Wells Aves.",Listed,Single,FALSE,131,Architecture; Community Planning And Development,District,https://catalog.archives.gov/id/77836778,FALSE,FALSE,FALSE,TRUE,FALSE,2012-08-20,NA,NA,NA,12000522,Five Points,"Five Points Historic District, Madison, Alabama",34.7200998,-86.7542176
04000562,NA,Gurley Historic District,Alabama,Madison,Gurley,"Section Line St., Rialroad St., Maple Blvd. and Church St. bet. Gurley Pike and Jackson St.",Listed,Single,FALSE,70,Architecture,District,https://catalog.archives.gov/id/77836732,FALSE,FALSE,FALSE,TRUE,FALSE,2004-06-02,NA,NA,NA,04000562,Gurley,"Gurley Historic District, Madison, Alabama",34.69989,-86.3732
10000200,NA,Lincoln Mill And Mill Village Historic District,Alabama,Madison,Huntsville,"Bounded by Meridian St., Oakwood Ave., Front St., Mountain View Dr., Davidson St., Cottage St, and King Ave.",Listed,Single,FALSE,52,Architecture; Community Planning And Development,District,https://catalog.archives.gov/id/77836780,FALSE,FALSE,FALSE,TRUE,FALSE,2010-04-26,NA,NA,NA,10000200,Lincoln Mill And Mill Village,"Lincoln Mill And Mill Village Historic District, Madison, Alabama",34.74806,-86.58219
06000185,NA,Madison Station Historic District,Alabama,Madison,Madison,"Roughly bounded by Wall Triana Hwy., Mill Rd., Church St., Maple St., Martin St., and Bradley St.",Listed,Single,FALSE,129,Transportation; Architecture,District,https://catalog.archives.gov/id/77836800,FALSE,FALSE,FALSE,TRUE,FALSE,2006-03-29,NA,NA,NA,06000185,Madison Station,"Madison Station Historic District, Madison, Alabama",34.69571,-86.74762
100004119,RS,Mcthornmor Acres Subdivision Historic District,Alabama,Madison,Huntsville,"Holmes Ave. NW, Brickell Rd. NW, Northington St. NW and Woodall Ln. NW",Listed,Resubmission,FALSE,90,Community Planning And Development; Architecture,District,NA,FALSE,FALSE,FALSE,TRUE,FALSE,2022-02-09,NA,NA,NA,100004119,Mcthornmor Acres Subdivision,"Mcthornmor Acres Subdivision Historic District, Madison, Alabama",34.7049776,-86.7509591
10000172,NA,Merrimack Mill Village Historic District,Alabama,Madison,Huntsville,"Alpine St., Triana Blvd., Dunn Dr., Cobb Rd., Drake Ave., & Grote St.",Listed,Single,FALSE,112,Community Planning And Development; Architecture,District,https://catalog.archives.gov/id/77836782,FALSE,FALSE,FALSE,TRUE,FALSE,2010-04-16,NA,NA,NA,10000172,Merrimack Mill Village,"Merrimack Mill Village Historic District, Madison, Alabama",34.70412,-86.61141
04000237,NA,New Market Historic District,Alabama,Madison,New Market,"Roughly bounded by Mountain Fork, College St., Davis St., Winchester Rd. to Cochran St., pts. Cochran St. & Cedar St.",Listed,Single,FALSE,450,Architecture,District,https://catalog.archives.gov/id/77836736,FALSE,FALSE,FALSE,TRUE,FALSE,2004-03-31,NA,NA,NA,04000237,New Market,"New Market Historic District, Madison, Alabama",34.90893,-86.42781
78000499,NA,Old Town Historic District,Alabama,Madison,Huntsville,"Roughly bounded by Dement and Lincoln Sts., and Randolph and Walker Aves.",Listed,Single,FALSE,94,Architecture,District,https://catalog.archives.gov/id/77836742,FALSE,FALSE,TRUE,FALSE,FALSE,1978-07-18,NA,NA,NA,78000499,Old Town,"Old Town Historic District, Madison, Alabama",34.73558,-86.58066
15000069,NA,Old Town Historic District (Boundary Increase & Additional Documentation),Alabama,Madison,Huntsville,"305, 309, 310 Dallas St. & 115, 118, 120 Walker Ave.",Listed,Single,FALSE,2,Architecture; Community Planning And Development,District,NA,FALSE,FALSE,FALSE,TRUE,FALSE,2015-03-17,NA,NA,NA,15000069,Old Town (Boundary Increase & Additional Documentation),"Old Town Historic District (Boundary Increase & Additional Documentation), Madison, Alabama",34.736127,-86.5810633
73000357,NA,Twickenham Historic District,Alabama,Madison,Huntsville,"Roughly bounded by Clinton Ave., California St., Newman Ave. and S. Green St., and Franklin St.",Listed,Single,FALSE,150,Architecture,District,https://catalog.archives.gov/id/77836716,FALSE,FALSE,TRUE,FALSE,FALSE,1973-01-04,NA,NA,NA,73000357,Twickenham,"Twickenham Historic District, Madison, Alabama",34.72957,-86.57834
14000045,NA,Twickenham Historic District (Boundary Increase & Additional Documentation),Alabama,Madison,Huntsville,"Roughly bounded by Clinton Ave., California St., Newman Ave., S. Green & Franklin St.",Listed,Single,FALSE,198,Architecture,District,NA,FALSE,FALSE,FALSE,TRUE,FALSE,2015-05-26,NA,NA,NA,14000045,Twickenham (Boundary Increase & Additional Documentation),"Twickenham Historic District (Boundary Increase & Additional Documentation), Madison, Alabama",34.7049776,-86.7509591
100010967,SG,Whitesburg Estates Historic District,Alabama,Madison,Huntsville,10101-10115 Cahaba Road SW 2100-2206 Chadburn Drive SW 1919-1928 Edenton Drive SW 1905-1930 Lynnbrook Drive SW 2100-2206 Manassas Drive SW 10100-10106 Memorial Parkway SW (even numbers only) 2114-2118 Mythewood Circle SW 2006-2119 Mythewood Drive SW 10100,Listed,Single,FALSE,103.89,Architecture; Community Planning And Development,District,NA,FALSE,FALSE,FALSE,TRUE,FALSE,2024-11-12,NA,NA,NA,100010967,Whitesburg Estates,"Whitesburg Estates Historic District, Madison, Alabama",34.716315904911,-86.576957162169
12001021,NA,Demopolis Historic District (Boundary Increase),Alabama,Marengo,Demopolis,"E. Gaines, N. Ash, W. Pettus, & S. Stewart Sts.",Listed,Single,FALSE,790,Architecture; Community Planning And Development,District,NA,FALSE,FALSE,FALSE,TRUE,FALSE,2014-01-10,NA,NA,NA,12001021,Demopolis (Boundary Increase),"Demopolis Historic District (Boundary Increase), Marengo, Alabama",32.51734,-87.83884
12001021,NA,Demopolis Historic District (Boundary Increase),Alabama,Marengo,Demopolis,"E. Gaines, N. Ash, W. Pettus, & S. Stewart Sts.",Listed,Single,FALSE,790,Architecture; Community Planning And Development,District,NA,FALSE,FALSE,FALSE,TRUE,FALSE,2014-01-10,NA,NA,NA,12001021,Demopolis (Boundary Increase),"Demopolis Historic District (Boundary Increase), Marengo, Alabama",32.51734,-87.83884
76000342,NA,Jefferson Historic District,Alabama,Marengo,Jefferson,AL 28,Listed,Single,FALSE,130,Architecture,District,https://catalog.archives.gov/id/77836812,FALSE,FALSE,TRUE,FALSE,FALSE,1976-11-13,NA,NA,NA,76000342,Jefferson,"Jefferson Historic District, Marengo, Alabama",32.38609,-87.89599
00001023,NA,Thomaston Central Historic District,Alabama,Marengo,Thomaston,"Roughly bounded by Chestnut St., Sixth Ave., Seventh Ave., Short St. and CSX RR.",Listed,Single,FALSE,40,Architecture; Community Planning And Development; Politics/Government,District,https://catalog.archives.gov/id/77836818,FALSE,FALSE,FALSE,TRUE,FALSE,2000-09-14,NA,NA,NA,00001023,Thomaston Central,"Thomaston Central Historic District, Marengo, Alabama",32.26769,-87.62546
12001022,NA,Downtown Guntersville Historic District,Alabama,Marshall,Guntersville,"Gunter & Blount Aves., Ringold & Scott Sts.",Listed,Single,FALSE,27.8,Architecture; Commerce,District,https://catalog.archives.gov/id/77836856,FALSE,FALSE,FALSE,TRUE,FALSE,2012-12-12,NA,NA,NA,12001022,Downtown Guntersville,"Downtown Guntersville Historic District, Marshall, Alabama",34.35889,-86.294
99000468,NA,Snead Junior College Historic District,Alabama,Marshall,Boaz,"220 N. Walnut St., 308 W. Mann Ave., 201 College Ave., and 300 and 301 Elder St.",Listed,Single,FALSE,5,Architecture; Education,District,https://catalog.archives.gov/id/77836858,FALSE,FALSE,FALSE,TRUE,FALSE,1999-04-22,NA,Snead State Community College,NA,99000468,Snead Junior College,"Snead Junior College Historic District, Marshall, Alabama",34.20061,-86.16874
12000990,NA,Africatown Historic District,Alabama,Mobile,Mobile,"Bounded by Jakes Ln., Paper Mill, & Warren Rds., Chin, & Railroad Sts.",Listed,Single,FALSE,921,Black; Historic - Non-Aboriginal,District,https://catalog.archives.gov/id/77837063,FALSE,TRUE,FALSE,FALSE,FALSE,2012-12-04,NA,NA,NA,12000990,Africatown,"Africatown Historic District, Mobile, Alabama",30.73527,-88.05878
87000935,NA,Ashland Place Historic District,Alabama,Mobile,Mobile,"Roughly bounded by Springhill and Ryan Aves., Old Shell Rd., and Levert Ave.",Listed,Single,FALSE,40,Community Planning And Development; Architecture,District,https://catalog.archives.gov/id/77836983,FALSE,FALSE,FALSE,TRUE,FALSE,1987-06-23,NA,NA,NA,87000935,Ashland Place,"Ashland Place Historic District, Mobile, Alabama",30.69046,-88.09428
16000400,NA,Automobile Alley Historic District,Alabama,Mobile,Mobile,"156-157 N. Cedar, 108 N. Dearborn, 100-101 N. Franklin, 156 N. Hamilton, 163 N. Lawrence, 453-701 St. Anthony Sts.",Listed,Single,FALSE,30,Architecture; Commerce,District,NA,FALSE,FALSE,FALSE,TRUE,FALSE,2016-06-22,NA,NA,NA,16000400,Automobile Alley,"Automobile Alley Historic District, Mobile, Alabama",30.69277,-88.0503
100009107,BC,Automobile Alley Historic District (Boundary Increase),Alabama,Mobile,Mobile,"752-54, 756, 762 St. Louis St.",Listed,Boundary,FALSE,0.86,Architecture; Commerce,District,NA,FALSE,FALSE,FALSE,TRUE,FALSE,2023-06-27,NA,NA,NA,16000400,Automobile Alley (Boundary Increase),"Automobile Alley Historic District (Boundary Increase), Mobile, Alabama",30.69277,-88.0503
89002452,NA,Barr's Subdivision Historic District,Alabama,Mobile,Citronelle,Roughly along US 45 and Howard St. between LeBaron and State,Listed,Single,FALSE,5.9,Community Planning And Development; Architecture,District,https://catalog.archives.gov/id/77837049,FALSE,FALSE,FALSE,TRUE,FALSE,1990-01-25,NA,NA,NA,89002452,Barr's Subdivision,"Barr's Subdivision Historic District, Mobile, Alabama",31.09246,-88.23888
89002424,NA,Central Core Historic District,Alabama,Mobile,Citronelle,Roughly State and Le Baron Sts. from Mobile to Second Sts.,Listed,Single,FALSE,69.9,Community Planning And Development; Architecture,District,https://catalog.archives.gov/id/77837053,FALSE,FALSE,FALSE,TRUE,FALSE,1990-01-25,NA,NA,NA,89002424,Central Core,"Central Core Historic District, Mobile, Alabama",31.09291,-88.23104
04000924,NA,Chickasaw Shipyard Village Historic District,Alabama,Mobile,Chickasaw,"Bounded by Jefferson St., Jackson St., Yeend Ave., and Chickasaw Creek",Listed,Single,FALSE,1200,Community Planning And Development; Industry; Other; Black; Architecture,District,https://catalog.archives.gov/id/77837055,FALSE,TRUE,FALSE,FALSE,FALSE,2004-09-03,NA,NA,NA,04000924,Chickasaw Shipyard Village,"Chickasaw Shipyard Village Historic District, Mobile, Alabama",30.76369,-88.07451
71000102,NA,Church Street East Historic District,Alabama,Mobile,Mobile,"Roughly bounded by Conti, Water and Claiborne, Eslava, and Warren and Bayou Sts.",Listed,Single,FALSE,93.2,Architecture,District,https://catalog.archives.gov/id/77837003,FALSE,TRUE,FALSE,FALSE,FALSE,1971-12-16,NA,See Also:71000103;69000033;70000107;Southern Market-Mobile C,NA,71000102,Church Street East,"Church Street East Historic District, Mobile, Alabama",30.68808,-88.04575
05000289,NA,Church Street East Historic District (Boundary Increase Ii),Alabama,Mobile,Mobile,66 and 68 S. Royal St.,Listed,Single,FALSE,0.9,Architecture,District,https://catalog.archives.gov/id/77836945,FALSE,TRUE,FALSE,FALSE,FALSE,2005-04-20,NA,NA,NA,05000289,Church Street East (Boundary Increase Ii),"Church Street East Historic District (Boundary Increase Ii), Mobile, Alabama",30.68808,-88.04575
84000663,NA,Church Street East Historic District (Boundary Increase),Alabama,Mobile,Mobile,"Roughly bounded by Broad, Conti, Water, Claiborne, and Canal Sts.",Listed,Single,FALSE,47,Architecture,District,https://catalog.archives.gov/id/77836913,FALSE,FALSE,FALSE,TRUE,FALSE,1984-01-13,NA,NA,NA,84000663,Church Street East (Boundary Increase),"Church Street East Historic District (Boundary Increase), Mobile, Alabama",30.68808,-88.04575
89002421,NA,Citronelle Railroad Historic District,Alabama,Mobile,Citronelle,Roughly Center and Main from Union to Faye,Listed,Single,FALSE,42.3,Community Planning And Development; Architecture,District,https://catalog.archives.gov/id/77837051,FALSE,FALSE,FALSE,TRUE,FALSE,1990-01-25,NA,NA,NA,89002421,Citronelle Railroad,"Citronelle Railroad Historic District, Mobile, Alabama",31.08711,-88.22749
72000169,NA,De Tonti Square Historic District,Alabama,Mobile,Mobile,"Roughly bounded by Adams, St. Anthony, Claiborne, and Conception Sts.",Listed,Single,FALSE,28,Architecture,District,https://catalog.archives.gov/id/77837031,FALSE,FALSE,FALSE,TRUE,FALSE,1972-02-07,NA,NA,NA,72000169,De Tonti Square,"De Tonti Square Historic District, Mobile, Alabama",30.696,-88.0473
90000918,NA,Grand Bay Historic District,Alabama,Mobile,Grand Bay,Jct. of Dezauche Ln. and Freeland,Listed,Single,FALSE,1.2,Commerce,District,https://catalog.archives.gov/id/77837041,FALSE,FALSE,FALSE,TRUE,FALSE,1990-06-28,NA,NA,NA,90000918,Grand Bay,"Grand Bay Historic District, Mobile, Alabama",30.47592,-88.34219
14001004,NA,Lafayette Heights Historic District,Alabama,Mobile,Mobile,"Bounded by Dr. Martin Luther King Jr. & Spring Hill Aves., Rylands & Basil Sts.",Listed,Single,FALSE,141,Architecture; Historic - Non-Aboriginal,District,NA,FALSE,FALSE,FALSE,TRUE,FALSE,2014-12-10,NA,NA,NA,14001004,Lafayette Heights,"Lafayette Heights Historic District, Mobile, Alabama",30.69939,-88.06922
87000936,NA,Leinkauf Historic District,Alabama,Mobile,Mobile,"Roughly bounded by Government, S. Monterey, Eslava, Lamar, and S. Monterey Sts.",Listed,Single,FALSE,110,Community Planning And Development; Architecture,District,https://catalog.archives.gov/id/77836987,FALSE,FALSE,FALSE,TRUE,FALSE,1987-06-24,NA,NA,NA,87000936,Leinkauf,"Leinkauf Historic District, Mobile, Alabama",30.67689,-88.07273
79000392,NA,Lower Dauphin Street Historic District,Alabama,Mobile,Mobile,171--614 Dauphin St.,Listed,Single,FALSE,17,Commerce; Architecture,District,https://catalog.archives.gov/id/77836971,FALSE,FALSE,TRUE,FALSE,FALSE,1979-02-09,NA,Dauphin Street Downtown;See Also:Church Street East Historic,NA,79000392,Lower Dauphin Street,"Lower Dauphin Street Historic District, Mobile, Alabama",30.69029,-88.0464
82002059,NA,Lower Dauphin Street Historic District (Boundary Increase),Alabama,Mobile,Mobile,Dauphin St. from Water to Dearborn Ave.,Listed,Single,FALSE,8,Commerce; Architecture,District,https://catalog.archives.gov/id/77836969,FALSE,FALSE,TRUE,FALSE,FALSE,1982-02-19,NA,Lower Dauphin Street Commercial District;Dauphin Street;See,NA,82002059,Lower Dauphin Street (Boundary Increase),"Lower Dauphin Street Historic District (Boundary Increase), Mobile, Alabama",30.69029,-88.0464
13000959,NA,Maysville Historic District,Alabama,Mobile,Mobile,"Bounded by Virginia, Ann, Duval & Houston Sts.",Listed,Single,FALSE,451,Architecture; Historic - Non-Aboriginal,District,NA,FALSE,FALSE,FALSE,TRUE,FALSE,2013-12-25,NA,NA,NA,13000959,Maysville,"Maysville Historic District, Mobile, Alabama",30.66923,-88.07676
01001293,NA,Midtown Historic District,Alabama,Mobile,Mobile,"Roughly bounded by Taylor Ave., US 90, Houston St., Kenneth St., US 98, and Florida St.",Listed,Single,FALSE,467,Community Planning And Development; Architecture,District,https://catalog.archives.gov/id/77837047,FALSE,FALSE,FALSE,TRUE,FALSE,2001-11-29,NA,NA,NA,01001293,Midtown,"Midtown Historic District, Mobile, Alabama",30.68332,-88.07842
100005805,BC,Midtown Historic District (Boundary Increase),Alabama,Mobile,Mobile,2401-2403 and 2407 Old Shell Rd.,Listed,Boundary,FALSE,1.05,Community Planning And Development; Architecture,District,https://catalog.archives.gov/id/77837047,FALSE,FALSE,FALSE,TRUE,FALSE,2020-11-18,NA,NA,NA,01001293,Midtown (Boundary Increase),"Midtown Historic District (Boundary Increase), Mobile, Alabama",30.68332,-88.07842
14001005,NA,Oakdale Historic District,Alabama,Mobile,Mobile,"Bounded by I-10, Preston Ave., Virginia & Ann Sts.",Listed,Single,FALSE,511,Architecture,District,NA,FALSE,FALSE,FALSE,TRUE,FALSE,2014-12-10,NA,NA,NA,14001005,Oakdale,"Oakdale Historic District, Mobile, Alabama",30.66618,-88.06306
72000171,NA,Oakleigh Garden Historic District,Alabama,Mobile,Mobile,"Roughly bounded by Government, Marine, Texas, and Ann Sts.",Listed,Single,FALSE,111.3,Architecture; Social History,District,https://catalog.archives.gov/id/77836989,FALSE,FALSE,TRUE,FALSE,FALSE,1972-04-13,NA,Washington Square;See Also:Oakleigh Garden Historic District,NA,72000171,Oakleigh Garden,"Oakleigh Garden Historic District, Mobile, Alabama",30.681,-88.06051
16000863,NA,Oakleigh Garden Historic District (Boundary Decrease & Additional Documentation),Alabama,Mobile,Mobile,"Government, Broad, Texas & S. Ann Sts.",Listed,Single,FALSE,145,Architecture; Landscape Architecture,District,NA,FALSE,FALSE,TRUE,FALSE,FALSE,2016-12-20,NA,NA,NA,16000863,Oakleigh Garden (Boundary Decrease & Additional Documentation),"Oakleigh Garden Historic District (Boundary Decrease & Additional Documentation), Mobile, Alabama",30.681,-88.06051
90002175,NA,Oakleigh Garden Historic District (Boundary Increase),Alabama,Mobile,Mobile,"Roughly bounded by Selma St., Broad St., Texas St. and Rapier Ave.",Listed,Single,FALSE,34,Landscape Architecture; Architecture,District,https://catalog.archives.gov/id/77837007,FALSE,FALSE,FALSE,TRUE,FALSE,1991-01-30,NA,Oakleigh Garden District;See Also:Oakleigh Garden Historic D,NA,90002175,Oakleigh Garden (Boundary Increase),"Oakleigh Garden Historic District (Boundary Increase), Mobile, Alabama",30.681,-88.06051
84000686,NA,Old Dauphin Way Historic District,Alabama,Mobile,Mobile,"Roughly bounded by Springhill Ave., Broad, Goverment, and Houston Sts.",Listed,Single,FALSE,766,Community Planning And Development; Architecture,District,https://catalog.archives.gov/id/77836985,FALSE,FALSE,FALSE,TRUE,FALSE,1984-08-30,NA,See Also:Protestant Children's Home;Gates-Davies House;Commo,NA,84000686,Old Dauphin Way,"Old Dauphin Way Historic District, Mobile, Alabama",30.6873,-88.06863
100007800,BC,Old Dauphin Way Historic District (Boundary Increase),Alabama,Mobile,Mobile,1200 Springhill Ave.,Listed,Boundary,FALSE,2,Community Planning And Development; Architecture,District,https://catalog.archives.gov/id/77836985,FALSE,FALSE,FALSE,TRUE,FALSE,2022-06-17,NA,NA,NA,84000686,Old Dauphin Way (Boundary Increase),"Old Dauphin Way Historic District (Boundary Increase), Mobile, Alabama",30.6873,-88.06863
09000606,NA,Monroeville Downtown Historic District,Alabama,Monroe,Monroeville,"Parts of N. and S. Alabama Aves., E. and W. Claiborne St., N. and S. Monut Pleasant Aves., Pineville Rd.",Listed,Single,FALSE,40,Architecture; Commerce,District,https://catalog.archives.gov/id/77837083,FALSE,FALSE,FALSE,TRUE,FALSE,2009-09-16,NA,NA,NA,09000606,Monroeville Downtown,"Monroeville Downtown Historic District, Monroe, Alabama",31.52663,-87.32386
98001228,NA,Alabama State University Historic District,Alabama,Montgomery,Montgomery,915 S. Jackson St.,Listed,Single,FALSE,26,Education; Black; Architecture,District,https://catalog.archives.gov/id/77837189,FALSE,FALSE,TRUE,FALSE,FALSE,1998-10-08,NA,State Teachers College,NA,98001228,Alabama State University,"Alabama State University Historic District, Montgomery, Alabama",32.36418,-86.29733
