"","ref_number","prefix","property_name","state","county","city","street_number","status","request_type","restricted_address","acreage_of_property","area_of_significance","category_of_property","external_link","level_of_significance_international","level_of_significance_national","level_of_significance_state","level_of_significance_local","level_of_significance_not_indicated","listed_date","nhl_designated_date","other_names","park_name","property_id","district_name","address","latitude","longitude"
"1","12000425",NA,"Hunters Point Commercial Drydock Historic District","California","San Francisco","San Francisco","E. of jct. of Fisher Ave. & Robinson Dr.","Listed","Single",FALSE,19,"Commerce; Industry; Engineering; Architecture","District","https://catalog.archives.gov/id/123861175",FALSE,FALSE,TRUE,FALSE,FALSE,2012-07-25,NA,"U.S. Naval Shipyard, Hunters Point; San Francisco Naval Shipyard",NA,"12000425","Hunters Point Commercial Drydock","Hunters Point Commercial Drydock Historic District, San Francisco, California",37.725246,-122.368661
"2","71000186",NA,"Jackson Square Historic District","California","San Francisco","San Francisco","Roughly bounded by Broadway on N, Sansome St. on E, Washington St. on S, and Columbus Ave. on W","Listed","Single",FALSE,14.2,"Commerce; Architecture","District","https://catalog.archives.gov/id/123861181",FALSE,FALSE,FALSE,TRUE,FALSE,1971-11-18,NA,NA,NA,"71000186","Jackson Square","Jackson Square Historic District, San Francisco, California",37.79687,-122.40303
"3","83001230",NA,"Liberty Street Historic District","California","San Francisco","San Francisco","Roughly 15-188 Liberty St.","Listed","Single",FALSE,4,"Architecture","District","https://catalog.archives.gov/id/123861194",FALSE,FALSE,FALSE,TRUE,FALSE,1983-09-15,NA,NA,NA,"83001230","Liberty Street","Liberty Street Historic District, San Francisco, California",37.75743,-122.4233
"4","06000372",NA,"Port Of San Francisco Embarcadero Historic District","California","San Francisco","San Francisco","From Pier 45 to Pier 48, The Embarcadero","Listed","Single",FALSE,60,"Politics/Government; Commerce; Transportation; Architecture; Community Planning And Development; Engineering","District","https://catalog.archives.gov/id/123861257",FALSE,TRUE,FALSE,FALSE,FALSE,2006-05-12,NA,NA,NA,"06000372","Port Of San Francisco Embarcadero","Port Of San Francisco Embarcadero Historic District, San Francisco, California",37.8005179,-122.3984923
"5","78000757",NA,"San Francisco Civic Center Historic District","California","San Francisco","San Francisco","Roughly bounded by Golden Gate Ave., 7th, Franklin, Hayes, and Market Sts.","Listed","Single",FALSE,45.6,"Community Planning And Development; Landscape Architecture; Art; Entertainment/Recreation; Politics/Government; Architecture; Social History","District","https://catalog.archives.gov/id/123861280",FALSE,TRUE,FALSE,FALSE,FALSE,1978-10-10,1987-02-27,"San Francisco Civic Center National Historic Landmark",NA,"78000757","San Francisco Civic Center","San Francisco Civic Center Historic District, San Francisco, California",37.77937,-122.41775
"6","08000085",NA,"Senior Officers Quarters Historic District, Yerba Buena Island","California","San Francisco","Yerba Buena Island","Whiting Way at Northgate Rd., North shore of Yerba Buena Island","Listed","Single",FALSE,3,"Military; Architecture","District","https://catalog.archives.gov/id/123861303",FALSE,FALSE,FALSE,TRUE,FALSE,2008-02-26,NA,"Senoir Officers' Quarters Historic District; National Station Treasure Island",NA,"08000085","Senior Officers Quarters, Yerba Buena Island","Senior Officers Quarters Historic District, Yerba Buena Island, San Francisco, California",37.7800771,-122.4201615
"7","89000319",NA,"Southern Pacific Company Hospital Historic District","California","San Francisco","San Francisco","1400 Fell St.","Listed","Single",FALSE,2.5,"Transportation; Health/Medicine; Architecture","District","https://catalog.archives.gov/id/123861311",FALSE,FALSE,TRUE,FALSE,FALSE,1989-05-05,NA,NA,NA,"89000319","Southern Pacific Company Hospital","Southern Pacific Company Hospital Historic District, San Francisco, California",37.7741,-122.44192
"8","100007846","SG","St. Francis Wood Historic District","California","San Francisco","San Francisco","Bounded by Portola Dr., San Pablo and Santa Paula Aves., San Jacinto Way, San Andreas Way, Junipero Serra and Monterey Blvds.","Listed","Single",FALSE,127,"Architecture; Community Planning And Development; Landscape Architecture","District",NA,FALSE,FALSE,FALSE,TRUE,FALSE,2022-06-30,NA,NA,NA,"100007846","St. Francis Wood","St. Francis Wood Historic District, San Francisco, California",37.736691,-122.466078
"9","14000150",NA,"Union Iron Works Historic District","California","San Francisco","San Francisco","E. of Illinois between 18th & 22nd Sts.","Listed","Single",FALSE,66,"Maritime History; Industry; Architecture","District",NA,FALSE,TRUE,FALSE,TRUE,FALSE,2014-04-17,NA,"Potero Works, Union Yard, Bethlehem Steel Yard; Potrero Yard, San Francisco Yard",NA,"14000150","Union Iron Works","Union Iron Works Historic District, San Francisco, California",37.76196,-122.38569
"10","08001407",NA,"Uptown Tenderloin Historic District","California","San Francisco","San Francisco","All or part of 33 blocks roughly bounded by Market, McAllister, Golden Gate, Larkin, Geary, Taylor, Ellis Sts.","Listed","Single",FALSE,110,"Architecture; Social History","District","https://catalog.archives.gov/id/123861345",FALSE,FALSE,FALSE,TRUE,FALSE,2009-02-05,NA,"Tenderloin",NA,"08001407","Uptown Tenderloin","Uptown Tenderloin Historic District, San Francisco, California",37.78394,-122.41744
"11","100000783","SG","Halcyon Historic District","California","San Luis Obispo","Halcyon","Bounded by Halcyon Rd., The Pike and CA 1/Cienega St.","Listed","Single",FALSE,130,"Community Planning And Development; Exploration/Settlement; Philosophy; Religion; Social History","District",NA,FALSE,FALSE,FALSE,TRUE,FALSE,2017-03-27,NA,NA,NA,"100000783","Halcyon","Halcyon Historic District, San Luis Obispo, California",35.088405966666,-120.59164322126
"12","04000328",NA,"Folger Estate Stable Historic District","California","San Mateo","Woodside","4040 Woodside Rd.","Listed","Single",FALSE,3,"Architecture; Entertainment/Recreation","District","https://catalog.archives.gov/id/123861508",FALSE,FALSE,FALSE,TRUE,FALSE,2004-04-16,NA,"Jones Ranch",NA,"04000328","Folger Estate Stable","Folger Estate Stable Historic District, San Mateo, California",37.5471509,-122.3144005
"13","73000449",NA,"Alviso Historic District","California","Santa Clara","Alviso","Boundaries unknown at this time","Listed","Single",FALSE,9,"Transportation","District","https://catalog.archives.gov/id/123861641",FALSE,FALSE,TRUE,FALSE,FALSE,1973-10-09,NA,"Embarcadero de Santa Clara",NA,"73000449","Alviso","Alviso Historic District, Santa Clara, California",37.34874488647,-121.940746584827
"14","89001048",NA,"Campbell Union High School Historic District","California","Santa Clara","Campbell","1 W. Campbell Ave.","Listed","Single",FALSE,3.5,"Education; Architecture","Building","https://catalog.archives.gov/id/123861651",FALSE,FALSE,FALSE,TRUE,FALSE,1989-08-17,NA,NA,NA,"89001048","Campbell Union High School","Campbell Union High School Historic District, Santa Clara, California",37.28883,-121.95107
"15","13000181",NA,"Hakone Historic District","California","Santa Clara","Saratoga","21000 Big Basin Way","Listed","Single",FALSE,16,"Asian; Landscape Architecture; Architecture","District",NA,FALSE,FALSE,FALSE,TRUE,FALSE,2013-04-23,NA,"Hakone; Hakone Gardens; Hakone Estate and Gardens",NA,"13000181","Hakone","Hakone Historic District, Santa Clara, California",37.336133,-121.894001
"16","83001238",NA,"Hensley Historic District","California","Santa Clara","San Jose","Roughly bounded by Julian, 1st, 7th, and Empire Sts.","Listed","Single",FALSE,59,"Historic - Non-Aboriginal; Exploration/Settlement; Architecture","District","https://catalog.archives.gov/id/123861697",FALSE,FALSE,FALSE,TRUE,FALSE,1983-06-21,NA,NA,NA,"83001238","Hensley","Hensley Historic District, Santa Clara, California",37.34494,-121.89051
"17","100000470","SG","Nasa Ames Wind Tunnel Historic District","California","Santa Clara","Moffett Field","NASA Ames Research Center","Listed","Single",FALSE,46.3,"Engineering; Science; Invention","District",NA,FALSE,TRUE,FALSE,FALSE,FALSE,2017-01-11,NA,NA,NA,"100000470","Nasa Ames Wind Tunnel","Nasa Ames Wind Tunnel Historic District, Santa Clara, California",37.352395,-121.953076
"18","80000861",NA,"Professorville Historic District","California","Santa Clara","Palo Alto","Roughly bounded by Embarcadero Rd., Addison Ave., Emerson and Cowper Sts.","Listed","Single",FALSE,34.4,"Community Planning And Development; Landscape Architecture; Architecture","District","https://catalog.archives.gov/id/123861766",FALSE,FALSE,FALSE,TRUE,FALSE,1980-10-03,NA,NA,NA,"80000861","Professorville","Professorville Historic District, Santa Clara, California",37.44161,-122.15413
"19","83003822",NA,"San Jose Downtown Historic District","California","Santa Clara","San Jose","E. Santa Clara, South First, Second, Third and E. San Fernando Sts.","Listed","Single",FALSE,0.4,"Commerce; Architecture","District","https://catalog.archives.gov/id/123861780",FALSE,FALSE,FALSE,TRUE,FALSE,1983-05-26,NA,"San Jose Commercial District",NA,"83003822","San Jose Downtown","San Jose Downtown Historic District, Santa Clara, California",37.33633,-121.88773
"20","79000546",NA,"St. James Square Historic District","California","Santa Clara","San Jose","Roughly bounded by N. 1st, N. 4th, E. St. James, and E. St. John Sts.","Listed","Single",FALSE,7.7,"Community Planning And Development; Landscape Architecture; Exploration/Settlement; Architecture","District","https://catalog.archives.gov/id/123861799",FALSE,FALSE,FALSE,TRUE,FALSE,1979-11-27,NA,"St. James Park",NA,"79000546","St. James Square","St. James Square Historic District, Santa Clara, California",37.33883,-121.89107
"21","94000045",NA,"Us Naval Air Station Sunnyvale, California, Historic District","California","Santa Clara","Sunnyvale","Naval Air Station Moffett Field","Listed","Single",FALSE,124,"Engineering; Military; Architecture","District","https://catalog.archives.gov/id/123861812",FALSE,TRUE,FALSE,FALSE,FALSE,1994-02-24,NA,"US Naval Air Station Moffett Field Central Historic District",NA,"94000045","Us Naval Air Station Sunnyvale, California,","Us Naval Air Station Sunnyvale, California, Historic District, Santa Clara, California",37.3736764,-122.0365719
"22","07001220",NA,"Cowell Lime Works Historic District","California","Santa Cruz","Santa Cruz","University of California, Santa Cruz campus; High St. and Glen Coolidge Dr.","Listed","Single",FALSE,32,"Industry","District","https://catalog.archives.gov/id/123861849",FALSE,FALSE,FALSE,TRUE,FALSE,2007-11-21,NA,"Davis and Jordan Lime Company; Davis and Cowell Lime Company; Henry Cowell Company; Henry Cowell Lime &amp; Cement Company",NA,"07001220","Cowell Lime Works","Cowell Lime Works Historic District, Santa Cruz, California",36.98,-122.0543
"23","76000530",NA,"Mission Hill Area Historic District","California","Santa Cruz","Santa Cruz","Mission St.","Listed","Single",FALSE,38,"Community Planning And Development; Landscape Architecture; Historic - Aboriginal; Commerce; Agriculture; Military; Education; Exploration/Settlement; Politics/Government; Architecture","District","https://catalog.archives.gov/id/123861879",FALSE,FALSE,TRUE,FALSE,FALSE,1976-05-17,NA,NA,NA,"76000530","Mission Hill Area","Mission Hill Area Historic District, Santa Cruz, California",36.97106,-122.03024
"24","87000626",NA,"Old Riverview Historic District","California","Santa Cruz","Capitola","Blue Gum Ave., Capitola Ave., Riverview Ave., Riverview Dr., and Wharf Rd.","Listed","Single",FALSE,13.8,"Entertainment/Recreation; Exploration/Settlement; Architecture","District","https://catalog.archives.gov/id/123861885",FALSE,FALSE,FALSE,TRUE,FALSE,1988-01-22,NA,NA,NA,"87000626","Old Riverview","Old Riverview Historic District, Santa Cruz, California",36.97439,-121.95385
"25","89001005",NA,"Santa Cruz Downtown Historic District","California","Santa Cruz","Santa Cruz","Roughly Rincon St., Church St., Chestnut St., Walnut St., Cedar St., Laurel St., Myrtle St., and Lincoln St.","Listed","Single",FALSE,52,"Exploration/Settlement; Architecture","District","https://catalog.archives.gov/id/123861896",FALSE,FALSE,FALSE,TRUE,FALSE,1989-07-27,NA,"Downtown Neighborhood",NA,"89001005","Santa Cruz Downtown","Santa Cruz Downtown Historic District, Santa Cruz, California",36.97106,-122.03024
"26","87000623",NA,"Six Sisters-Lawn Way Historic District","California","Santa Cruz","Capitola","Roughly bounded by San Jose Ave., Capitola Ave., and Esplanade","Listed","Single",FALSE,0.9,"Entertainment/Recreation; Architecture","District","https://catalog.archives.gov/id/123861900",FALSE,FALSE,FALSE,TRUE,FALSE,1987-05-01,NA,NA,NA,"87000623","Six Sisters-Lawn Way","Six Sisters-Lawn Way Historic District, Santa Cruz, California",36.97301,-121.95163
"27","73000456",NA,"Cottonwood Historic District","California","Shasta","Cottonwood","Off US 99","Listed","Single",FALSE,9,"Commerce; Architecture","District","https://catalog.archives.gov/id/123861916",FALSE,FALSE,FALSE,TRUE,FALSE,1973-07-16,NA,NA,NA,"73000456","Cottonwood","Cottonwood Historic District, Shasta, California",40.38571,-122.28084
"28","72000257",NA,"French Gulch Historic District","California","Shasta","French Gulch","Along both sides of French Gulch Rd.","Listed","Single",FALSE,180,"Industry; Social History","District","https://catalog.archives.gov/id/123861920",FALSE,FALSE,TRUE,FALSE,FALSE,1972-03-24,NA,"French Gulch",NA,"72000257","French Gulch","French Gulch Historic District, Shasta, California",40.70543,-122.63863
"29","06000527",NA,"Lassen Volcanic National Park Highway Historic District","California","Shasta","Mineral","NPS Route 1, CA 89","Listed","Multiple",FALSE,290,"Entertainment/Recreation; Architecture; Landscape Architecture; Community Planning And Development","District","https://catalog.archives.gov/id/123857804",FALSE,FALSE,TRUE,TRUE,FALSE,2006-06-23,NA,"NPS Route 1; Lassen Loop Highway; Lassen Peak Highway; State Route 89","Lassen Volcanic","06000527","Lassen Volcanic National Park Highway","Lassen Volcanic National Park Highway Historic District, Shasta, California",40.484009,-121.425181
"30","06000525",NA,"Manzanita Lake Naturalist's Services Historic District","California","Shasta","Shingletown","39489 CA 44","Listed","Multiple",FALSE,85,"Entertainment/Recreation; Science; Conservation; Architecture","District","https://catalog.archives.gov/id/123857806",FALSE,FALSE,TRUE,FALSE,FALSE,2006-06-23,NA,NA,"Lassen Volcanic","06000525","Manzanita Lake Naturalist's Services","Manzanita Lake Naturalist's Services Historic District, Shasta, California",40.53613,-121.56226
"31","72000258",NA,"West Miner Street-Third Street Historic District","California","Siskiyou","Yreka","102-402 W. Miner St. and 122-419 3rd St.","Listed","Single",FALSE,16.4,"Commerce; Architecture","District","https://catalog.archives.gov/id/123861991",FALSE,FALSE,FALSE,TRUE,FALSE,1972-12-11,NA,"Miner Street-Third Street",NA,"72000258","West Miner Street-Third Street","West Miner Street-Third Street Historic District, Siskiyou, California",41.73153,-122.63614
"32","96001058",NA,"Mare Island Historic District(Boundary Increase)","California","Solano","Vallejo","Roughly bounded by Mare Island Straight, Causeway St., Cedar Ave., Mesa Rd., Ribeiro Rd., and Tyler Rd.","Listed","Single",FALSE,980,"Military; Architecture; Engineering; Historic - Non-Aboriginal","District","https://catalog.archives.gov/id/123862015",FALSE,TRUE,FALSE,FALSE,FALSE,1997-01-21,NA,"Mare Island Naval Shipyard",NA,"96001058","Mare Island(Boundary Increase)","Mare Island Historic District(Boundary Increase), Solano, California",38.08957,-122.267214
"33","12000402",NA,"Sacramento Northern Railway Historic District","California","Solano","Suisun City","5848 CA 12","Listed","Single",FALSE,NA,"Transportation; Engineering; Architecture; Commerce; Education","District","https://catalog.archives.gov/id/123862025",FALSE,FALSE,FALSE,TRUE,FALSE,2012-07-11,NA,"Western Railway Museum",NA,"12000402","Sacramento Northern Railway","Sacramento Northern Railway Historic District, Solano, California",38.261156241492,-122.011777082489
"34","03001168",NA,"Saint Vincent's Hill Historic District","California","Solano","Vallejo","Roughly bounded by Mare Island Way almost to Sonoma Blvd. and from Quincy Alley to Kissel Alley","Listed","Single",FALSE,NA,"Social History; Architecture","District","https://catalog.archives.gov/id/123862027",FALSE,FALSE,FALSE,TRUE,FALSE,2003-11-21,NA,NA,NA,"03001168","Saint Vincent's Hill","Saint Vincent's Hill Historic District, Solano, California",38.26692,-121.94001
"35","73000460",NA,"Vallejo Old City Historic District","California","Solano","Vallejo","Sonoma Blvd., and Monterey, Carolina, and York Sts.","Listed","Single",FALSE,80,"Architecture","District","https://catalog.archives.gov/id/123862039",FALSE,TRUE,FALSE,FALSE,FALSE,1973-03-20,NA,"Frisbee Grant",NA,"73000460","Vallejo Old City","Vallejo Old City Historic District, Solano, California",38.10409,-122.24969
"36","14000307",NA,"Pond Farm Pottery Historic District","California","Sonoma","Guerneville","17000 Armstrong Woods Rd.","Listed","Single",FALSE,35,"Art; Education; Social History","District",NA,FALSE,TRUE,FALSE,FALSE,FALSE,2014-06-17,NA,"Pond Farm Workshops; Pond Farm; Walker Ranch; Rancho Del Lago",NA,"14000307","Pond Farm Pottery","Pond Farm Pottery Historic District, Sonoma, California",38.291962,-122.458003
"37","84001219",NA,"Helena Historic District","California","Trinity","Helena","N of U.S. 299 W, on North Fork of Trinity River","Listed","Single",FALSE,43,"Historic - Aboriginal; Historic - Non-Aboriginal; Exploration/Settlement; Architecture","District","https://catalog.archives.gov/id/123862199",FALSE,FALSE,FALSE,TRUE,FALSE,1984-05-24,NA,"Helena Townsite",NA,"84001219","Helena","Helena Historic District, Trinity, California",40.77348,-123.12864
"38","88000550",NA,"Lewiston Historic District","California","Trinity","Lewiston","Roughly Deadwood, Turnpike, and Schoolhouse Rds.","Listed","Single",FALSE,15,"Commerce; Transportation; Architecture","District","https://catalog.archives.gov/id/123862201",FALSE,FALSE,FALSE,TRUE,FALSE,1989-04-17,NA,"Lewiston",NA,"88000550","Lewiston","Lewiston Historic District, Trinity, California",40.70737,-122.80697
"39","71000209",NA,"Weaverville Historic District","California","Trinity","Weaverville","Both sides of Main St.","Listed","Single",FALSE,11,"Commerce; Social History","District","https://catalog.archives.gov/id/123862203",FALSE,FALSE,TRUE,FALSE,FALSE,1971-10-14,NA,"Weaverville",NA,"71000209","Weaverville","Weaverville Historic District, Trinity, California",40.7332,-122.94086
"40","72000263",NA,"Allensworth Historic District","California","Tulare","Allensworth And","Town of Allensworth and its environs along CA 43","Listed","Single",FALSE,60,"Agriculture; Military; Black; Education; Politics/Government; Religion; Social History","District","https://catalog.archives.gov/id/123862205",FALSE,FALSE,TRUE,FALSE,FALSE,1972-02-23,NA,"Allensworth",NA,"72000263","Allensworth","Allensworth Historic District, Tulare, California",35.86384,-119.38706
"41","78000287",NA,"Giant Forest Lodge Historic District","California","Tulare","Three River","NE of Three Rivers in Sequoia National Park","Listed","Single",FALSE,4.5,"Landscape Architecture; Conservation; Entertainment/Recreation; Architecture","District","https://catalog.archives.gov/id/123862223",FALSE,FALSE,TRUE,FALSE,FALSE,1978-05-05,NA,"Camp Sierra",NA,"78000287","Giant Forest Lodge","Giant Forest Lodge Historic District, Tulare, California",36.201553,-119.3447
"42","78000311",NA,"Giant Forest Village-Camp Kaweah Historic District","California","Tulare","Three Rivers","N of Three Rivers in Sequoia National Park","Listed","Single",FALSE,4.2,"Landscape Architecture; Entertainment/Recreation; Literature; Architecture","District","https://catalog.archives.gov/id/123862225",FALSE,FALSE,TRUE,FALSE,FALSE,1978-05-22,NA,"Camp Kaweah;Kaweah Village;Kaweah area;Sequoia National Park",NA,"78000311","Giant Forest Village-Camp Kaweah","Giant Forest Village-Camp Kaweah Historic District, Tulare, California",36.45706832217,-118.891049821424
"43","95001151","AD","Wilsonia Historic District (Additional Documentation)","California","Tulare","Wilsonia, Kings Canyon National Park","Roughly bounded by Pine Ln., Fern Ln., Hillcrest Rd., Sierra Ln., Kaweah Ln., Goddard Ln. and Park Rd.","Listed","Add.doc.",FALSE,100,"Entertainment/Recreation; Community Planning And Development; Exploration/Settlement","District","https://catalog.archives.gov/id/123862260",FALSE,FALSE,FALSE,TRUE,FALSE,1996-03-14,NA,NA,NA,"95001151","Wilsonia (Additional Documentation)","Wilsonia Historic District (Additional Documentation), Tulare, California",36.7362962,-118.956689
"44","66000242",NA,"Columbia Historic District","California","Tuolumne","Sonora","4 mi. NW of Sonora on CA 49","Listed","Single",FALSE,0,"Exploration/Settlement; Architecture","District","https://catalog.archives.gov/id/123858125",FALSE,TRUE,FALSE,FALSE,FALSE,2066-10-15,2061-07-04,NA,NA,"66000242","Columbia","Columbia Historic District, Tuolumne, California",38.0352,-120.40075
"45","100006719","SG","Sierra Railway Shops Historic District","California","Tuolumne","Jamestown","18115 5th Ave.","Listed","Single",FALSE,22.5,"Transportation; Performing Arts; Architecture","District",NA,FALSE,TRUE,FALSE,FALSE,FALSE,2021-07-14,NA,"Sierra Railway Jamestown Shops; Railtown 1897 SHP",NA,"100006719","Sierra Railway Shops","Sierra Railway Shops Historic District, Tuolumne, California",37.961319,-120.236223
"46","99000109",NA,"Oxnard, Henry T., Historic District","California","Ventura","Oxnard","F and G Sts., between Palm and 5th Sts.","Listed","Single",FALSE,70,"Architecture; Social History","District","https://catalog.archives.gov/id/123862356",FALSE,FALSE,FALSE,TRUE,FALSE,1999-02-05,NA,NA,NA,"99000109","Oxnard, Henry T.,","Oxnard, Henry T., Historic District, Ventura, California",34.197663,-119.175947
"47","100003579","SG","Thacher School Historic District","California","Ventura","Ojai","5025 Thacher Rd.","Listed","Single",FALSE,369.78,"Education","District",NA,FALSE,FALSE,FALSE,TRUE,FALSE,2019-04-04,NA,NA,NA,"100003579","Thacher School","Thacher School Historic District, Ventura, California",34.466234,-119.179007
"48","99000471",NA,"Downtown Woodland Historic District","California","Yolo","Woodland","Roughly along Main St. from Elm St. to Third St.","Listed","Single",FALSE,37,"Commerce; Politics/Government; Social History","District","https://catalog.archives.gov/id/123862386",FALSE,FALSE,FALSE,TRUE,FALSE,1999-06-22,NA,NA,NA,"99000471","Downtown Woodland","Downtown Woodland Historic District, Yolo, California",38.677473,-121.773149
"49","96001536",NA,"Main Street Historic District-Winters","California","Yolo","Winters","1--48 Main St.","Listed","Single",FALSE,3,"Architecture; Commerce","District","https://catalog.archives.gov/id/123862396",FALSE,FALSE,FALSE,TRUE,FALSE,1997-01-02,NA,"Downtown Winters Historic District",NA,"96001536","Main Street-Winters","Main Street Historic District-Winters, Yolo, California",38.519284597014,-121.976032294738
"50","80000882",NA,"Denver, Boulder And Western Railway Historic District","Colorado","Boulder","Ward","CO 72","Listed","Single",FALSE,214.5,"Industry; Commerce; Engineering; Transportation; Exploration/Settlement","District","https://catalog.archives.gov/id/84125659",FALSE,FALSE,TRUE,FALSE,FALSE,1980-09-18,NA,"Switzerland Trail of America",NA,"80000882","Denver, Boulder And Western Railway","Denver, Boulder And Western Railway Historic District, Boulder, Colorado",40.016871,-105.279624
"51","80000881",NA,"Denver, Northwestern And Pacific Railway Historic District","Colorado","Boulder","Eldora","SW of Eldora","Listed","Single",FALSE,412.1,"Engineering; Transportation","District","https://catalog.archives.gov/id/84125688",FALSE,FALSE,TRUE,FALSE,FALSE,1980-09-30,NA,"Moffat Road",NA,"80000881","Denver, Northwestern And Pacific Railway","Denver, Northwestern And Pacific Railway Historic District, Boulder, Colorado",40.016871,-105.279624
"52","97001114",NA,"Denver, Northwestern And Pacific Railway Historic District-Rollinsville & Middle Park Wagon Road (Boundary Increase)","Colorado","Boulder","Rollinsville","Rollins Pass","Listed","Single",FALSE,24.2,"Engineering; Transportation","District","https://catalog.archives.gov/id/84128510",FALSE,FALSE,TRUE,FALSE,FALSE,1997-09-23,NA,"Rollinsville and Middle Park Wagon Road;Boulder Wagon Road;R",NA,"97001114","Denver, Northwestern And Pacific Railway-Rollinsville & Middle Park Wagon Road (Boundary Increase)","Denver, Northwestern And Pacific Railway Historic District-Rollinsville & Middle Park Wagon Road (Boundary Increase), Boulder, Colorado",40.016871,-105.279624
"53","80000878","AD","Downtown Boulder Historic District","Colorado","Boulder","Boulder","CO 19","Listed","Add.doc.",FALSE,48,"Commerce; Agriculture; Exploration/Settlement; Architecture","District",NA,FALSE,FALSE,FALSE,TRUE,FALSE,1980-12-03,NA,"See Also:Boulder Post Office",NA,"80000878","Downtown Boulder","Downtown Boulder Historic District, Boulder, Colorado",NA,NA
"54","100001501","SG","Downtown Longmont Historic District","Colorado","Boulder","Longmont","Roughly Main, Coffman & Kimbark Sts. between 3rd & 5th Aves.","Listed","Single",FALSE,25,"Commerce; Social History","District",NA,FALSE,FALSE,FALSE,TRUE,FALSE,2017-08-28,NA,"Downtown Longmont; 5BL.536",NA,"100001501","Downtown Longmont","Downtown Longmont Historic District, Boulder, Colorado",40.1673708,-105.1031976
"55","86002812",NA,"East Side Historic District","Colorado","Boulder","Longmont","Roughly bounded by Long's Peak Ave., Collyer St., Fourth Ave., and Emery St.","Listed","Single",FALSE,23,"Exploration/Settlement; Architecture","District","https://catalog.archives.gov/id/84128463",FALSE,FALSE,FALSE,TRUE,FALSE,1986-10-02,NA,NA,NA,"86002812","East Side","East Side Historic District, Boulder, Colorado",40.1830776,-105.0681339
"56","89000978",NA,"Eldora Historic District","Colorado","Boulder","Eldora","Roughly Eaton Pl., 6th, Pearl, and 4th Sts., Huron Ave., 6th St., Eldorado Ave., and 7th St., Klondyke Ave. & Tenth St.","Listed","Multiple",FALSE,30,"Entertainment/Recreation; Exploration/Settlement; Architecture","District","https://catalog.archives.gov/id/84125643",FALSE,FALSE,FALSE,TRUE,FALSE,1989-10-04,NA,"Happy Valley;Eldorado Camp;5BL758",NA,"89000978","Eldora","Eldora Historic District, Boulder, Colorado",40.180041578098,-105.077016137807
"57","89000979",NA,"Gold Hill Historic District","Colorado","Boulder","Gold Hill","Roughly bounded by North St., Pine St., Boulder St., Gold Run St., and College St.","Listed","Multiple",FALSE,18,"Entertainment/Recreation; Exploration/Settlement; Architecture","District","https://catalog.archives.gov/id/84125639",FALSE,FALSE,FALSE,TRUE,FALSE,1989-08-03,NA,"Gold Hill;5BL769",NA,"89000979","Gold Hill","Gold Hill Historic District, Boulder, Colorado",40.049426824297,-105.470067308248
"58","80000879",NA,"Norlin Quadrangle Historic District","Colorado","Boulder","Boulder","University of Colorado campus","Listed","Single",FALSE,33.5,"Landscape Architecture; Education; Architecture","District","https://catalog.archives.gov/id/84128432",FALSE,FALSE,TRUE,FALSE,FALSE,1980-03-27,NA,"Norlin Quadrangle",NA,"80000879","Norlin Quadrangle","Norlin Quadrangle Historic District, Boulder, Colorado",40.016871,-105.279624
"59","100007966","MP","Rock Creek Farm Rural Historic District","Colorado","Boulder","Broomfield","2005 South 112th St.","Listed","Multiple",FALSE,1124,"Agriculture; Exploration/Settlement; Transportation; Architecture; Archeology-Prehistoric","District",NA,FALSE,FALSE,FALSE,TRUE,FALSE,2023-04-20,NA,"Goodhue Farm &amp; Stearns Dairy Farm No. 2 (5BL.787); Rock Creek Station &amp; Miller Tavern; Denver, Utah &amp; Pacific Railroad (5BL.374); Colorado Central Railroad (5BL.400); Lincoln Highway and Colorado Route 1",NA,"100007966","Rock Creek Farm Rural","Rock Creek Farm Rural Historic District, Boulder, Colorado",40.016871,-105.279624
"60","84000798",NA,"Walker Ranch Historic District","Colorado","Boulder","Boulder","W of Boulder","Listed","Single",FALSE,2028,"Historic - Aboriginal; Agriculture; Architecture","District","https://catalog.archives.gov/id/84128245",FALSE,FALSE,FALSE,TRUE,FALSE,1984-06-14,NA,"Walker Ranch;See Also:Walker Ranch Historic District (Bounda",NA,"84000798","Walker Ranch","Walker Ranch Historic District, Boulder, Colorado",40.117012170354,-105.439492792544
"61","88000756",NA,"Walker Ranch Historic District (Boundary Increase)","Colorado","Boulder","Boulder","7.5 mi. W of Boulder off Flagstaff Rd.","Listed","Single",FALSE,538,"Agriculture","District","https://catalog.archives.gov/id/84128238",FALSE,FALSE,FALSE,TRUE,FALSE,1988-06-29,NA,"Walker Ranch (5BL235);Myers Homestead (5BL346);See Also:Walk",NA,"88000756","Walker Ranch (Boundary Increase)","Walker Ranch Historic District (Boundary Increase), Boulder, Colorado",40.016871,-105.279624
"62","86002846",NA,"West Side Historic District","Colorado","Boulder","Longmont","Roughly bounded by Fifth, Terry, Third, and Grant","Listed","Single",FALSE,55,"Architecture","District","https://catalog.archives.gov/id/84128250",FALSE,FALSE,FALSE,TRUE,FALSE,1987-01-07,NA,"West Side",NA,"86002846","West Side","West Side Historic District, Boulder, Colorado",38.8406307,-104.8418067
"63","84000800",NA,"Salida Downtown Historic District","Colorado","Chaffee","Salida","Roughly bounded by Arkansas River, RR Track, 3rd and D Sts.","Listed","Single",FALSE,50,"Commerce; Architecture","District","https://catalog.archives.gov/id/84128545",FALSE,FALSE,FALSE,TRUE,FALSE,1984-06-14,NA,"See Also: Manhattan Hotel",NA,"84000800","Salida Downtown","Salida Downtown Historic District, Chaffee, Colorado",38.5327098,-105.9969482
"64","79000577",NA,"St. Elmo Historic District","Colorado","Chaffee","St. Elmo","Pitkin, Gunnison, 1st., Main and Poplar Sts.","Listed","Single",FALSE,70,"Industry; Commerce; Transportation; Exploration/Settlement; Architecture","District","https://catalog.archives.gov/id/84128549",FALSE,FALSE,TRUE,FALSE,FALSE,1979-09-17,NA,NA,NA,"79000577","St. Elmo","St. Elmo Historic District, Chaffee, Colorado",38.70472,-106.34808
"65","66000243",NA,"Georgetown-Silver Plume Historic District","Colorado","Clear Creek","Georgetown-Silver Plume","I-70","Listed","Single",FALSE,3288,"Exploration/Settlement","District","https://catalog.archives.gov/id/84127890",FALSE,TRUE,FALSE,FALSE,FALSE,2066-11-13,2066-11-13,NA,NA,"66000243","Georgetown-Silver Plume","Georgetown-Silver Plume Historic District, Clear Creek, Colorado",39.70834,-105.69557
"66","73000466",NA,"Auraria 9th Street Historic District","Colorado","Denver","Denver","9th St. from Curtis to Champa St.","Listed","Single",FALSE,3.5,"Architecture","District","https://catalog.archives.gov/id/84128861",FALSE,FALSE,FALSE,TRUE,FALSE,1973-03-26,NA,NA,NA,"73000466","Auraria 9th Street","Auraria 9th Street Historic District, Denver, Colorado",39.73389,-104.96944
"67","74002348",NA,"Civic Center Historic District","Colorado","Denver","Denver","Roughly bounded by W. Colfax, E. Colfax, Grant, E. 14th, Broadway, E. 13th, W. 13th, Bannock, W. 14th, and Delaware","Listed","Single",FALSE,82,"Community Planning And Development; Art; Politics/Government; Architecture","District","https://catalog.archives.gov/id/84129195",FALSE,TRUE,FALSE,FALSE,FALSE,1974-02-27,NA,"See Also:Byers-Evans House;Denver Mint;Civic Center Historic",NA,"74002348","Civic Center","Civic Center Historic District, Denver, Colorado",39.73917,-104.98889
"68","95000264",NA,"Cole Neighborhood Historic District","Colorado","Denver","Denver","3200--3300 Vine and Race Sts.","Listed","Single",FALSE,12,"Architecture","District","https://catalog.archives.gov/id/84128871",FALSE,FALSE,FALSE,TRUE,FALSE,1995-03-31,NA,"5DV4696",NA,"95000264","Cole Neighborhood","Cole Neighborhood Historic District, Denver, Colorado",39.7625,-104.96278
"69","79000579",NA,"Country Club Historic District","Colorado","Denver","Denver","Roughly bounded by 1st and 4th Aves., Race and Downing Sts.","Listed","Single",FALSE,64.5,"Community Planning And Development; Landscape Architecture; Architecture; Social History","District","https://catalog.archives.gov/id/84129245",FALSE,FALSE,TRUE,FALSE,FALSE,1979-07-10,NA,"See Also:Country Club Historic District (Boundary Increase)",NA,"79000579","Country Club","Country Club Historic District, Denver, Colorado",39.71639,-104.96694
"70","85002587",NA,"Country Club Historic District (Boundary Increase)","Colorado","Denver","Denver","Between Downing & University, E. 4th Ave. and N of Alameda Ave.","Listed","Single",FALSE,208,"Landscape Architecture","District","https://catalog.archives.gov/id/84129855",FALSE,FALSE,TRUE,FALSE,FALSE,1985-09-27,NA,"See Also:Country Club Historic District",NA,"85002587","Country Club (Boundary Increase)","Country Club Historic District (Boundary Increase), Denver, Colorado",39.71639,-104.96694
"71","83001307",NA,"Curtis-Champa Streets Historic District (Boundary Increase)","Colorado","Denver","Denver","Roughly 30th, Stout, Downing and Arapahoe Sts.","Listed","Single",FALSE,87,"Architecture","District","https://catalog.archives.gov/id/84129055",FALSE,FALSE,FALSE,TRUE,FALSE,1983-09-22,NA,"See Also:Curtis-Champa Streets District",NA,"83001307","Curtis-Champa Streets (Boundary Increase)","Curtis-Champa Streets Historic District (Boundary Increase), Denver, Colorado",39.75778,-104.97944
"72","79000584",NA,"Enterprise Hill Historic District","Colorado","Denver","Denver","Bounded by 21st and 22nd Aves., Tremont and Glenarm Pls.","Listed","Single",FALSE,4,"Commerce; Architecture","District","https://catalog.archives.gov/id/84129247",FALSE,FALSE,FALSE,TRUE,FALSE,1979-08-09,NA,"Clements Historic District",NA,"79000584","Enterprise Hill","Enterprise Hill Historic District, Denver, Colorado",39.74972,-104.98222
"73","85000082",NA,"Highland Park Historic District","Colorado","Denver","Denver","Bounded by Zuni St., Dunkeld Pl., Clay St., and 32nd Ave.","Listed","Single",FALSE,23.8,"Community Planning And Development; Architecture","District","https://catalog.archives.gov/id/84129407",FALSE,FALSE,FALSE,TRUE,FALSE,1985-01-18,NA,"Scottish Village",NA,"85000082","Highland Park","Highland Park Historic District, Denver, Colorado",39.76083,-105.01806
"74","78000848",NA,"Humboldt Street Historic District","Colorado","Denver","Denver","Humboldt St. between E. 10th and E. 12th Sts.","Listed","Single",FALSE,5,"Industry; Landscape Architecture; Commerce; Politics/Government; Architecture","District","https://catalog.archives.gov/id/84129255",FALSE,FALSE,FALSE,TRUE,FALSE,1978-12-29,NA,NA,NA,"78000848","Humboldt Street","Humboldt Street Historic District, Denver, Colorado",39.73389,-104.96944
"75","94000143",NA,"Larimer Square Historic District (Boundary Increase)","Colorado","Denver","Denver","1404 Larimer St.","Listed","Single",FALSE,0.9,"Architecture; Commerce","Building","https://catalog.archives.gov/id/84129223",FALSE,FALSE,FALSE,TRUE,FALSE,1994-03-07,NA,"5DV104",NA,"94000143","Larimer Square (Boundary Increase)","Larimer Square Historic District (Boundary Increase), Denver, Colorado",39.74778,-104.99944
"76","86000097",NA,"Potter Highlands Historic District","Colorado","Denver","Denver","Roughy bounded by W. Thirty-eighth, Zuni, and W. Thirty-second Sts., and Federal Blvd.","Listed","Single",FALSE,276,"Community Planning And Development; Architecture","District","https://catalog.archives.gov/id/84129410",FALSE,FALSE,FALSE,TRUE,FALSE,1986-01-22,NA,"See Also:Saint Elizabeth's Retreat Chapel",NA,"86000097","Potter Highlands","Potter Highlands Historic District, Denver, Colorado",39.76556,-105.02056
"77","86001353",NA,"San Rafael Historic District","Colorado","Denver","Denver","Roughly bounded by E. Twenty-sixth Ave., Downing St., E. Twentieth Ave., and Washington St.","Listed","Single",FALSE,77,"Architecture","District","https://catalog.archives.gov/id/84129159",FALSE,FALSE,FALSE,TRUE,FALSE,1986-06-20,NA,NA,NA,"86001353","San Rafael","San Rafael Historic District, Denver, Colorado",39.75194,-104.97583
"78","04001178",NA,"Sherman Street Historic District","Colorado","Denver","Denver","Approx. 1000 to 1099 Sherman St.","Listed","Single",FALSE,4,"Architecture; Community Planning And Development","District","https://catalog.archives.gov/id/84129309",FALSE,FALSE,FALSE,TRUE,FALSE,2004-10-27,NA,"Iliff Estate; Poets' Rows; 5DV.9154",NA,"04001178","Sherman Street","Sherman Street Historic District, Denver, Colorado",39.73278,-104.98472
"79","85002932",NA,"South Side-Baker Historic District","Colorado","Denver","Denver","Roughly bounded by W. Fifth Ave., Broadway, W. Alameda Ave., and W. Fox St.","Listed","Single",FALSE,150,"Architecture","District","https://catalog.archives.gov/id/84129183",FALSE,FALSE,FALSE,TRUE,FALSE,1985-10-03,NA,"Broadway Terrace",NA,"85002932","South Side-Baker","South Side-Baker Historic District, Denver, Colorado",39.71833,-104.97583
"80","84000824",NA,"Stonemen's Row Historic District","Colorado","Denver","Denver","South side 28th Ave. between Umatilla and Vallejo Sts.","Listed","Single",FALSE,0.7,"Architecture","District","https://catalog.archives.gov/id/84129169",FALSE,FALSE,FALSE,TRUE,FALSE,1984-01-05,NA,NA,NA,"84000824","Stonemen's Row","Stonemen's Row Historic District, Denver, Colorado",39.75722,-105.0125
"81","87002295",NA,"Swallow Hill Historic District","Colorado","Denver","Denver","Roughly Bounded by Clarkson St., E. Seventeenth Ave., Downing St., E Colfax Ave.","Listed","Single",FALSE,22,"Architecture","District","https://catalog.archives.gov/id/84129181",FALSE,FALSE,TRUE,FALSE,FALSE,1988-01-07,NA,"See Also:Bailey House;Bouvier--Lothrop House;Flower--Vaile H",NA,"87002295","Swallow Hill","Swallow Hill Historic District, Denver, Colorado",39.74167,-104.97556
"82","87001555",NA,"Boulder Crescent Place Historic District","Colorado","El Paso","Colorado Springs","9 and 11 W. Boulder St. and 312, 318, and 320 N. Cascade","Listed","Single",FALSE,0.9,"Community Planning And Development; Architecture","District","https://catalog.archives.gov/id/84130200",FALSE,FALSE,FALSE,TRUE,FALSE,1987-09-10,NA,NA,NA,"87001555","Boulder Crescent Place","Boulder Crescent Place Historic District, El Paso, Colorado",38.838423733707,-104.826002289626
"83","83003516",NA,"Manitou Springs Historic District","Colorado","El Paso","Manitou Springs","Roughly bounded by El Paso Blvd., Ruxton Ave., US 24, and Iron Mt. Ave.","Listed","Multiple",FALSE,334.2,"Industry; Community Planning And Development; Architecture","District","https://catalog.archives.gov/id/84126340",FALSE,FALSE,TRUE,FALSE,FALSE,1983-10-07,NA,"See Also:Vehicular Bridges in Colorado TR;Manitou Springs Po",NA,"83003516","Manitou Springs","Manitou Springs Historic District, El Paso, Colorado",38.8568,-104.8872
"84","82001017",NA,"North End Historic District","Colorado","El Paso","Colorado Springs","Roughly bounded by Monument Valley Wood, Nevada Ave., Madison and Unitah Sts.","Listed","Single",FALSE,223,"Industry; Architecture","District","https://catalog.archives.gov/id/84130213",FALSE,FALSE,FALSE,TRUE,FALSE,1982-12-17,NA,"The North End;North End Historic Residential District",NA,"82001017","North End","North End Historic District, El Paso, Colorado",38.83388,-104.82136
"85","15000585",NA,"Old North End Historic District (Boundary Increase)","Colorado","El Paso","Colorado Springs","Bounded by Monument Valley Park, alley between Nevada Ave. & Weber St., Lilac, & Uintah Sts.","Listed","Single",FALSE,174.5,"Architecture","District",NA,FALSE,FALSE,FALSE,TRUE,FALSE,2015-09-14,NA,"North End Historic District; 5EP.333",NA,"15000585","Old North End (Boundary Increase)","Old North End Historic District (Boundary Increase), El Paso, Colorado",38.8595427,-104.8245058
"86","83003517",NA,"Canon City Downtown Historic District","Colorado","Fremont","Canon City","Roughly Main St. from 3rd to 9th Sts. and Macon Ave.","Listed","Single",FALSE,28,"Commerce; Architecture","District","https://catalog.archives.gov/id/84130478",FALSE,FALSE,FALSE,TRUE,FALSE,1983-10-20,NA,"Canon City Downtown",NA,"83003517","Canon City Downtown","Canon City Downtown Historic District, Fremont, Colorado",38.442184,-105.23489
"87","86000201",NA,"Canon City Downtown Historic District (Boundary Increase)","Colorado","Fremont","Canon City","602 Macon Ave.","Listed","Single",FALSE,0.3,"Commerce; Architecture","Building","https://catalog.archives.gov/id/84130484",FALSE,FALSE,FALSE,TRUE,FALSE,1986-02-06,NA,"See Also:Canon City Downtown Historic District",NA,"86000201","Canon City Downtown (Boundary Increase)","Canon City Downtown Historic District (Boundary Increase), Fremont, Colorado",38.442184,-105.23489
"88","100001309","SG","Downtown Florence Historic District","Colorado","Fremont","Florence","Roughly bounded by Main St., Santa Fe & Petroleum Aves. between W. 2nd & Railroad Sts.","Listed","Single",FALSE,18.6,"Commerce","District",NA,FALSE,FALSE,FALSE,TRUE,FALSE,2017-07-14,NA,"5FN.523",NA,"100001309","Downtown Florence","Downtown Florence Historic District, Fremont, Colorado",38.74666,-105.17831
"89","66000246",NA,"Central City-Black Hawk Historic District","Colorado","Gilpin","Central City","On SR 119","Listed","Single",FALSE,2320,"Commerce; Industry","District","https://catalog.archives.gov/id/84127911",FALSE,TRUE,FALSE,FALSE,FALSE,2066-10-15,2061-07-04,NA,NA,"66000246","Central City-Black Hawk","Central City-Black Hawk Historic District, Gilpin, Colorado",39.80101,-105.51306
"90","77000112","MP","Holzwarth Historic District","Colorado","Grand","Grand Lake","N of Grand Lake on Trail Ridge Rd.","Listed","Multiple",FALSE,72,"Agriculture; Entertainment/Recreation; Exploration/Settlement","District","https://catalog.archives.gov/id/84126576",FALSE,FALSE,FALSE,TRUE,FALSE,1977-12-02,NA,NA,"Rocky Mountain","77000112","Holzwarth","Holzwarth Historic District, Grand, Colorado",40.37245,-105.86148
"91","80004632",NA,"Alpine Tunnel Historic District","Colorado","Gunnison","Pitkin","Along the Denver, South Park and Pacific RR tracks from Quartz to Hancock","Listed","Single",FALSE,475,"Engineering; Transportation; Historic - Non-Aboriginal","District","https://catalog.archives.gov/id/84126654",FALSE,TRUE,FALSE,FALSE,FALSE,1996-04-01,NA,"5CF838/5GN2599",NA,"80004632","Alpine Tunnel","Alpine Tunnel Historic District, Gunnison, Colorado",38.620014451368,-106.391945460806
"92","78000859",NA,"Lake City Historic District","Colorado","Hinsdale","Lake City","Roughly bounded by Bluff, Eighth, Lake, and First Streets","Listed","Multiple",FALSE,118.9,"Commerce; Law; Architecture; Entertainment/Recreation","District","https://catalog.archives.gov/id/84126663",FALSE,TRUE,FALSE,TRUE,FALSE,1978-12-01,NA,"5HN.68",NA,"78000859","Lake City","Lake City Historic District, Hinsdale, Colorado",38.029836,-107.315392
"93","92001865",NA,"Camp George West Historic District","Colorado","Jefferson","Golden","15000 S. Golden Rd.","Listed","Multiple",FALSE,98,"Military; Architecture; Social History","District","https://catalog.archives.gov/id/84126711",FALSE,FALSE,TRUE,FALSE,FALSE,1993-02-11,NA,"State Rifle Range;5JF145",NA,"92001865","Camp George West","Camp George West Historic District, Jefferson, Colorado",39.377006,-105.800352
"94","76000561",NA,"Morrison Historic District","Colorado","Jefferson","Morrison","CO 8","Listed","Single",FALSE,40.8,"Industry; Commerce; Transportation; Exploration/Settlement; Religion","District","https://catalog.archives.gov/id/84131036",FALSE,FALSE,FALSE,TRUE,FALSE,1976-09-28,NA,"Town of Mt. Morrison",NA,"76000561","Morrison","Morrison Historic District, Jefferson, Colorado",39.666784020003,-105.147108819054
"95","74000586",NA,"North Fork Historic District","Colorado","Jefferson","Pine And South Platte","Both sides of South Platte River from Pine to South Platte, in Red Pike National Forest","Listed","Single",FALSE,0,"Economics; Transportation; Entertainment/Recreation","District","https://catalog.archives.gov/id/84130799",FALSE,FALSE,FALSE,TRUE,FALSE,1974-10-09,NA,"See Also:74000582;73000477;74000580",NA,"74000586","North Fork","North Fork Historic District, Jefferson, Colorado",39.377006,-105.800352
"96","08000861",NA,"North Fork Historic District (Boundary Increase)","Colorado","Jefferson","Pine And South Platte","Longview, Foxton, Argyle and Pine Grove Expansions","Listed","Single",FALSE,25.3,"Agriculture; Transportation; Entertainment/Recreation; Industry","District","https://catalog.archives.gov/id/84130805",FALSE,FALSE,FALSE,TRUE,FALSE,2008-10-08,NA,"FJF.4449",NA,"08000861","North Fork (Boundary Increase)","North Fork Historic District (Boundary Increase), Jefferson, Colorado",39.377006,-105.800352
"97","99001183",NA,"Reno Park Addition Historic District","Colorado","Jefferson","Arvada","Roughly bounded by Allison St., Ralston Rd., Yukon St., and Reno Dr.","Listed","Single",FALSE,21,"Architecture; Community Planning And Development","District","https://catalog.archives.gov/id/84131040",FALSE,FALSE,FALSE,TRUE,FALSE,1999-09-29,NA,"5FJ1942",NA,"99001183","Reno Park Addition","Reno Park Addition Historic District, Jefferson, Colorado",39.797857412185,-105.083774423113
"98","99001182",NA,"Stocke-Walter Addition Historic District","Colorado","Jefferson","Arvada","Roughly along Saulsbury St., Ralston Rd., Grandview Ave., and Reed St.","Listed","Single",FALSE,25,"Architecture; Community Planning And Development","District","https://catalog.archives.gov/id/84131042",FALSE,FALSE,FALSE,TRUE,FALSE,1999-09-24,NA,"5JF1943",NA,"99001182","Stocke-Walter Addition","Stocke-Walter Addition Historic District, Jefferson, Colorado",39.801791,-105.07241
"99","80000907",NA,"Main Avenue Historic District","Colorado","La Plata","Durango","Main Ave.","Listed","Single",FALSE,34,"Commerce; Transportation; Architecture","District","https://catalog.archives.gov/id/84131130",FALSE,FALSE,FALSE,TRUE,FALSE,1980-08-07,NA,"See Also:79000613",NA,"80000907","Main Avenue","Main Avenue Historic District, La Plata, Colorado",37.309077839543,-107.86179628025
"100","72000273",NA,"Ute Mountain Ute Mancos Canyon Historic District","Colorado","La Plata","Durango","Address Restricted","Listed","Single",TRUE,208000,"Prehistoric","District",NA,FALSE,TRUE,FALSE,FALSE,FALSE,1972-05-02,NA,NA,NA,"72000273","Ute Mountain Ute Mancos Canyon","Ute Mountain Ute Mancos Canyon Historic District, La Plata, Colorado",37.4004914,-108.0628511
