"","ref_number","prefix","property_name","state","county","city","street_number","status","request_type","restricted_address","acreage_of_property","area_of_significance","category_of_property","external_link","level_of_significance_international","level_of_significance_national","level_of_significance_state","level_of_significance_local","level_of_significance_not_indicated","listed_date","nhl_designated_date","other_names","park_name","property_id","district_name","address","latitude","longitude"
"1","12001021",NA,"Demopolis Historic District (Boundary Increase)","Alabama","Marengo","Demopolis","E. Gaines, N. Ash, W. Pettus, & S. Stewart Sts.","Listed","Single",FALSE,790,"Architecture; Community Planning And Development","District",NA,FALSE,FALSE,FALSE,TRUE,FALSE,2014-01-10,NA,NA,NA,"12001021","Demopolis (Boundary Increase)","Demopolis Historic District (Boundary Increase), Marengo, Alabama",32.51734,-87.83884
"2","76000342",NA,"Jefferson Historic District","Alabama","Marengo","Jefferson","AL 28","Listed","Single",FALSE,130,"Architecture","District","https://catalog.archives.gov/id/77836812",FALSE,FALSE,TRUE,FALSE,FALSE,1976-11-13,NA,NA,NA,"76000342","Jefferson","Jefferson Historic District, Marengo, Alabama",32.38609,-87.89599
"3","00001023",NA,"Thomaston Central Historic District","Alabama","Marengo","Thomaston","Roughly bounded by Chestnut St., Sixth Ave., Seventh Ave., Short St. and CSX RR.","Listed","Single",FALSE,40,"Architecture; Community Planning And Development; Politics/Government","District","https://catalog.archives.gov/id/77836818",FALSE,FALSE,FALSE,TRUE,FALSE,2000-09-14,NA,NA,NA,"00001023","Thomaston Central","Thomaston Central Historic District, Marengo, Alabama",32.26769,-87.62546
"4","12001022",NA,"Downtown Guntersville Historic District","Alabama","Marshall","Guntersville","Gunter & Blount Aves., Ringold & Scott Sts.","Listed","Single",FALSE,27.8,"Architecture; Commerce","District","https://catalog.archives.gov/id/77836856",FALSE,FALSE,FALSE,TRUE,FALSE,2012-12-12,NA,NA,NA,"12001022","Downtown Guntersville","Downtown Guntersville Historic District, Marshall, Alabama",34.35889,-86.294
"5","99000468",NA,"Snead Junior College Historic District","Alabama","Marshall","Boaz","220 N. Walnut St., 308 W. Mann Ave., 201 College Ave., and 300 and 301 Elder St.","Listed","Single",FALSE,5,"Architecture; Education","District","https://catalog.archives.gov/id/77836858",FALSE,FALSE,FALSE,TRUE,FALSE,1999-04-22,NA,"Snead State Community College",NA,"99000468","Snead Junior College","Snead Junior College Historic District, Marshall, Alabama",34.20061,-86.16874
"6","12000990",NA,"Africatown Historic District","Alabama","Mobile","Mobile","Bounded by Jakes Ln., Paper Mill, & Warren Rds., Chin, & Railroad Sts.","Listed","Single",FALSE,921,"Black; Historic - Non-Aboriginal","District","https://catalog.archives.gov/id/77837063",FALSE,TRUE,FALSE,FALSE,FALSE,2012-12-04,NA,NA,NA,"12000990","Africatown","Africatown Historic District, Mobile, Alabama",30.73527,-88.05878
"7","87000935",NA,"Ashland Place Historic District","Alabama","Mobile","Mobile","Roughly bounded by Springhill and Ryan Aves., Old Shell Rd., and Levert Ave.","Listed","Single",FALSE,40,"Community Planning And Development; Architecture","District","https://catalog.archives.gov/id/77836983",FALSE,FALSE,FALSE,TRUE,FALSE,1987-06-23,NA,NA,NA,"87000935","Ashland Place","Ashland Place Historic District, Mobile, Alabama",30.69046,-88.09428
"8","16000400",NA,"Automobile Alley Historic District","Alabama","Mobile","Mobile","156-157 N. Cedar, 108 N. Dearborn, 100-101 N. Franklin, 156 N. Hamilton, 163 N. Lawrence, 453-701 St. Anthony Sts.","Listed","Single",FALSE,30,"Architecture; Commerce","District",NA,FALSE,FALSE,FALSE,TRUE,FALSE,2016-06-22,NA,NA,NA,"16000400","Automobile Alley","Automobile Alley Historic District, Mobile, Alabama",30.69277,-88.0503
"9","100009107","BC","Automobile Alley Historic District (Boundary Increase)","Alabama","Mobile","Mobile","752-54, 756, 762 St. Louis St.","Listed","Boundary",FALSE,0.86,"Architecture; Commerce","District",NA,FALSE,FALSE,FALSE,TRUE,FALSE,2023-06-27,NA,NA,NA,"16000400","Automobile Alley (Boundary Increase)","Automobile Alley Historic District (Boundary Increase), Mobile, Alabama",30.69277,-88.0503
"10","89002452",NA,"Barr's Subdivision Historic District","Alabama","Mobile","Citronelle","Roughly along US 45 and Howard St. between LeBaron and State","Listed","Single",FALSE,5.9,"Community Planning And Development; Architecture","District","https://catalog.archives.gov/id/77837049",FALSE,FALSE,FALSE,TRUE,FALSE,1990-01-25,NA,NA,NA,"89002452","Barr's Subdivision","Barr's Subdivision Historic District, Mobile, Alabama",31.09246,-88.23888
"11","89002424",NA,"Central Core Historic District","Alabama","Mobile","Citronelle","Roughly State and Le Baron Sts. from Mobile to Second Sts.","Listed","Single",FALSE,69.9,"Community Planning And Development; Architecture","District","https://catalog.archives.gov/id/77837053",FALSE,FALSE,FALSE,TRUE,FALSE,1990-01-25,NA,NA,NA,"89002424","Central Core","Central Core Historic District, Mobile, Alabama",31.09291,-88.23104
"12","04000924",NA,"Chickasaw Shipyard Village Historic District","Alabama","Mobile","Chickasaw","Bounded by Jefferson St., Jackson St., Yeend Ave., and Chickasaw Creek","Listed","Single",FALSE,1200,"Community Planning And Development; Industry; Other; Black; Architecture","District","https://catalog.archives.gov/id/77837055",FALSE,TRUE,FALSE,FALSE,FALSE,2004-09-03,NA,NA,NA,"04000924","Chickasaw Shipyard Village","Chickasaw Shipyard Village Historic District, Mobile, Alabama",30.76369,-88.07451
"13","71000102",NA,"Church Street East Historic District","Alabama","Mobile","Mobile","Roughly bounded by Conti, Water and Claiborne, Eslava, and Warren and Bayou Sts.","Listed","Single",FALSE,93.2,"Architecture","District","https://catalog.archives.gov/id/77837003",FALSE,TRUE,FALSE,FALSE,FALSE,1971-12-16,NA,"See Also:71000103;69000033;70000107;Southern Market-Mobile C",NA,"71000102","Church Street East","Church Street East Historic District, Mobile, Alabama",30.68808,-88.04575
"14","05000289",NA,"Church Street East Historic District (Boundary Increase Ii)","Alabama","Mobile","Mobile","66 and 68 S. Royal St.","Listed","Single",FALSE,0.9,"Architecture","District","https://catalog.archives.gov/id/77836945",FALSE,TRUE,FALSE,FALSE,FALSE,2005-04-20,NA,NA,NA,"05000289","Church Street East (Boundary Increase Ii)","Church Street East Historic District (Boundary Increase Ii), Mobile, Alabama",30.68808,-88.04575
"15","84000663",NA,"Church Street East Historic District (Boundary Increase)","Alabama","Mobile","Mobile","Roughly bounded by Broad, Conti, Water, Claiborne, and Canal Sts.","Listed","Single",FALSE,47,"Architecture","District","https://catalog.archives.gov/id/77836913",FALSE,FALSE,FALSE,TRUE,FALSE,1984-01-13,NA,NA,NA,"84000663","Church Street East (Boundary Increase)","Church Street East Historic District (Boundary Increase), Mobile, Alabama",30.68808,-88.04575
"16","89002421",NA,"Citronelle Railroad Historic District","Alabama","Mobile","Citronelle","Roughly Center and Main from Union to Faye","Listed","Single",FALSE,42.3,"Community Planning And Development; Architecture","District","https://catalog.archives.gov/id/77837051",FALSE,FALSE,FALSE,TRUE,FALSE,1990-01-25,NA,NA,NA,"89002421","Citronelle Railroad","Citronelle Railroad Historic District, Mobile, Alabama",31.08711,-88.22749
"17","72000169",NA,"De Tonti Square Historic District","Alabama","Mobile","Mobile","Roughly bounded by Adams, St. Anthony, Claiborne, and Conception Sts.","Listed","Single",FALSE,28,"Architecture","District","https://catalog.archives.gov/id/77837031",FALSE,FALSE,FALSE,TRUE,FALSE,1972-02-07,NA,NA,NA,"72000169","De Tonti Square","De Tonti Square Historic District, Mobile, Alabama",30.696,-88.0473
"18","90000918",NA,"Grand Bay Historic District","Alabama","Mobile","Grand Bay","Jct. of Dezauche Ln. and Freeland","Listed","Single",FALSE,1.2,"Commerce","District","https://catalog.archives.gov/id/77837041",FALSE,FALSE,FALSE,TRUE,FALSE,1990-06-28,NA,NA,NA,"90000918","Grand Bay","Grand Bay Historic District, Mobile, Alabama",30.47592,-88.34219
"19","14001004",NA,"Lafayette Heights Historic District","Alabama","Mobile","Mobile","Bounded by Dr. Martin Luther King Jr. & Spring Hill Aves., Rylands & Basil Sts.","Listed","Single",FALSE,141,"Architecture; Historic - Non-Aboriginal","District",NA,FALSE,FALSE,FALSE,TRUE,FALSE,2014-12-10,NA,NA,NA,"14001004","Lafayette Heights","Lafayette Heights Historic District, Mobile, Alabama",30.69939,-88.06922
"20","87000936",NA,"Leinkauf Historic District","Alabama","Mobile","Mobile","Roughly bounded by Government, S. Monterey, Eslava, Lamar, and S. Monterey Sts.","Listed","Single",FALSE,110,"Community Planning And Development; Architecture","District","https://catalog.archives.gov/id/77836987",FALSE,FALSE,FALSE,TRUE,FALSE,1987-06-24,NA,NA,NA,"87000936","Leinkauf","Leinkauf Historic District, Mobile, Alabama",30.67689,-88.07273
"21","79000392",NA,"Lower Dauphin Street Historic District","Alabama","Mobile","Mobile","171--614 Dauphin St.","Listed","Single",FALSE,17,"Commerce; Architecture","District","https://catalog.archives.gov/id/77836971",FALSE,FALSE,TRUE,FALSE,FALSE,1979-02-09,NA,"Dauphin Street Downtown;See Also:Church Street East Historic",NA,"79000392","Lower Dauphin Street","Lower Dauphin Street Historic District, Mobile, Alabama",30.69029,-88.0464
"22","82002059",NA,"Lower Dauphin Street Historic District (Boundary Increase)","Alabama","Mobile","Mobile","Dauphin St. from Water to Dearborn Ave.","Listed","Single",FALSE,8,"Commerce; Architecture","District","https://catalog.archives.gov/id/77836969",FALSE,FALSE,TRUE,FALSE,FALSE,1982-02-19,NA,"Lower Dauphin Street Commercial District;Dauphin Street;See",NA,"82002059","Lower Dauphin Street (Boundary Increase)","Lower Dauphin Street Historic District (Boundary Increase), Mobile, Alabama",30.69029,-88.0464
"23","13000959",NA,"Maysville Historic District","Alabama","Mobile","Mobile","Bounded by Virginia, Ann, Duval & Houston Sts.","Listed","Single",FALSE,451,"Architecture; Historic - Non-Aboriginal","District",NA,FALSE,FALSE,FALSE,TRUE,FALSE,2013-12-25,NA,NA,NA,"13000959","Maysville","Maysville Historic District, Mobile, Alabama",30.66923,-88.07676
"24","01001293",NA,"Midtown Historic District","Alabama","Mobile","Mobile","Roughly bounded by Taylor Ave., US 90, Houston St., Kenneth St., US 98, and Florida St.","Listed","Single",FALSE,467,"Community Planning And Development; Architecture","District","https://catalog.archives.gov/id/77837047",FALSE,FALSE,FALSE,TRUE,FALSE,2001-11-29,NA,NA,NA,"01001293","Midtown","Midtown Historic District, Mobile, Alabama",30.68332,-88.07842
"25","100005805","BC","Midtown Historic District (Boundary Increase)","Alabama","Mobile","Mobile","2401-2403 and 2407 Old Shell Rd.","Listed","Boundary",FALSE,1.05,"Community Planning And Development; Architecture","District","https://catalog.archives.gov/id/77837047",FALSE,FALSE,FALSE,TRUE,FALSE,2020-11-18,NA,NA,NA,"01001293","Midtown (Boundary Increase)","Midtown Historic District (Boundary Increase), Mobile, Alabama",30.68332,-88.07842
"26","14001005",NA,"Oakdale Historic District","Alabama","Mobile","Mobile","Bounded by I-10, Preston Ave., Virginia & Ann Sts.","Listed","Single",FALSE,511,"Architecture","District",NA,FALSE,FALSE,FALSE,TRUE,FALSE,2014-12-10,NA,NA,NA,"14001005","Oakdale","Oakdale Historic District, Mobile, Alabama",30.66618,-88.06306
"27","72000171",NA,"Oakleigh Garden Historic District","Alabama","Mobile","Mobile","Roughly bounded by Government, Marine, Texas, and Ann Sts.","Listed","Single",FALSE,111.3,"Architecture; Social History","District","https://catalog.archives.gov/id/77836989",FALSE,FALSE,TRUE,FALSE,FALSE,1972-04-13,NA,"Washington Square;See Also:Oakleigh Garden Historic District",NA,"72000171","Oakleigh Garden","Oakleigh Garden Historic District, Mobile, Alabama",30.681,-88.06051
"28","16000863",NA,"Oakleigh Garden Historic District (Boundary Decrease & Additional Documentation)","Alabama","Mobile","Mobile","Government, Broad, Texas & S. Ann Sts.","Listed","Single",FALSE,145,"Architecture; Landscape Architecture","District",NA,FALSE,FALSE,TRUE,FALSE,FALSE,2016-12-20,NA,NA,NA,"16000863","Oakleigh Garden (Boundary Decrease & Additional Documentation)","Oakleigh Garden Historic District (Boundary Decrease & Additional Documentation), Mobile, Alabama",30.681,-88.06051
"29","90002175",NA,"Oakleigh Garden Historic District (Boundary Increase)","Alabama","Mobile","Mobile","Roughly bounded by Selma St., Broad St., Texas St. and Rapier Ave.","Listed","Single",FALSE,34,"Landscape Architecture; Architecture","District","https://catalog.archives.gov/id/77837007",FALSE,FALSE,FALSE,TRUE,FALSE,1991-01-30,NA,"Oakleigh Garden District;See Also:Oakleigh Garden Historic D",NA,"90002175","Oakleigh Garden (Boundary Increase)","Oakleigh Garden Historic District (Boundary Increase), Mobile, Alabama",30.681,-88.06051
"30","84000686",NA,"Old Dauphin Way Historic District","Alabama","Mobile","Mobile","Roughly bounded by Springhill Ave., Broad, Goverment, and Houston Sts.","Listed","Single",FALSE,766,"Community Planning And Development; Architecture","District","https://catalog.archives.gov/id/77836985",FALSE,FALSE,FALSE,TRUE,FALSE,1984-08-30,NA,"See Also:Protestant Children's Home;Gates-Davies House;Commo",NA,"84000686","Old Dauphin Way","Old Dauphin Way Historic District, Mobile, Alabama",30.6873,-88.06863
"31","100007800","BC","Old Dauphin Way Historic District (Boundary Increase)","Alabama","Mobile","Mobile","1200 Springhill Ave.","Listed","Boundary",FALSE,2,"Community Planning And Development; Architecture","District","https://catalog.archives.gov/id/77836985",FALSE,FALSE,FALSE,TRUE,FALSE,2022-06-17,NA,NA,NA,"84000686","Old Dauphin Way (Boundary Increase)","Old Dauphin Way Historic District (Boundary Increase), Mobile, Alabama",30.6873,-88.06863
"32","09000606",NA,"Monroeville Downtown Historic District","Alabama","Monroe","Monroeville","Parts of N. and S. Alabama Aves., E. and W. Claiborne St., N. and S. Monut Pleasant Aves., Pineville Rd.","Listed","Single",FALSE,40,"Architecture; Commerce","District","https://catalog.archives.gov/id/77837083",FALSE,FALSE,FALSE,TRUE,FALSE,2009-09-16,NA,NA,NA,"09000606","Monroeville Downtown","Monroeville Downtown Historic District, Monroe, Alabama",31.52663,-87.32386
"33","98001228",NA,"Alabama State University Historic District","Alabama","Montgomery","Montgomery","915 S. Jackson St.","Listed","Single",FALSE,26,"Education; Black; Architecture","District","https://catalog.archives.gov/id/77837189",FALSE,FALSE,TRUE,FALSE,FALSE,1998-10-08,NA,"State Teachers College",NA,"98001228","Alabama State University","Alabama State University Historic District, Montgomery, Alabama",32.36418,-86.29733
"34","100010461","MP","Centennial Hill Historic District","Alabama","Montgomery","Montgomery","Roughly bound by Highland and Adams Avenue to the north, Hall Street to the east, I-85 to the south, and South Bainbridge Street to the west","Listed","Multiple",FALSE,109,"Ethnic Heritage-Black; Social History; Ethnic Heritage-Other-Ethnic","District",NA,FALSE,TRUE,FALSE,TRUE,FALSE,2024-06-25,NA,NA,NA,"100010461","Centennial Hill","Centennial Hill Historic District, Montgomery, Alabama",32.3720984,-86.2915539
"35","90000916",NA,"City Of St. Jude Historic District","Alabama","Montgomery","Montgomery","2048 W. Fairview Ave.","Listed","Single",FALSE,40,"Black; Architecture","District","https://catalog.archives.gov/id/77837191",FALSE,FALSE,FALSE,TRUE,FALSE,1990-06-18,NA,NA,NA,"90000916","City Of St. Jude","City Of St. Jude Historic District, Montgomery, Alabama",32.35343,-86.32708
"36","85002161",NA,"Cloverdale Historic District","Alabama","Montgomery","Montgomery","Roughly bounded by Norman Bridge & Cloverdale Rd., Fairview & Felder Aves. and Boultier St.","Listed","Single",FALSE,156,"Landscape Architecture; Architecture","District","https://catalog.archives.gov/id/77837155",FALSE,FALSE,TRUE,TRUE,FALSE,1985-09-12,NA,NA,NA,"85002161","Cloverdale","Cloverdale Historic District, Montgomery, Alabama",32.35537,-86.29505
"37","76000350",NA,"Cottage Hill Historic District","Alabama","Montgomery","Montgomery","Roughly bounded by Goldthwaite, Bell, Holt, and Clayton Sts.","Listed","Single",FALSE,42,"Architecture","District","https://catalog.archives.gov/id/77837115",FALSE,FALSE,FALSE,TRUE,FALSE,1976-11-07,NA,NA,NA,"76000350","Cottage Hill","Cottage Hill Historic District, Montgomery, Alabama",32.37164,-86.31903
"38","82002062",NA,"Court Square Historic District","Alabama","Montgomery","Montgomery","21--35 Court St., 1--2 Dexter Ave., 18--24 N. Court St., and Court Sq.","Listed","Single",FALSE,3.4,"Agriculture; Architecture; Social History","District","https://catalog.archives.gov/id/77837133",FALSE,FALSE,FALSE,TRUE,FALSE,1982-03-01,NA,"See Also:Court Square-Dexter Ave. Historic District (Boundar",NA,"82002062","Court Square","Court Square Historic District, Montgomery, Alabama",32.37738,-86.30919
"39","100011227","SG","Court Square Urban Renewal Area Historic District","Alabama","Montgomery","Montgomery","Generally bounded by Madison Avenue, N. Lawrence Street, Church Street, and Lee Street","Listed","Single",FALSE,20,"Community Planning And Development","District",NA,FALSE,FALSE,FALSE,TRUE,FALSE,2024-12-31,NA,NA,NA,"100011227","Court Square Urban Renewal Area","Court Square Urban Renewal Area Historic District, Montgomery, Alabama",32.37733260073,-86.309445757228
"40","84000697",NA,"Court Square-Dexter Avenue Historic District (Boundary Increase)","Alabama","Montgomery","Montgomery","Roughly Dexter Ave., Perry, Court, and Monroe Sts.","Listed","Single",FALSE,14.2,"Art; Architecture","District","https://catalog.archives.gov/id/77837131",FALSE,FALSE,FALSE,TRUE,FALSE,1984-08-30,NA,"See also:Winter Building",NA,"84000697","Court Square-Dexter Avenue (Boundary Increase)","Court Square-Dexter Avenue Historic District (Boundary Increase), Montgomery, Alabama",32.37738,-86.30919
"41","88003076",NA,"Dowe Historic District","Alabama","Montgomery","Montgomery","320 and 334 Washington Ave. and 114--116 S. Hull St.","Listed","Single",FALSE,1,"Architecture","Building","https://catalog.archives.gov/id/77837100",FALSE,FALSE,FALSE,TRUE,FALSE,1988-12-29,NA,NA,NA,"88003076","Dowe","Dowe Historic District, Montgomery, Alabama",32.37612,-86.30405
"42","00000138",NA,"Huntingdon College Campus Historic District","Alabama","Montgomery","Montgomery","1500 E. Fairview Ave.","Listed","Single",FALSE,58,"Architecture; Education; Landscape Architecture; Other","District","https://catalog.archives.gov/id/77837151",FALSE,FALSE,FALSE,TRUE,FALSE,2000-02-24,NA,"Women's College of Alabama",NA,"00000138","Huntingdon College Campus","Huntingdon College Campus Historic District, Montgomery, Alabama",32.34954,-86.28532
"43","79000395",NA,"Lower Commerce Street Historic District","Alabama","Montgomery","Montgomery","Roughly bounded by RR tracks, Commerce, N. Court, and Bibb Sts.","Listed","Single",FALSE,18,"Commerce; Architecture","District","https://catalog.archives.gov/id/77837139",FALSE,FALSE,TRUE,FALSE,FALSE,1979-03-29,NA,"See Also:Lower Commerce Street Historic District (Boundary I",NA,"79000395","Lower Commerce Street","Lower Commerce Street Historic District, Montgomery, Alabama",32.3801,-86.31081
"44","82002063",NA,"Lower Commerce Street Historic District (Boundary Increase)","Alabama","Montgomery","Montgomery","Roughly bounded by RR tracks, N. Court, Commerce, Coosa, and Tallapoosa Sts.","Listed","Single",FALSE,23,"Commerce; Architecture","District","https://catalog.archives.gov/id/77837129",FALSE,FALSE,TRUE,FALSE,FALSE,1982-02-25,NA,"See Also:Lower Commerce Street Historic District",NA,"82002063","Lower Commerce Street (Boundary Increase)","Lower Commerce Street Historic District (Boundary Increase), Montgomery, Alabama",32.3801,-86.31081
"45","86001529",NA,"Lower Commerce Street Historic District (Boundary Increase)","Alabama","Montgomery","Montgomery","Roughly bounded by Central of Georgia RR tracks, N. Lawrence St., Madison Ave., and Commerce St.","Listed","Single",FALSE,4,"Commerce; Architecture","District","https://catalog.archives.gov/id/77837137",FALSE,FALSE,FALSE,TRUE,FALSE,1987-01-15,NA,"See Also:79000395;82002063",NA,"86001529","Lower Commerce Street (Boundary Increase)","Lower Commerce Street Historic District (Boundary Increase), Montgomery, Alabama",32.3801,-86.31081
"46","87002177",NA,"Maxwell Air Force Base Senior Officer's Quarters Historic District","Alabama","Montgomery","Montgomery","West Dr., N. Juniper & S. Juniper Sts., Inner Circle, Center Dr., Sequoia, & East Dr., Maxwell Air Force Base","Listed","Single",FALSE,81,"Landscape Architecture; Military; Architecture","District","https://catalog.archives.gov/id/77837157",FALSE,TRUE,FALSE,FALSE,FALSE,1988-03-02,NA,NA,NA,"87002177","Maxwell Air Force Base Senior Officer's Quarters","Maxwell Air Force Base Senior Officer's Quarters Historic District, Montgomery, Alabama",32.38111,-86.34125
"47","12000141","MP","Montgomery Veterans Administration Hospital Historic District","Alabama","Montgomery","Montgomery","215 Perry Hill Rd.","Listed","Multiple",FALSE,NA,"Architecture; Politics/Government; Health/Medicine","District","https://catalog.archives.gov/id/77835472",FALSE,FALSE,TRUE,FALSE,FALSE,2012-03-19,NA,"Central Alabama Veterans Health Care System - West",NA,"12000141","Montgomery Veterans Administration Hospital","Montgomery Veterans Administration Hospital Historic District, Montgomery, Alabama",32.37707,-86.24392
"48","71000105",NA,"Ordeman-Shaw Historic District","Alabama","Montgomery","Montgomery","Bounded by McDonough, Decatur, Madison, and Randolph Sts.","Listed","Single",FALSE,7.4,"Commerce; Architecture","District","https://catalog.archives.gov/id/77837135",FALSE,FALSE,FALSE,TRUE,FALSE,1971-05-13,NA,NA,NA,"71000105","Ordeman-Shaw","Ordeman-Shaw Historic District, Montgomery, Alabama",32.38165,-86.30394
"49","100011302","RS","Peacock Tract Historic District","Alabama","Montgomery","Montgomery","the district is generally bounded by Day Street to the north, Rosa L. Parks Avenue to the east, Early Street and I-65 to the southeast, Mill Street to the southwest, and Oak Street to the west","Listed","Resubmission",FALSE,250,"Social History; Ethnic Heritage-Black","District",NA,FALSE,TRUE,TRUE,TRUE,FALSE,2025-12-01,NA,"West Side; West Montgomery",NA,"100011302","Peacock Tract","Peacock Tract Historic District, Montgomery, Alabama",32.197365579751,-86.313048500073
"50","71000106",NA,"Perry Street Historic District","Alabama","Montgomery","Montgomery","Bounded roughly by McDonough St. on E, Sayre St. on W, Washington St. on N, and Donaldson St. on S","Listed","Single",FALSE,170,"Architecture","District","https://catalog.archives.gov/id/77837096",FALSE,FALSE,TRUE,FALSE,FALSE,1971-12-16,NA,NA,NA,"71000106","Perry Street","Perry Street Historic District, Montgomery, Alabama",32.3736,-86.30724
"51","84000713",NA,"South Perry Street Historic District","Alabama","Montgomery","Montgomery","Roughly Perry St. between Washington St. and Dexter Ave.","Listed","Single",FALSE,2,"Architecture","District","https://catalog.archives.gov/id/77837173",FALSE,FALSE,FALSE,TRUE,FALSE,1984-08-30,NA,NA,NA,"84000713","South Perry Street","South Perry Street Historic District, Montgomery, Alabama",32.37682,-86.30742
"52","83002981",NA,"Albany Heritage Neighborhood Historic District","Alabama","Morgan","Decatur","Roughly bounded by Gordon Dr., Summerville Rd., Jackson, 8th, Moulton, 6th, and 4th Aves.","Listed","Single",FALSE,72,"Industry; Architecture","District","https://catalog.archives.gov/id/77837225",FALSE,FALSE,FALSE,TRUE,FALSE,1983-02-03,NA,NA,NA,"83002981","Albany Heritage Neighborhood","Albany Heritage Neighborhood Historic District, Morgan, Alabama",34.60017,-86.97759
"53","80000731",NA,"Bank Street Historic District","Alabama","Morgan","Decatur","Bank St.","Listed","Single",FALSE,14,"Commerce; Architecture","District","https://catalog.archives.gov/id/77837215",FALSE,FALSE,TRUE,FALSE,FALSE,1980-03-27,NA,"See Also:Bank Street-Old Decatur Historic District (Boundary",NA,"80000731","Bank Street","Bank Street Historic District, Morgan, Alabama",34.61009,-86.98334
"54","85001067",NA,"Bank Street-Old Decatur Historic District (Boundary Increase)","Alabama","Morgan","Decatur","Roughly bounded by Bank, Market, Well and Lee Sts.","Listed","Single",FALSE,116.9,"Commerce; Health/Medicine; Politics/Government; Architecture","District","https://catalog.archives.gov/id/77837219",FALSE,FALSE,FALSE,TRUE,FALSE,1985-05-16,NA,"See Also:Bank Street Historic District",NA,"85001067","Bank Street-Old Decatur (Boundary Increase)","Bank Street-Old Decatur Historic District (Boundary Increase), Morgan, Alabama",34.61009,-86.98334
"55","12001079",NA,"East Old Town Historic District","Alabama","Morgan","Decatur","Address Restricted","Listed","Single",TRUE,30,"Architecture; Black; Historic - Non-Aboriginal","District",NA,FALSE,FALSE,FALSE,TRUE,FALSE,2012-12-26,NA,NA,NA,"12001079","East Old Town","East Old Town Historic District, Morgan, Alabama",34.61679,-86.98735
"56","99000469",NA,"Hartselle Downtown Commercial Historic District","Alabama","Morgan","Hartselle","Roughly along Main, Railroad, Hickory, and Sparkman Sts.","Listed","Single",FALSE,15,"Architecture; Transportation; Commerce","District","https://catalog.archives.gov/id/77837233",FALSE,FALSE,FALSE,TRUE,FALSE,1999-04-22,NA,NA,NA,"99000469","Hartselle Downtown Commercial","Hartselle Downtown Commercial Historic District, Morgan, Alabama",34.44321,-86.93395
"57","95000810","AD","New Decatur-Albany Historic District (Additional Documentation)","Alabama","Morgan","Decatur","Roughly, 2nd Ave. (100 block NE., 100 block SE. E side, 300 block SE. W side) and parts of Johnson and Moulton Sts.","Listed","Add.doc.",FALSE,14,"Architecture; Community Planning And Development; Commerce; Entertainment/Recreation","District","https://catalog.archives.gov/id/77837221",FALSE,FALSE,FALSE,TRUE,FALSE,1995-07-07,NA,"See Also:Cotaco Opera House",NA,"95000810","New Decatur-Albany (Additional Documentation)","New Decatur-Albany Historic District (Additional Documentation), Morgan, Alabama",34.6029,-86.9851
"58","100012398","BC","New Decatur-Albany Historic District (Boundary Increase And Boundary Decrease)","Alabama","Morgan","Decatur","Roughly bounded by Moulton St East: 4th and 5th Aves: Grant and Jackson Sts SE: and the Louisville & Nashville Railroad corridor.","Listed","Boundary",FALSE,33,"Architecture; Community Planning And Development; Commerce; Entertainment/Recreation","District","https://catalog.archives.gov/id/77837221",FALSE,FALSE,FALSE,TRUE,FALSE,2025-12-19,NA,"See Also:Cotaco Opera House",NA,"95000810","New Decatur-Albany (Boundary Increase And Boundary Decrease)","New Decatur-Albany Historic District (Boundary Increase And Boundary Decrease), Morgan, Alabama",34.6029,-86.9851
"59","99000148",NA,"New Decatur-Albany Historic District (Boundary Increase)","Alabama","Morgan","Decatur","136 First Ave. NE","Listed","Single",FALSE,0.9,"Commerce","Building","https://catalog.archives.gov/id/77837235",FALSE,FALSE,FALSE,TRUE,FALSE,1999-02-12,NA,NA,NA,"99000148","New Decatur-Albany (Boundary Increase)","New Decatur-Albany Historic District (Boundary Increase), Morgan, Alabama",34.6029,-86.9851
"60","04000274",NA,"New Decatur-Albany Residential Historic District (Boundary Increase)","Alabama","Morgan","Decatur","Grant, Jackson, and Sherman St., gordon and Prospect Drs.","Listed","Single",FALSE,127,"Community Planning And Development; Architecture","District","https://catalog.archives.gov/id/77837237",FALSE,FALSE,FALSE,TRUE,FALSE,2004-04-14,NA,"Albany Heritage Neighborhood District",NA,"04000274","New Decatur-Albany Residential (Boundary Increase)","New Decatur-Albany Residential Historic District (Boundary Increase), Morgan, Alabama",34.60017,-86.97759
"61","12001080",NA,"West Old Town Historic District","Alabama","Morgan","Decatur","Address Restricted","Listed","Single",TRUE,31,"Architecture; Black; Historic - Non-Aboriginal","District",NA,FALSE,FALSE,FALSE,TRUE,FALSE,2012-12-26,NA,NA,NA,"12001080","West Old Town","West Old Town Historic District, Morgan, Alabama",34.61839,-86.99419
"62","79000400",NA,"Green Street Historic District","Alabama","Perry","Marion","203--751 W. Green St.","Listed","Single",FALSE,45,"Architecture","District","https://catalog.archives.gov/id/77837243",FALSE,FALSE,TRUE,FALSE,FALSE,1979-05-30,NA,NA,NA,"79000400","Green Street","Green Street Historic District, Perry, Alabama",32.6334,-87.32447
"63","92001825",NA,"Judson College Historic District","Alabama","Perry","Marion","Roughly bounded by E. Lafayette, Curb, Mason and Washington Sts.","Listed","Single",FALSE,80,"Education; Architecture","District","https://catalog.archives.gov/id/77837261",FALSE,FALSE,FALSE,TRUE,FALSE,1993-02-03,NA,NA,NA,"92001825","Judson College","Judson College Historic District, Perry, Alabama",32.63024,-87.31449
"64","96000111","AD","Marion Courthouse Square Historic District (Additional Documentation)","Alabama","Perry","Marion","210, 301 Pickens St.","Listed","Add.doc.",FALSE,60,"Social History; Politics/Government; Commerce; Architecture; Education","District","https://catalog.archives.gov/id/77837275",FALSE,FALSE,FALSE,TRUE,FALSE,1996-02-16,NA,"See Also:Marion Female Seminary",NA,"96000111","Marion Courthouse Square (Additional Documentation)","Marion Courthouse Square Historic District (Additional Documentation), Perry, Alabama",32.63291,-87.31855
"65","00000137",NA,"Uniontown Historic District","Alabama","Perry","Uniontown","Roughly bounded by Tomasene St., Taylor St., East Ave., and Green St.","Listed","Single",FALSE,140,"Community Planning And Development; Commerce; Architecture","District","https://catalog.archives.gov/id/77837271",FALSE,FALSE,FALSE,TRUE,FALSE,2000-02-24,NA,NA,NA,"00000137","Uniontown","Uniontown Historic District, Perry, Alabama",32.45282,-87.51446
"66","92001844",NA,"West Marion Historic District","Alabama","Perry","Marion","Roughly bounded by W. Lafayette St., Washington St., Murfree Ave., College St. and Margin St.","Listed","Single",FALSE,200,"Education; Architecture","District","https://catalog.archives.gov/id/77837259",FALSE,FALSE,FALSE,TRUE,FALSE,1993-04-22,NA,"See Also:82001615;79000401;78000508",NA,"92001844","West Marion","West Marion Historic District, Perry, Alabama",32.62636,-87.32339
"67","76000352",NA,"College Street Historic District","Alabama","Pike","Troy","W. College St. between Pine and Cherry Sts.","Listed","Single",FALSE,15.5,"Architecture","Building","https://catalog.archives.gov/id/77837295",FALSE,FALSE,TRUE,FALSE,FALSE,1976-08-13,NA,NA,NA,"76000352","College Street","College Street Historic District, Pike, Alabama",31.81043,-85.97551
"68","85003683",NA,"Roanoke Downtown Historic District","Alabama","Randolph","Roanoke","Roughly bounded by White, Main, W. Point, La Monte, Chestnut & Louina Sts.","Listed","Single",FALSE,18,"Commerce; Architecture","District","https://catalog.archives.gov/id/77837299",FALSE,FALSE,FALSE,TRUE,FALSE,1993-02-03,NA,NA,NA,"85003683","Roanoke Downtown","Roanoke Downtown Historic District, Randolph, Alabama",33.15212,-85.37521
"69","83003479",NA,"Brownville-Summerville Historic District","Alabama","Russell","Phenix City","Roughly bounded by 15th and 23rd Sts., and 6th and 11th Aves.","Listed","Multiple",FALSE,87,"Community Planning And Development; Commerce; Architecture","District","https://catalog.archives.gov/id/77835522",FALSE,FALSE,FALSE,TRUE,FALSE,1983-11-03,NA,"Brownville-Summerville Residential-Commercial Historic Distr",NA,"83003479","Brownville-Summerville","Brownville-Summerville Historic District, Russell, Alabama",32.47791,-85.00457
"70","83003481",NA,"Girard Historic District","Alabama","Russell","Phenix City","Roughly bounded by 8th Pl., 10th St., 5th and 8th Aves.","Listed","Multiple",FALSE,23,"Architecture; Social History","District","https://catalog.archives.gov/id/77835542",FALSE,FALSE,FALSE,TRUE,FALSE,1983-11-03,NA,NA,NA,"83003481","Girard","Girard Historic District, Russell, Alabama",32.46335,-85.00071
"71","79000402",NA,"Glennville Historic District","Alabama","Russell","Pittsview","S of Pittsview","Listed","Single",FALSE,544,"Agriculture; Architecture","District","https://catalog.archives.gov/id/77837305",FALSE,FALSE,TRUE,FALSE,FALSE,1979-08-07,NA,NA,NA,"79000402","Glennville","Glennville Historic District, Russell, Alabama",32.11337,-85.17187
"72","09000001",NA,"Hurtsboro Historic District","Alabama","Russell","Hurtsboro","308-905 Church St., 508 Daniel St., 303-407 Dickinson St., 302-802 Goolsby St., 402-502 Lloyd St., 242-282 Long St.","Listed","Single",FALSE,186,"Architecture","District","https://catalog.archives.gov/id/77837315",FALSE,FALSE,FALSE,TRUE,FALSE,2009-10-19,NA,NA,NA,"09000001","Hurtsboro","Hurtsboro Historic District, Russell, Alabama",32.24308,-85.41422
"73","83003482",NA,"Kid Alley Residential Historic District","Alabama","Russell","Phenix City","11th Ave. at 9th Pl.","Listed","Multiple",FALSE,3,"Architecture","District","https://catalog.archives.gov/id/77835534",FALSE,FALSE,FALSE,TRUE,FALSE,1983-11-03,NA,NA,NA,"83003482","Kid Alley Residential","Kid Alley Residential Historic District, Russell, Alabama",32.46387,-85.00718
"74","83003483",NA,"Lower Twentieth Street Residential Historic District","Alabama","Russell","Phenix City","20th St. from 2nd to 6th Aves.","Listed","Multiple",FALSE,7,"Community Planning And Development; Architecture","District","https://catalog.archives.gov/id/77835526",FALSE,FALSE,FALSE,TRUE,FALSE,1983-11-03,NA,NA,NA,"83003483","Lower Twentieth Street Residential","Lower Twentieth Street Residential Historic District, Russell, Alabama",32.47958,-84.99862
"75","83003486",NA,"Smith Residential Historic District","Alabama","Russell","Phenix City","20th St., 7th Ave., and 6th Court","Listed","Multiple",FALSE,3.5,"Architecture","District","https://catalog.archives.gov/id/77835544",FALSE,FALSE,FALSE,TRUE,FALSE,1983-11-03,NA,NA,NA,"83003486","Smith Residential","Smith Residential Historic District, Russell, Alabama",32.47994,-85.0016
"76","83003487",NA,"Snow Valley Residential Historic District","Alabama","Russell","Phenix City","11th and 12th Sts. at 11th Ave.","Listed","Multiple",FALSE,7.5,"Architecture","District","https://catalog.archives.gov/id/77835538",FALSE,FALSE,FALSE,TRUE,FALSE,1983-11-03,NA,NA,NA,"83003487","Snow Valley Residential","Snow Valley Residential Historic District, Russell, Alabama",32.46762,-85.00746
"77","83003488",NA,"Upper Twentieth Street Residential Historic District","Alabama","Russell","Phenix City","1201-1217 W. 20th St.","Listed","Multiple",FALSE,1,"Architecture","District","https://catalog.archives.gov/id/77835520",FALSE,FALSE,FALSE,TRUE,FALSE,1983-11-03,NA,NA,NA,"83003488","Upper Twentieth Street Residential","Upper Twentieth Street Residential Historic District, Russell, Alabama",32.47942,-85.01005
"78","06000188",NA,"Calera Downtown Historic District","Alabama","Shelby","Calera","Jct. of US 31 and AL 25","Listed","Single",FALSE,22,"Transportation; Commerce; Architecture","District","https://catalog.archives.gov/id/77837340",FALSE,FALSE,FALSE,TRUE,FALSE,2006-03-29,NA,NA,NA,"06000188","Calera Downtown","Calera Downtown Historic District, Shelby, Alabama",33.10088,-86.75316
"79","13000180",NA,"Downtown Montevallo Historic District","Alabama","Shelby","Montevallo","555-925 Main, 710-745 Middle & 608 Valley Sts.","Listed","Single",FALSE,10,"Commerce; Architecture","District",NA,FALSE,FALSE,FALSE,TRUE,FALSE,2013-04-23,NA,NA,NA,"13000180","Downtown Montevallo","Downtown Montevallo Historic District, Shelby, Alabama",33.10032,-86.86305
"80","06000278",NA,"Helena Historic District","Alabama","Shelby","Helena","Parts of AL 261 and Helena Rd., parts of 1st-3rd Ave., 200 blk 3rd St.","Listed","Single",FALSE,50,"Architecture; Commerce","District","https://catalog.archives.gov/id/77837332",FALSE,FALSE,FALSE,TRUE,FALSE,2006-04-18,NA,NA,NA,"06000278","Helena","Helena Historic District, Shelby, Alabama",33.29519,-86.84364
"81","90001529",NA,"University Of Montevallo Historic District (Boundary Increase)","Alabama","Shelby","Montevallo","Roughly bounded by Bloch St., Farmer St., Flowerhill Dr., King St., Valley St., and Middle St.","Listed","Single",FALSE,62.3,"Community Planning And Development; Education; Architecture","District","https://catalog.archives.gov/id/77837334",FALSE,FALSE,FALSE,TRUE,FALSE,1990-10-17,NA,"See Also:Alabama Girls' Industrial School",NA,"90001529","University Of Montevallo (Boundary Increase)","University Of Montevallo Historic District (Boundary Increase), Shelby, Alabama",33.10432,-86.86455
"82","05000288",NA,"Ashville Historic District","Alabama","St. Clair","Ashville","Bounded by AL 23, Greensport Rd., 8th Ave., Waldrop Dr., AL 231, and 5th St.","Listed","Single",FALSE,350,"Architecture; Commerce","District","https://catalog.archives.gov/id/77837351",FALSE,FALSE,FALSE,TRUE,FALSE,2005-04-20,NA,NA,NA,"05000288","Ashville","Ashville Historic District, St. Clair, Alabama",33.83579,-86.25305
"83","00001030",NA,"Avandale Mill Historic District","Alabama","St. Clair","Pell City","Roughly bounded by 25th St. N, 7th Ave. N, 30th St. N, and S of 4th Ave. N.","Listed","Single",FALSE,150,"Industry; Architecture; Social History; Community Planning And Development","District","https://catalog.archives.gov/id/77837365",FALSE,FALSE,FALSE,TRUE,FALSE,2000-08-31,NA,NA,NA,"00001030","Avandale Mill","Avandale Mill Historic District, St. Clair, Alabama",33.59269,-86.27828
"84","01001291",NA,"Old Pell City Historic District","Alabama","St. Clair","Pell City","Roughly bounded by 16th St. N, 1st Ave. N, 22nd St. N, and 4th Ave. N","Listed","Single",FALSE,150,"Architecture; Community Planning And Development","District","https://catalog.archives.gov/id/77837353",FALSE,FALSE,FALSE,TRUE,FALSE,2001-11-29,NA,NA,NA,"01001291","Old Pell City","Old Pell City Historic District, St. Clair, Alabama",33.58814,-86.28618
"85","01001169",NA,"Pell City Downtown Historic District","Alabama","St. Clair","Pell City","1900-2111 Cogwell Ave, 2008 1st Ave. S., 8 N. 21st St., 10 S. 20th St.","Listed","Single",FALSE,50,"Commerce; Architecture","District","https://catalog.archives.gov/id/77837361",FALSE,FALSE,FALSE,TRUE,FALSE,2001-10-29,NA,NA,NA,"01001169","Pell City Downtown","Pell City Downtown Historic District, St. Clair, Alabama",33.58664,-86.28478
"86","97000653",NA,"Springville Historic District","Alabama","St. Clair","Springville","Roughly bounded by Academy, Wilson, and Cross Sts.,the Norfork-Southern RR tracks, Industrial Dr., and Sarusce St.","Listed","Single",FALSE,250,"Social History; Commerce; Architecture","District","https://catalog.archives.gov/id/77837369",FALSE,FALSE,FALSE,TRUE,FALSE,1997-07-03,NA,"see also:Presley Store",NA,"97000653","Springville","Springville Historic District, St. Clair, Alabama",33.77591,-86.4703
"87","85002925",NA,"Gainesville Historic District","Alabama","Sumter","Gainesville","Roughly bounded by North Carolina, Church and School and Lafayette Sts., end of town grid, and Webster St.","Listed","Multiple",FALSE,76,"Architecture","District","https://catalog.archives.gov/id/77835568",FALSE,FALSE,FALSE,TRUE,FALSE,1985-10-03,NA,"See Also:Mobley, Col. Green G., House",NA,"85002925","Gainesville","Gainesville Historic District, Sumter, Alabama",32.81681,-88.15726
"88","85002927",NA,"Main-Yankee Street Historic District","Alabama","Sumter","Gainesville","Roughly bounded by Main, Washington, and School Sts.","Listed","Multiple",FALSE,6.5,"Architecture","District","https://catalog.archives.gov/id/77835570",FALSE,FALSE,FALSE,TRUE,FALSE,1985-10-03,NA,NA,NA,"85002927","Main-Yankee Street","Main-Yankee Street Historic District, Sumter, Alabama",32.82263,-88.15586
"89","90001316","AD","Talladega College Historic District (Additional Documentation)","Alabama","Talladega","Talladega","627 West Battle St.","Listed","Add.doc.",FALSE,7.5,"Education; Architecture; Ethnic Heritage-Black; Social History","District","https://catalog.archives.gov/id/77837414",FALSE,FALSE,FALSE,TRUE,FALSE,1990-08-23,NA,NA,NA,"90001316","Talladega College (Additional Documentation)","Talladega College Historic District (Additional Documentation), Talladega, Alabama",33.43383,-86.11285
"90","100007214","BC","Talladega College Historic District (Boundary Increase)","Alabama","Talladega","Talladega","627 West Battle St.","Listed","Boundary",FALSE,7.5,"Education; Architecture; Ethnic Heritage-Black; Social History","District","https://catalog.archives.gov/id/77837414",FALSE,FALSE,FALSE,TRUE,FALSE,2021-12-08,NA,NA,NA,"90001316","Talladega College (Boundary Increase)","Talladega College Historic District (Boundary Increase), Talladega, Alabama",33.43383,-86.11285
"91","72000181",NA,"Talladega Courthouse Square Historic District","Alabama","Talladega","Talladega","Courthouse Sq.","Listed","Single",FALSE,6,"Commerce; Architecture","District","https://catalog.archives.gov/id/77837398",FALSE,FALSE,TRUE,FALSE,FALSE,1972-10-18,NA,"See Also Talladega Courthouse Square Historic District (Boun",NA,"72000181","Talladega Courthouse Square","Talladega Courthouse Square Historic District, Talladega, Alabama",33.43489,-86.10275
"92","88000471",NA,"Talladega Courthouse Square Historic District (Boundary Increase)","Alabama","Talladega","Talladega","Roughly bounded by N. East and E. North and S. East, Coffee and Spring Sts.","Listed","Single",FALSE,4,"Commerce; Politics/Government; Architecture","District","https://catalog.archives.gov/id/77837400",FALSE,FALSE,FALSE,TRUE,FALSE,1988-06-30,NA,NA,NA,"88000471","Talladega Courthouse Square (Boundary Increase)","Talladega Courthouse Square Historic District (Boundary Increase), Talladega, Alabama",33.43489,-86.10275
"93","00000711",NA,"Alexander City Commercial Historic District","Alabama","Tallapoosa","Alexander City","Portions of Broad, Main, Green, Alabama, Jefferson Sts. and Courthouse Sq.","Listed","Single",FALSE,8,"Commerce; Politics/Government; Architecture","District","https://catalog.archives.gov/id/77837430",FALSE,FALSE,FALSE,TRUE,FALSE,2000-06-22,NA,NA,NA,"00000711","Alexander City Commercial","Alexander City Commercial Historic District, Tallapoosa, Alabama",32.94578,-85.95364
"94","05000837",NA,"Avondale Historic District","Alabama","Tallapoosa","Alexander City","Bet. Rose Ave. and Scott St., Hillabee St. and 7th St.","Listed","Single",FALSE,750,"Community Planning And Development; Architecture","District","https://catalog.archives.gov/id/77837432",FALSE,FALSE,FALSE,TRUE,FALSE,2005-08-09,NA,NA,NA,"05000837","Avondale","Avondale Historic District, Tallapoosa, Alabama",32.93993,-85.94072
"95","13000471","AD","Dadeville Historic District (Additional Documentation)","Alabama","Tallapoosa","Dadeville","Lafayette, East, South, S. Tallassee & West Sts.","Listed","Add.doc.",FALSE,160,"Community Planning And Development; Architecture","District",NA,FALSE,FALSE,FALSE,TRUE,FALSE,2013-07-10,NA,NA,NA,"13000471","Dadeville (Additional Documentation)","Dadeville Historic District (Additional Documentation), Tallapoosa, Alabama",32.83143,-85.76367
"96","05000833",NA,"North Central Historic District","Alabama","Tallapoosa","Alexandria City","Bet. Hall and Summer, Warren and Hillabee, Warren and Ridgeway, MLK and Hillabee","Listed","Single",FALSE,850,"Architecture","District","https://catalog.archives.gov/id/77837424",FALSE,FALSE,FALSE,TRUE,FALSE,2005-08-11,NA,NA,NA,"05000833","North Central","North Central Historic District, Tallapoosa, Alabama",32.9583,-85.95996
"97","05000839",NA,"Russell Family Historic District","Alabama","Tallapoosa","Alexander City","35, 65, 85 N. Central, 228, 334 Robin Hill, 101 Russwood","Listed","Single",FALSE,50,"Architecture","District","https://catalog.archives.gov/id/77837420",FALSE,FALSE,FALSE,TRUE,FALSE,2006-03-21,NA,NA,NA,"05000839","Russell Family","Russell Family Historic District, Tallapoosa, Alabama",32.94367,-85.96266
"98","05000840",NA,"South Central Historic District","Alabama","Tallapoosa","Alexander City","Bounded by Broad St., Tallpoosa St., Cherokee Rd., Bishop St., Franklin St., Willow St.","Listed","Single",FALSE,200,"Architecture","District","https://catalog.archives.gov/id/77837426",FALSE,FALSE,FALSE,TRUE,FALSE,2005-08-09,NA,NA,NA,"05000840","South Central","South Central Historic District, Tallapoosa, Alabama",32.93552,-85.9508
"99","85001517",NA,"Audubon Place Historic District","Alabama","Tuscaloosa","Tuscaloosa","1515--1707 (odd) University Blvd. & #8--37 Audubon Pl.","Listed","Single",FALSE,5.4,"Community Planning And Development; Landscape Architecture; Commerce; Architecture","District","https://catalog.archives.gov/id/77837495",FALSE,FALSE,FALSE,TRUE,FALSE,1985-07-11,NA,"Audubon Place",NA,"85001517","Audubon Place","Audubon Place Historic District, Tuscaloosa, Alabama",33.21067,-87.55834
"100","85001159",NA,"Caplewood Drive Historic District","Alabama","Tuscaloosa","Tuscaloosa","Roughly bounded by Caplewood Dr., and University Blvd.","Listed","Single",FALSE,11,"Community Planning And Development; Architecture","District","https://catalog.archives.gov/id/77837468",FALSE,FALSE,FALSE,TRUE,FALSE,1985-05-30,NA,"Caplewood Terrace",NA,"85001159","Caplewood Drive","Caplewood Drive Historic District, Tuscaloosa, Alabama",33.21234,-87.5564
