Name,Address,Latitude,Longitude,Phone,Email,Website,Website Label,Business Hours,Image URL,Description,Hyperlink,Hyperlink Label,Priority,Active
1st Summit Arena,,40.3229087,-78.9228308,,,,,,,,,,,TRUE
3M Arena at Mariucci,,44.9780504,-93.2281029,,,,,,,,,,,TRUE
Abbotsford Centre,,49.0307232,-122.2871077,,,,,,,,,,,TRUE
Acrisure Arena,,33.7784544,-116.3390586,,,,,,,,,,,TRUE
Addition Financial Arena,,28.6073937,-81.1974192,,,,,,,,,,,TRUE
Adirondack Bank Center,,43.1048996,-75.2334094,,,,,,,,,,,TRUE
Adventist Health Arena,,37.9560164,-121.2960148,,,,,,,,,,,TRUE
A.E. Wood Coliseum,,32.3351635,-90.3322238,,,,,,,,,,,TRUE
Agganis Arena,,42.352232913662,-71.1177098751068,,,,,,,,,,,TRUE
Air Canada Centre,,43.6433504,-79.3790531,,,,,,,,,,,TRUE
Alabama A&M Event Center,,34.7867327,-86.576002,,,,,,,,,,,TRUE
Alaska Airlines Arena,,47.6520728,-122.3022455,,,,,,,,,,,TRUE
Alaska Airlines Center,,61.1886392,-149.8141837,,,,,,,,,,,TRUE
Alex G. Spanos Center,,37.976697,-121.3151336,,,,,,,,,,,TRUE
Alfond Arena,,44.904531,-68.6736381,,,,,,,,,,,TRUE
Alico Arena,,26.4710724324877,-81.7647010087967,,,,,,,,,,,TRUE
Allen Arena,,36.1036984,-86.7989606,,,,,,,,,,,TRUE
Allen County War Memorial Coliseum,,41.1156172,-85.1241517,,,,,,,,,,,TRUE
Al Lawson Center,,30.4241881,-84.2905855,,,,,,,,,,,TRUE
Allen Fieldhouse,,38.9543363,-95.2528381,,,,,,,,,,,TRUE
Alliant Energy PowerHouse,,41.9800639,-91.6674861,,,,,,,,,,,TRUE
Allstate Arena,,42.0052204,-87.8878355,,,,,,,,,,,TRUE
Al McGuire Center,,43.0399086,-87.9266202,,,,,,,,,,,TRUE
Alumni Arena,,42.9998138137038,-78.7810921669006,,,,,,,,,,,TRUE
Alumni Hall,,38.9845657658528,-76.4879107475281,,,,,,,,,,,TRUE
Akins Ford Arena,,33.9611885,-83.3708887,,,,,,,,,,,TRUE
Amerant Bank Arena,,26.1584907,-80.3255403,,,,,,,,,,,TRUE
American Airlines Center,,32.7904854437124,-96.8103539943695,,,,,,,,,,,TRUE
AMSOIL Arena,,46.7804684050275,-92.0996975898743,,,,,,,,,,,TRUE
Anaheim Convention Center,,33.8022445,-117.9198152,,,,,,,,,,,TRUE
Angel of the Winds Arena,,47.9784246,-122.203331,,,,,,,,,,,TRUE
Appalachian Wireless Arena,,37.4777956,-82.5171787,,,,,,,,,,,TRUE
Arena-Auditorium,,41.3133543,-105.5693865,,,,,,,,,,,TRUE
Assembly Hall,,39.1809507162735,-86.5224409103394,,,,,,,,,,,TRUE
Athletics-Recreation Center,,41.4644325,-87.0483296,,,,,,,,,,,TRUE
Atlantic Union Bank Center,,38.4304798,-78.8595522,,,,,,,,,,,TRUE
Augusta Civic Center,,44.3424043276655,-69.7989106178284,,,,,,,,,,,TRUE
Avenir Centre,,46.0854935,-64.7849057,,,,,,,,,,,TRUE
Ball Arena,,39.7487077,-105.0076676,,,,,,,,,,,TRUE
Bank of Springfield Center,,39.8010604,-89.6444464,,,,,,,,,,,TRUE
Bank OZK Arena,,34.5096068,-93.0499614,,,,,,,,,,,TRUE
Baptist Health Arena,,37.7372843,-84.3013573,,,,,,,,,,,TRUE
Barclays Center,,40.6827290119536,-73.9755606651306,,,,,,,,,,,TRUE
Barnhill Arena,,36.0666583298427,-94.1779965162277,,,,,,,,,,,TRUE
Bartow Arena,,33.502021509423,-86.8092441558838,,,,,,,,,,,TRUE
Baxter Arena,,41.2362208,-96.0132766,,,,,,,,,,,TRUE
Beasley Coliseum,,46.7351989,-117.1580529,,,,,,,,,,,TRUE
Beeghly Center,,41.1082855,-80.6487948,,,,,,,,,,,TRUE
Belgrade Special Events Center,,45.7827585670373,-111.178658008575,,,,,,,,,,,TRUE
Bell Centre,,45.4960598,-73.569206,,,,,,,,,,,TRUE
Bell Place,,45.5558759,-73.7216038,,,,,,,,,,,TRUE
Belk Arena,,35.4992598,-80.8403849,,,,,,,,,,,TRUE
Benchmark International Arena,,27.9426448,-82.4517918,,,,,,,,,,,TRUE
Berglund Center,,37.2801782,-79.9358582,,,,,,,,,,,TRUE
Bernard G. Johnson Coliseum,,30.7128767615646,-95.5461323261261,,,,,,,,,,,TRUE
Berry Bowl,,40.7492213,-86.3311842,,,,,,,,,,,TRUE
Berry Center,,29.9048462,-95.6886113,,,,,,,,,,,TRUE
Berry Events Center,,46.5577537,-87.3926568,,,,,,,,,,,TRUE
Bert Ogden Arena,,26.2555295,-98.1647415,,,,,,,,,,,TRUE
Bill Greehey Arena,,29.4517667,-98.5643202,,,,,,,,,,,TRUE
Bill Green Athletic Arena,,40.5385891,-85.6698371,,,,,,,,,,,TRUE
Bill Harris Arena,,33.4947941,-86.8739858,,,,,,,,,,,TRUE
Bismarck Event Center,,46.8024389750884,-100.783338546753,,,,,,,,,,,TRUE
Blue Arena,,40.4441547,-104.9895036,,,,,,,,,,,TRUE
Blue Cross Arena,,43.1537434,-77.6107907,,,,,,,,,,,TRUE
BMO Center,,42.2702513,-89.0961063,,,,,,,,,,,TRUE
Boardwalk Hall,,39.354913,-74.4384149,,,,,,,,,,,TRUE
Boart Longyear Memorial Gardens,,46.3142314,-79.4489729,,,,,,,,,,,TRUE
Bob Carpenter Center,,39.6604951,-75.7486135,,,,,,,,,,,TRUE
Bob Devaney Sports Center,,40.8302502,-96.6976368,,,,,,,,,,,TRUE
Bojangles' Coliseum,,35.2050668,-80.7952273,,,,,,,,,,,TRUE
BOK Center,,36.1527418,-95.9964108,,,,,,,,,,,TRUE
Bon Secours Wellness Arena,,34.8527629038045,-82.3915600776672,,,,,,,,,,,TRUE
Boonville High School Gym,,38.0527508,-87.2794775,,,,,,,,,,,TRUE
Bramlage Coliseum,,39.2002839,-96.5939319,,,,,,,,,,,TRUE
Brandt Centre,,50.4503383,-104.63763,,,,,,,,,,,TRUE
Bren Events Center,,33.649310448126,-117.847208976746,,,,,,,,,,,TRUE
Breslin Center,,42.7281632054322,-84.4922661781311,,,,,,,,,,,TRUE
Bridgestone Arena,,36.1590828,-86.7784631,,,,,,,,,,,TRUE
Broadview Center,,42.6820016,-73.8283825,,,,,,,,,,,TRUE
Brooks Gym,,36.3026321,-82.3703492,,,,,,,,,,,TRUE
Brookshire Grocery Arena,,32.4651837,-93.6736394,,,,,,,,,,,TRUE
Brownwood Coliseum,,31.7201911680321,-98.9782762527466,,,,,,,,,,,TRUE
Bryce Jordan Center,,40.8086772,-77.8556013,,,,,,,,,,,TRUE
Bud Walton Arena,,36.0615631,-94.1781628,,,,,,,,,,,TRUE
Budweiser Gardens,,42.9825332,-81.2524688,,,,,,,,,,,TRUE
Buford City Arena,,34.128703,-83.9874421,,,,,,,,,,,TRUE
Burns Arena,,37.1014246,-113.5670149,,,,,,,,,,,TRUE
Burton Coliseum,,30.1369995,-93.211484,,,,,,,,,,,TRUE
Butte Civic Center,,46.0018954729182,-112.519279718399,,,,,,,,,,,TRUE
CAA Arena,,44.1880049,-77.3835969,,,,,,,,,,,TRUE
CAA Centre,,43.6671801,-79.7083305,,,,,,,,,,,TRUE
Cable Dahmer Arena,,39.0399946,-94.3573667,,,,,,,,,,,TRUE
Cajundome,,30.2184597,-92.0386934,,,,,,,,,,,TRUE
Cal Farley Coliseum,,35.2081963531272,-101.830183267593,,,,,,,,,,,TRUE
Calihan Hall,,42.4143876867036,-83.1360447406769,,,,,,,,,,,TRUE
Cal U Convocation Center,,40.0632272,-79.8818333,,,,,,,,,,,TRUE
Cambellton Civic Center,,48.0108482742155,-66.668998003006,,,,,,,,,,,TRUE
Cameron Hall,,37.7885392,-79.4365275,,,,,,,,,,,TRUE
Cameron Indoor Stadium,,35.9975084,-78.9422232,,,,,,,,,,,TRUE
Cam Henderson Center,,38.4244703,-82.4250448,,,,,,,,,,,TRUE
Canada Life Centre,,49.8925609,-97.1437097,,,,,,,,,,,TRUE
Canadian Tire Centre,,45.296928,-75.9271789,,,,,,,,,,,TRUE
Cannon Activities Center,,21.6418121,-157.9241216,,,,,,,,,,,TRUE
Canton Memorial Civic Center,,40.8079626,-81.3728464,,,,,,,,,,,TRUE
Canton Memorial Field House,,40.8178691,-81.3975227,,,,,,,,,,,TRUE
Capital One Arena,,38.8981306,-77.0207691,,,,,,,,,,,TRUE
CareFirst Arena,,38.8467752,-76.9904223,,,,,,,,,,,TRUE
Carlson Center,,64.8422791,-147.7639139,,,,,,,,,,,TRUE
Carmichael Arena,,35.9095866,-79.0454131,,,,,,,,,,,TRUE
Carnesecca Arena,,40.724165,-73.7944955,,,,,,,,,,,TRUE
Carver Arena,,40.6918855,-89.5935595,,,,,,,,,,,TRUE
Carver-Hawkeye Arena,,41.6637032,-91.5545869,,,,,,,,,,,TRUE
Case Arena,,40.2807752,-86.4849184,,,,,,,,,,,TRUE
Casey's Center,,41.5926986,-93.6211109,,,,,,,,,,,TRUE
Casper Events Center,,42.8682269,-106.3327111,,,,,,,,,,,TRUE
Cassell Coliseum,,37.2225971,-80.4189564,,,,,,,,,,,TRUE
CEFCU Arena,,40.5106833,-88.9987743,,,,,,,,,,,TRUE
CEI Arena,,39.2528517,-76.7123795,,,,,,,,,,,TRUE
Centennial Center,,33.0766012,-83.2338917,,,,,,,,,,,TRUE
Centre 200,,46.1372628,-60.1901221,,,,,,,,,,,TRUE
Centrum Arena,,37.675482,-113.0729521,,,,,,,,,,,TRUE
CFG Bank Arena,,39.2887054,-76.6187227,,,,,,,,,,,TRUE
CFSB Center,,36.6226577,-88.3199823,,,,,,,,,,,TRUE
Chaifetz Arena,,38.632486,-90.227859,,,,,,,,,,,TRUE
Charles E. Smith Center,,38.8978174,-77.04934,,,,,,,,,,,TRUE
Charles Koch Arena,,37.7217049,-97.29736,,,,,,,,,,,TRUE
Charleston Civic Center,,38.3559096,-81.6396834,,,,,,,,,,,TRUE
Chartway Arena,,36.8841217,-76.3014114,,,,,,,,,,,TRUE
Chase Center,,37.7678774,-122.3874542,,,,,,,,,,,TRUE
Chase Family Arena,,41.7989656,-72.7112076,,,,,,,,,,,TRUE
CHI Health Center Omaha,,41.2626383,-95.9281218,,,,,,,,,,,TRUE
Chiles Center,,45.5750895,-122.7284753,,,,,,,,,,,TRUE
Chilliwack Coliseum,,49.1696465,-121.9690776,,,,,,,,,,,TRUE
Christl Arena,,41.3863962,-73.9656258,,,,,,,,,,,TRUE
Cintas Center,,39.1502227,-84.4718922,,,,,,,,,,,TRUE
Cleveland Public Auditorium,,41.5036739,-81.6930473,,,,,,,,,,,TRUE
Climate Pledge Arena,,47.6220922,-122.3540655,,,,,,,,,,,TRUE
Clune Arena,,39.0129067,-104.8868716,,,,,,,,,,,TRUE
CN Centre,,53.9044899,-122.8019893,,,,,,,,,,,TRUE
Coca-Cola Coliseum,,43.6355627,-79.4150162,,,,,,,,,,,TRUE
Coleman Coliseum,,33.2030015,-87.5396982,,,,,,,,,,,TRUE
College Park Center,,32.7307397,-97.1083047,,,,,,,,,,,TRUE
Colonial Life Arena,,33.9948251,-81.0373021,,,,,,,,,,,TRUE
Columbus Civic Center,,32.450272,-84.987681,,,,,,,,,,,TRUE
Comerica Center,,33.1005971,-96.8199671,,,,,,,,,,,TRUE
Compton Family Ice Arena,,41.6938368,-86.230756,,,,,,,,,,,TRUE
Conte Forum,,42.3350211,-71.1676688,,,,,,,,,,,TRUE
Convocation Center,,33.574779,-81.7739118,,,,,,,,,,,TRUE
Convocation Center,,39.3232432,-82.1055831,,,,,,,,,,,TRUE
Convocation Center,,29.5823191,-98.6215721,,,,,,,,,,,TRUE
Convocation Center,,37.0197812,-76.331023,,,,,,,,,,,TRUE
Co-op Place,,50.0676422,-110.7356321,,,,,,,,,,,TRUE
Corbin Arena,,36.9133256,-84.1248884,,,,,,,,,,,TRUE
Corbett Sports Center,,36.0767222,-79.768805,,,,,,,,,,,TRUE
Corteva Coliseum,,39.8275926,-86.1350228,,,,,,,,,,,TRUE
Coussoulis Arena,,34.1827623,-117.3196399,,,,,,,,,,,TRUE
Covelli Center,,40.0138491,-83.0280145,,,,,,,,,,,TRUE
Covelli Centre,,41.0961627,-80.6479847,,,,,,,,,,,TRUE
Credit Union 1 Arena,,41.8748177,-87.6561838,,,,,,,,,,,TRUE
Credit Union of Texas Event Center,,33.1274167626235,-96.6548180580139,,,,,,,,,,,TRUE
Crisler Center,,42.2650033,-83.7466658,,,,,,,,,,,TRUE
Cross Insurance Arena,,43.6555241,-70.2592451,,,,,,,,,,,TRUE
Cross Insurance Center,,44.789092,-68.7791348,,,,,,,,,,,TRUE
Crown Coliseum,,35.0151654,-78.891728,,,,,,,,,,,TRUE
Crypto.com Arena,,34.0430587,-118.2672107,,,,,,,,,,,TRUE
CU Events Center,,40.004706,-105.2605248,,,,,,,,,,,TRUE
Curb Event Center,,36.1323032,-86.7946315,,,,,,,,,,,TRUE
Curtis Culwell Center,,32.9593006,-96.6419865,,,,,,,,,,,TRUE
Dahlberg Arena,,46.8638443,-113.983326,,,,,,,,,,,TRUE
Davey L. Whitney Complex,,31.8732482,-91.1332387,,,,,,,,,,,TRUE
David R. Stopher Gym,,29.7923417,-90.8013529,,,,,,,,,,,TRUE
DCU Center,,42.2649676,-71.7989641,,,,,,,,,,,TRUE
Dean E. Smith Center,,35.8994363,-79.0440078,,,,,,,,,,,TRUE
Dee Events Center,,41.1823281,-111.9450402,,,,,,,,,,,TRUE
Dee Glen Smith Spectrum,,41.7475984,-111.8119276,,,,,,,,,,,TRUE
Delmar Fieldhouse,,29.8027837,-95.4571664,,,,,,,,,,,TRUE
Delta Center,,40.7682811,-111.9012022,,,,,,,,,,,TRUE
Denny Sanford Premier Center,,43.5607554,-96.7516565,,,,,,,,,,,TRUE
Denver Coliseum,,39.7791355,-104.9707228,,,,,,,,,,,TRUE
Desert Diamond Arena,,33.531939,-112.2616902,,,,,,,,,,,TRUE
Desert Financial Arena,,33.424484,-111.9310606,,,,,,,,,,,TRUE
Dickies Arena,,32.7409071,-97.3698005,,,,,,,,,,,TRUE
Dignity Health Arena,,35.3719749,-119.0134549,,,,,,,,,,,TRUE
D.L. Ligon Coliseum,,33.8718587,-98.5197151,,,,,,,,,,,TRUE
Donald L. Tucker Center,,30.4376851,-84.2866588,,,,,,,,,,,TRUE
Don Haskins Center,,31.7773813,-106.5055257,,,,,,,,,,,TRUE
Dort Federal Event Center,,43.0109236,-83.6418021,,,,,,,,,,,TRUE
Dow Event Center,,43.4360194,-83.937006,,,,,,,,,,,TRUE
Dunkin' Donuts Center,,41.8236692,-71.4183426,,,,,,,,,,,TRUE
Dunn-Oliver Acadome,,32.3618202,-86.2930477,,,,,,,,,,,TRUE
E.A. Diddle Arena,,36.9862629,-86.457628,,,,,,,,,,,TRUE
EagleBank Arena,,38.8266574,-77.309525,,,,,,,,,,,TRUE
Eastlink Centre,,46.2452522,-63.1174153,,,,,,,,,,,TRUE
Hooper Eblen Center,,36.1784406,-85.5098963,,,,,,,,,,,TRUE
Echols Hall,,36.8476031,-76.2612748,,,,,,,,,,,TRUE
Ector County Coliseum,,31.8840123,-102.3869348,,,,,,,,,,,TRUE
Ed and Rae Schollmaier Arena,,32.7088236,-97.3666979,,,,,,,,,,,TRUE
Ed Lumley Arena,,45.0143766,-74.7233177,,,,,,,,,,,TRUE
Edmonton Expo Centre,,53.5688801,-113.4575697,,,,,,,,,,,TRUE
Ed Robson Arena,,38.8460628,-104.8223718,,,,,,,,,,,TRUE
Elam Center,,36.3435534,-88.8680542,,,,,,,,,,,TRUE
Ellis Davis Field House,,32.6373421,-96.8422723,,,,,,,,,,,TRUE
Ellis T. Johnson Arena,,38.1903417,-83.4257877,,,,,,,,,,,TRUE
Enmarket Arena,,32.0740544,-81.1115351,,,,,,,,,,,TRUE
Enterprise Center,,38.6267951,-90.2026784,,,,,,,,,,,TRUE
Erie Insurance Arena,,42.1280126,-80.0809014,,,,,,,,,,,TRUE
Events Center,,42.0934995,-75.9718993,,,,,,,,,,,TRUE
ExtraMile Arena,,43.6036014,-116.1989379,,,,,,,,,,,TRUE
F&M Bank Arena,,36.5294462,-87.3602213,,,,,,,,,,,TRUE
Fair Park Coliseum,,32.7792981,-96.757219,,,,,,,,,,,TRUE
Family Arena,,38.7477493,-90.5092764,,,,,,,,,,,TRUE
Fant-Ewing Coliseum,,32.5310573,-92.0694315,,,,,,,,,,,TRUE
Farris Center,,35.0818484,-92.4594945,,,,,,,,,,,TRUE
FedEx Forum,,35.1381248,-90.0505972,,,,,,,,,,,TRUE
Felix Event Center,,34.1338047,-117.8833437,,,,,,,,,,,TRUE
Felton J. Capel Arena,,35.075799,-78.8957405,,,,,,,,,,,TRUE
Ferrell Center,,31.5479292,-97.1056008,,,,,,,,,,,TRUE
Fertitta Center,,29.724685,-95.3469837,,,,,,,,,,,TRUE
F.G. Clark Activity Center,,30.5217608,-91.1854076,,,,,,,,,,,TRUE
Fifth Third Arena,,39.1311672,-84.5141316,,,,,,,,,,,TRUE
Findlay Toyota Center,,34.5891633,-112.3361921,,,,,,,,,,,TRUE
Finneran Pavilion,,40.0340591,-75.3365082,,,,,,,,,,,TRUE
First Bank & Trust Arena,,44.3185096,-96.7787683,,,,,,,,,,,TRUE
First Horizon Coliseum,,36.0597852,-79.8256732,,,,,,,,,,,TRUE
First Interstate Arena,,45.800295,-108.477559,,,,,,,,,,,TRUE
First Interstate Bank Center,,44.2356504,-121.1839539,,,,,,,,,,,TRUE
First National Bank Arena,,35.8454216,-90.6704664,,,,,,,,,,,TRUE
First United Bank Center,,34.9809421,-101.9039869,,,,,,,,,,,TRUE
Fiserv Forum,,43.0451583,-87.917431,,,,,,,,,,,TRUE
Fishers Event Center,,39.9474538,-86.0036005,,,,,,,,,,,TRUE
Fitzgerald Field House,,40.4434851,-79.9641824,,,,,,,,,,,TRUE
Fleet Farm Arena,,42.4913558,-96.4072931,,,,,,,,,,,TRUE
Florence Civic Center,,34.1854648,-79.8377538,,,,,,,,,,,TRUE
Fogelman Arena,,29.9390935,-90.1207155,,,,,,,,,,,TRUE
Food City Center,,35.9511214,-83.9250219,,,,,,,,,,,TRUE
Forbes Arena,,33.7484809,-84.4170839,,,,,,,,,,,TRUE
Ford Arena,,30.0110135,-94.1796614,,,,,,,,,,,TRUE
Ford Center,,37.9719608,-87.5675905,,,,,,,,,,,TRUE
Ford Idaho Center,,43.6080375,-116.507982,,,,,,,,,,,TRUE
Foster Auditorium,,33.2077267,-87.5439334,,,,,,,,,,,TRUE
Foster Pavilion,,31.5562473,-97.121077,,,,,,,,,,,TRUE
Fowler Events Center,,33.926833,-117.4223572,,,,,,,,,,,TRUE
Frank G. Lumpkin Jr. Center,,32.5024509,-84.940179,,,,,,,,,,,TRUE
Freedom Hall Civic Center,,36.3243402,-82.3749948,,,,,,,,,,,TRUE
Freeman Coliseum,,29.4270603,-98.4394046,,,,,,,,,,,TRUE
Frericks Center,,39.7388745,-84.1790057,,,,,,,,,,,TRUE
Frontwave Arena,,33.2075872,-117.3147584,,,,,,,,,,,TRUE
Frost Bank Center,,29.4269831,-98.4374785,,,,,,,,,,,TRUE
Gainbridge Fieldhouse,,39.7639336363685,-86.1554503440857,,,,,,,,,,,TRUE
Galen Center,,34.0209817,-118.2798761,,,,,,,,,,,TRUE
Gallagher-Iba Arena,,36.1256913,-97.0650029,,,,,,,,,,,TRUE
Gampel Pavilion,,41.8052698,-72.2543979,,,,,,,,,,,TRUE
Garrett Coliseum,,32.4029865,-86.2712212,,,,,,,,,,,TRUE
Gas South Arena,,33.9914093,-84.0939796,,,,,,,,,,,TRUE
Gateway Center Arena,,33.6467689,-84.4597362,,,,,,,,,,,TRUE
Gene Polisseni Center,,43.0872489,-77.6819874,,,,,,,,,,,TRUE
Gentile Arena,,42.0004129,-87.6588821,,,,,,,,,,,TRUE
Gentry Center,,36.1690438,-86.829468,,,,,,,,,,,TRUE
George Gervin GameAbove Center,,42.2542281,-83.6473918,,,,,,,,,,,TRUE
Georges-Vézina Centre,,48.4197669,-71.0600639,,,,,,,,,,,TRUE
Georgia State Convocation Center,,33.7422867,-84.3882301,,,,,,,,,,,TRUE
Georgia State Sports Arena,,33.7515962,-84.3863323,,,,,,,,,,,TRUE
Gersten Pavilion,,33.9676772,-118.4156173,,,,,,,,,,,TRUE
Gervais Auto Centre,,46.5477122,-72.7450061,,,,,,,,,,,TRUE
GFL Memorial Gardens,,46.5135156,-84.3367624,,,,,,,,,,,TRUE
Giant Center,,40.2863108,-76.6689063,,,,,,,,,,,TRUE
Gill Coliseum,,44.5611203,-123.2804525,,,,,,,,,,,TRUE
Global Credit Union Arena,,33.5100819,-112.1289003,,,,,,,,,,,TRUE
Golden1 Center,,38.5808401,-121.4997553,,,,,,,,,,,TRUE
Grand Casino Arena,,44.9447691,-93.1012559,,,,,,,,,,,TRUE
Great Southern Bank Arena,,37.2020477,-93.2830882,,,,,,,,,,,TRUE
Greenfield Central HS Gym,,39.7917364,-85.7811327,,,,,,,,,,,TRUE
Greensburg High School Gym,,39.3413937,-85.4681657,,,,,,,,,,,TRUE
Gregory Gym,,30.2841963,-97.7364778,,,,,,,,,,,TRUE
Greyhound Arena,,34.1801662,-103.3514893,,,,,,,,,,,TRUE
Groniger Arena,,39.4804356,-88.1788552,,,,,,,,,,,TRUE
Grossinger Motors Arena,,40.4781374,-88.9961755,,,,,,,,,,,TRUE
Gross Memorial Coliseum,,38.8717317,-99.3483675,,,,,,,,,,,TRUE
Gutterson Fieldhouse,,44.4692895,-73.194201,,,,,,,,,,,TRUE
GVSU Fieldhouse Arena,,42.9669434,-85.8897615,,,,,,,,,,,TRUE
Haas Pavilion,,37.8693653,-122.2623611,,,,,,,,,,,TRUE
Hagan Arena,,39.9952379,-75.2347505,,,,,,,,,,,TRUE
Halenbeck Hall,,45.5475815,-94.1524887,,,,,,,,,,,TRUE
Hammons Student Center,,37.202193,-93.2844615,,,,,,,,,,,TRUE
Hanner Fieldhouse,,32.4277076,-81.7792332,,,,,,,,,,,TRUE
Harding Mazzotti Arena,,43.3081449,-73.6418027,,,,,,,,,,,TRUE
Hart Center,,42.2351148,-71.8060827,,,,,,,,,,,TRUE
Halton Arena,,35.3062301,-80.7344377,,,,,,,,,,,TRUE
Health and Physical Education Arena,,29.7229985,-95.365609,,,,,,,,,,,TRUE
Health and Sports Center,,40.7001541,-99.1001451,,,,,,,,,,,TRUE
Hearnes Center,,38.9342846,-92.3306251,,,,,,,,,,,TRUE
Heartland Events Center,,40.905475,-98.3298552,,,,,,,,,,,TRUE
Heartland Credit Union Arena,,37.8310469,-97.3313533,,,,,,,,,,,TRUE
HEB Center at Cedar Park,,30.5414031,-97.8201521,,,,,,,,,,,TRUE
Herb Brooks Arena,,44.284193,-73.9850932,,,,,,,,,,,TRUE
Herb Brooks National Hockey Center,,45.5467625,-94.1524136,,,,,,,,,,,TRUE
Heritage Bank Center,,39.0980278,-84.5043897,,,,,,,,,,,TRUE
Hersheypark Arena,,40.2881174,-76.6565734,,,,,,,,,,,TRUE
Hertz Arena,,26.4401242,-81.7786593,,,,,,,,,,,TRUE
Hill Convocation Center,,32.4063324,-81.7829837,,,,,,,,,,,TRUE
Hilliard Center,,27.8072326848586,-97.3934769630432,,,,,,,,,,,TRUE
Hilton Coliseum,,42.0209958,-93.6348224,,,,,,,,,,,TRUE
Hinkle Fieldhouse,,39.8436369,-86.1673863,,,,,,,,,,,TRUE
Hirsch Coliseum,,32.4766685,-93.7894034,,,,,,,,,,,TRUE
Hitachi Energy Arena,,36.9339301,-80.9894952,,,,,,,,,,,TRUE
Hobdy Assembly Center,,32.5203831,-92.7237458,,,,,,,,,,,TRUE
Holmes Center,,36.2104418,-81.6757,,,,,,,,,,,TRUE
Honda Center,,33.8076345,-117.876327,,,,,,,,,,,TRUE
Hope Coliseum,,39.6493191,-79.9815845,,,,,,,,,,,TRUE
Houston Field House,,42.7320485,-73.6694992,,,,,,,,,,,TRUE
HPE Complex,,32.5327489,-83.8975454,,,,,,,,,,,TRUE
HPER Complex,,33.5105515,-90.3409732,,,,,,,,,,,TRUE
Huff Hall,,40.1035321,-88.2327569,,,,,,,,,,,TRUE
Hulman Center,,39.4685101,-87.4050808,,,,,,,,,,,TRUE
Humphrey Coliseum,,33.4616772,-88.7940359,,,,,,,,,,,TRUE
Huntington Center,,41.6511022,-83.5367131,,,,,,,,,,,TRUE
Huron Arena,,44.3605213,-98.2165986,,,,,,,,,,,TRUE
Hutchinson Sports Arena,,38.065612,-97.9160465,,,,,,,,,,,TRUE
ICCU Arena,,46.7274439,-117.0174105,,,,,,,,,,,TRUE
Ice Arena at The Monument,,44.0870533,-103.2252324,,,,,,,,,,,TRUE
Ice Box,,40.8328641,-96.6973042,,,,,,,,,,,TRUE
Idaho Central Arena,,43.614248,-116.2043078,,,,,,,,,,,TRUE
ImOn Ice Arena,,41.9658484,-91.6885258,,,,,,,,,,,TRUE
Ingalls Rink,,41.3168355,-72.925036,,,,,,,,,,,TRUE
INTRUST Bank Arena,,37.6833618,-97.3319685,,,,,,,,,,,TRUE
Intuit Dome,,33.9437591,-118.3422231,,,,,,,,,,,TRUE
Island Federal Credit Union Arena,,40.917392,-73.1259978,,,,,,,,,,,TRUE
Jack Stephens Center,,34.7284312,-92.3406136,,,,,,,,,,,TRUE
Jadwin Gymnasium,,40.3433878,-74.6486449,,,,,,,,,,,TRUE
James A. Rhodes Arena,,41.0738436,-81.5084482,,,,,,,,,,,TRUE
James Center Arena,,32.4309631,-85.710327,,,,,,,,,,,TRUE
James S. Trent Arena,,39.6982884,-84.1662276,,,,,,,,,,,TRUE
Jamestown Civic Center,,46.9101124,-98.7048305,,,,,,,,,,,TRUE
Jenison Field House,,42.7308585,-84.4900292,,,,,,,,,,,TRUE
Jenny Craig Pavilion,,32.7744568,-117.1838021,,,,,,,,,,,TRUE
Jersey Mike's Arena,,40.5252541,-74.4412619,,,,,,,,,,,TRUE
John A. Wilson Complex,,35.6016273,-105.224331,,,,,,,,,,,TRUE
John D. Millett Hall,,39.5172348,-84.7345555,,,,,,,,,,,TRUE
John Paul Jones Arena,,38.0459619,-78.5065842,,,,,,,,,,,TRUE
Johnson Center,,35.0825157,-106.6182697,,,,,,,,,,,TRUE
John Wooden Gymnasium,,39.419927,-86.4104493,,,,,,,,,,,TRUE
Jones Convocation Center,,41.716525,-87.6083493,,,,,,,,,,,TRUE
Jon M. Huntsman Center,,40.7620404,-111.8387175,,,,,,,,,,,TRUE
Kaplan Arena,,37.2734595,-76.719667,,,,,,,,,,,TRUE
Kaseya Arena,,25.7813824,-80.1876211,,,,,,,,,,,TRUE
Kay Yeager Coliseum,,33.9157674,-98.4976118,,,,,,,,,,,TRUE
KeyBank Center,,42.8748241,-78.8763642,,,,,,,,,,,TRUE
Keystone Centre,,49.8308963,-99.9600935,,,,,,,,,,,TRUE
KFC Yum! Center,,38.2577363,-85.7539129,,,,,,,,,,,TRUE
Kia Center,,28.5391587,-81.3839293,,,,,,,,,,,TRUE
Kitchener Memorial Auditorium,,43.4470539,-80.4676867,,,,,,,,,,,TRUE
Knapp Center,,41.6046452,-93.6522031,,,,,,,,,,,TRUE
Knoxville Civic Coliseum,,35.9654637,-83.9116538,,,,,,,,,,,TRUE
Kohl Center,,43.0693737,-89.3966317,,,,,,,,,,,TRUE
Kolf Sports Center,,44.0241669,-88.5519075,,,,,,,,,,,TRUE
Kovalchick Complex,,40.6143026,-79.1614591,,,,,,,,,,,TRUE
Kress Events Center,,44.5303496,-87.9162053,,,,,,,,,,,TRUE
KSU Convocation Center,,34.0369065,-84.5804438,,,,,,,,,,,TRUE
Lakefront Arena,,30.0301637,-90.0503933,,,,,,,,,,,TRUE
Landers Center,,34.9270467,-89.9962878,,,,,,,,,,,TRUE
Landon Arena,,39.0340258,-95.6860547,,,,,,,,,,,TRUE
Langley Events Centre,,49.1460503,-122.6661301,,,,,,,,,,,TRUE
Laredo Energy Arena,,27.5582755,-99.4525337,,,,,,,,,,,TRUE
Lawlor Events Center,,39.5450717,-119.8182786,,,,,,,,,,,TRUE
Lawrence Joel Coliseum,,36.1278145,-80.2575731,,,,,,,,,,,TRUE
Lawson Arena,,42.2758719,-85.6178069,,,,,,,,,,,TRUE
LBS Pyramid,,33.7874136,-118.1144536,,,,,,,,,,,TRUE
Leavey Center,,37.3491555,-121.9351691,,,,,,,,,,,TRUE
LECOM Event Center,,42.0885024,-76.8079565,,,,,,,,,,,TRUE
Lee and Penny Anderson Arena,,44.9398861,-93.1945855,,,,,,,,,,,TRUE
Lee's Family Forum,,36.0192976,-115.0814813,,,,,,,,,,,TRUE
Legacy Arena,,33.523848,-86.8129027,,,,,,,,,,,TRUE
Legacy Center,,30.1758088,-93.209563,,,,,,,,,,,TRUE
Leo D. Mahoney Arena,,41.1598416,-73.2566495,,,,,,,,,,,TRUE
Leopold Drolet Sports Palace,,45.4103968,-71.8834269,,,,,,,,,,,TRUE
Liacouras Center,,39.9798578,-75.1585221,,,,,,,,,,,TRUE
Liberty Arena,,37.349491,-79.1800551,,,,,,,,,,,TRUE
Liberty Arena,,37.9620472,-87.6746662,,,,,,,,,,,TRUE
Liberty First Credit Union Arena,,41.2069755,-96.0269237,,,,,,,,,,,TRUE
LionTree Arena,,32.8852769,-117.23912,,,,,,,,,,,TRUE
Little Caesars Arena,,42.3411236,-83.05516,,,,,,,,,,,TRUE
Littlejohn Coliseum,,34.6803524,-82.8464734,,,,,,,,,,,TRUE
Lloyd E. Scott Gym,,38.9552784,-85.9070069,,,,,,,,,,,TRUE
Lloyd Noble Center,,35.1874267,-97.4442887,,,,,,,,,,,TRUE
Lynah Rink,,42.4457073,-76.4773644,,,,,,,,,,,TRUE
M&T Bank Center,,41.4138956,-72.9105521,,,,,,,,,,,TRUE
Mabee Center,,36.048032,-95.9558451,,,,,,,,,,,TRUE
MacInnes Student Ice Arena,,47.112479,-88.5457814,,,,,,,,,,,TRUE
Mackey Arena,,40.4333024,-86.9161034,,,,,,,,,,,TRUE
Mack Sports Complex,,40.7196644,-73.5968865,,,,,,,,,,,TRUE
Maclellan Gym,,35.0481975,-85.2998149,,,,,,,,,,,TRUE
Macon Coliseum,,32.8421959,-83.6196578,,,,,,,,,,,TRUE
Madison Square Garden,,40.7505569,-73.9934778,,,,,,,,,,,TRUE
Magness Arena,,39.6823627,-104.9617589,,,,,,,,,,,TRUE
Maples Pavilion,,37.429538,-122.1605229,,,,,,,,,,,TRUE
Marriott Center,,40.2540491,-111.6493106,,,,,,,,,,,TRUE
Martire Family Arena,,41.215974,-73.2539276,,,,,,,,,,,TRUE
Martz Hall,,40.6822144,-76.2125498,,,,,,,,,,,TRUE
Mary Brown's Centre,,47.5605055,-52.7133635,,,,,,,,,,,TRUE
Massari Arena,,38.3095168,-104.5756334,,,,,,,,,,,TRUE
MassMutual Center,,42.1021708,-72.5870132,,,,,,,,,,,TRUE
Matthew Knight Arena,,44.0446685,-123.0659831,,,,,,,,,,,TRUE
Matthews Arena,,42.3411713,-71.0845577,,,,,,,,,,,TRUE
Maturi Pavilion,,44.9772574,-93.228929,,,,,,,,,,,TRUE
Maverik Center,,40.7027487,-111.950469,,,,,,,,,,,TRUE
Mayo Civic Center,,44.0228778,-92.4597679,,,,,,,,,,,TRUE
Mayo Clinic Health System Event Center,,44.166283,-94.004463,,,,,,,,,,,TRUE
McAlister Field House,,32.7984852,-79.9625302,,,,,,,,,,,TRUE
McAnally Center,,39.6422201,-86.8425926,,,,,,,,,,,TRUE
McCamish Pavilion,,33.7806633,-84.3927885,,,,,,,,,,,TRUE
McCarthey Athletic Center,,47.6653801,-117.3992157,,,,,,,,,,,TRUE
McCasland Field House,,35.2081755,-97.4422844,,,,,,,,,,,TRUE
McGonigle Hall,,39.9806059,-75.1578408,,,,,,,,,,,TRUE
McGuirk Arena,,43.5815139,-84.7740591,,,,,,,,,,,TRUE
McKale Center,,32.2303687,-110.9460622,,,,,,,,,,,TRUE
McKenzie Arena,,35.0501651,-85.300802,,,,,,,,,,,TRUE
McLeod Center,,42.5141755,-92.4671495,,,,,,,,,,,TRUE
Memorial Athletic and Convocation Center,,41.1481732,-81.3440421,,,,,,,,,,,TRUE
Memorial Coliseum,,38.0394558,-84.5005059,,,,,,,,,,,TRUE
Memorial Fieldhouse,,47.2594126,-122.4812454,,,,,,,,,,,TRUE
Memorial Gym,,31.7756073,-106.5047237,,,,,,,,,,,TRUE
Memorial Gymnasium,,36.1445722,-86.8073666,,,,,,,,,,,TRUE
Memorial Hall,,40.599114,-75.5095898,,,,,,,,,,,TRUE
Meridian Centre,,43.1562166,-79.2440844,,,,,,,,,,,TRUE
Michelob Ultra Arena,,36.0906471,-115.1789743,,,,,,,,,,,TRUE
Michigan City High School Gym,,41.6778923,-86.8625871,,,,,,,,,,,TRUE
Mid-America Center,,41.2374743,-95.8903249,,,,,,,,,,,TRUE
Minges Coliseum,,35.5973724,-77.3670423,,,,,,,,,,,TRUE
Minot State Dome,,48.2481331,-101.3003826,,,,,,,,,,,TRUE
Mississippi Coast Coliseum,,30.3935653,-88.9744824,,,,,,,,,,,TRUE
Mississippi Coliseum,,32.3001017,-90.1719833,,,,,,,,,,,TRUE
Mitchell Center,,30.6922497,-88.1796169,,,,,,,,,,,TRUE
Mizzou Arena,,38.9324652,-92.3337365,,,,,,,,,,,TRUE
Moby Arena,,40.5755242,-105.0929726,,,,,,,,,,,TRUE
M.O. Campbell Educational Center,,29.9323853,-95.3599837,,,,,,,,,,,TRUE
Moda Center,,45.5315152,-122.6667309,,,,,,,,,,,TRUE
Mohegan Arena,,41.2405048,-75.8485472,,,,,,,,,,,TRUE
Mohegan Sun Arena,,41.4911324,-72.0897853,,,,,,,,,,,TRUE
Monroe Civic Center,,32.5025469,-92.1080051,,,,,,,,,,,TRUE
Moody Center,,30.2809536,-97.7306253,,,,,,,,,,,TRUE
Moody Coliseum,,32.4703506,-99.7091138,,,,,,,,,,,TRUE
Moody Coliseum,,32.8403662,-96.7805064,,,,,,,,,,,TRUE
Moose Jaw Events Centre,,50.3906065,-105.5386698,,,,,,,,,,,TRUE
Mortgage Matchup Center,,33.445963,-112.0711684,,,,,,,,,,,TRUE
MTI Center,,41.6306906,-85.0146639,,,,,,,,,,,TRUE
Mullett Arena,,33.4268666,-111.9285073,,,,,,,,,,,TRUE
Mullins Center,,42.3894476,-72.5334979,,,,,,,,,,,TRUE
Multipurpose Building,,38.7571705,-93.744117,,,,,,,,,,,TRUE
Multipurpose Center,,37.239938,-77.4250102,,,,,,,,,,,TRUE
Municipal Auditorium,,39.0978697,-94.5864111,,,,,,,,,,,TRUE
Munn Ice Arena,,42.728234,-84.4893158,,,,,,,,,,,TRUE
Murphy Center,,35.8523178,-86.3694799,,,,,,,,,,,TRUE
MVP Arena,,42.6484567,-73.7547183,,,,,,,,,,,TRUE
Nassau Veterans Memorial Coliseum,,40.7229006,-73.5906959,,,,,,,,,,,TRUE
Nationwide Arena,,39.9691036,-83.0058289,,,,,,,,,,,TRUE
Neal S. Blaisdell Center,,21.298951,-157.8512836,,,,,,,,,,,TRUE
Neches Arena,,30.0440583,-94.0707565,,,,,,,,,,,TRUE
Neville Arena,,32.6027774274405,-85.4925048351288,,,,,,,,,,,TRUE
New Castle Fieldhouse,,39.9113595,-85.3771905,,,,,,,,,,,TRUE
Newman Arena,,42.4458023,-76.4759911,,,,,,,,,,,TRUE
Nicoson Hall,,39.7088828,-86.1317826,,,,,,,,,,,TRUE
NIU Convocation Center,,41.9352637,-88.7855602,,,,,,,,,,,TRUE
Norfolk Scope,,36.8532608,-76.286906,,,,,,,,,,,TRUE
North Charleston Coliseum,,32.8656383,-80.0222737,,,,,,,,,,,TRUE
North Side Gymnasium,,41.7017487,-85.9753366,,,,,,,,,,,TRUE
Now Arena,,42.0693182,-88.2128871,,,,,,,,,,,TRUE
Nutter Center,,39.7818687,-84.0523946,,,,,,,,,,,TRUE
Ocean Bank Convocation Center,,25.7569764,-80.3796673,,,,,,,,,,,TRUE
Ocean Center,,29.2285084,-81.0110275,,,,,,,,,,,TRUE
OceanFirst Bank Center,,40.2794274,-74.0075004,,,,,,,,,,,TRUE
O'Connell Center,,29.6493278,-82.3510856,,,,,,,,,,,TRUE
OG&E Coliseum,,35.4694389,-97.5716132,,,,,,,,,,,TRUE
Orleans Arena,,36.1058611,-115.2021968,,,,,,,,,,,TRUE
Oshkosh Arena,,44.0070768,-88.5374933,,,,,,,,,,,TRUE
OU Credit Union O'rena,,42.6740588,-83.2129651,,,,,,,,,,,TRUE
Owensboro Sportscenter,,37.7626787,-87.1262223,,,,,,,,,,,TRUE
Pacific Coliseum,,49.2859411,-123.0428475,,,,,,,,,,,TRUE
Pacific Steel & Recycling Arena,,47.5144472,-111.3200856,,,,,,,,,,,TRUE
Pan American Center,,32.2840216,-106.7422199,,,,,,,,,,,TRUE
Paoli Gymnasium,,38.5498184,-86.4771039,,,,,,,,,,,TRUE
Paramount Fine Foods Centre,,43.6319752,-79.6537864,,,,,,,,,,,TRUE
Paul E. Tsongas Center,,42.6503112,-71.3132751,,,,,,,,,,,TRUE
Pauley Pavilion,,34.0703291,-118.4469134,,,,,,,,,,,TRUE
Paycom Center,,35.4634663,-97.5150669,,,,,,,,,,,TRUE
Peavey Mart Centrium,,52.2282331,-113.8058066,,,,,,,,,,,TRUE
Pechanga Arena San Diego,,32.7552673,-117.2121692,,,,,,,,,,,TRUE
Pegula Ice Arena,,40.8065739,-77.857039,,,,,,,,,,,TRUE
Pelham Civic Complex,,33.3293516,-86.7891269,,,,,,,,,,,TRUE
Pensacola Bay Center,,30.4163425,-87.2088826,,,,,,,,,,,TRUE
PeoplesBank Arena,,41.768395,-72.6769586,,,,,,,,,,,TRUE
Pete Hanna Center,,33.4638164,-86.7971179,,,,,,,,,,,TRUE
Pete Maravich Assembly Center,,30.414233,-91.1844849,,,,,,,,,,,TRUE
Pete Mathews Coliseum,,33.8241206,-85.7734878,,,,,,,,,,,TRUE
Peterborough Memorial Centre,,44.288542,-78.3156163,,,,,,,,,,,TRUE
Petersen Events Center,,40.4437872,-79.962337,,,,,,,,,,,TRUE
Physical Education Complex,,39.3152502,-76.6572332,,,,,,,,,,,TRUE
Pinnacle Bank Arena,,40.8179584,-96.712625,,,,,,,,,,,TRUE
Pioneer Cellular Event Center,,35.5348411,-98.7109566,,,,,,,,,,,TRUE
PNC Arena,,35.8033005,-78.7217188,,,,,,,,,,,TRUE
PPG Paints Arena,,40.4395984,-79.9894381,,,,,,,,,,,TRUE
PPL Center,,40.6025248,-75.4727054,,,,,,,,,,,TRUE
Progressive Auto Sales Arena,,42.9773449,-82.3477221,,,,,,,,,,,TRUE
Propst Arena,,34.7266413,-86.5902366,,,,,,,,,,,TRUE
Prospera Place,,49.8928719,-119.4948792,,,,,,,,,,,TRUE
Provident Credit Union Event Center,,37.3353608,-121.8797761,,,,,,,,,,,TRUE
Prudential Center,,40.7336979,-74.1712546,,,,,,,,,,,TRUE
Purcell Pavilion,,41.6979385,-86.2313247,,,,,,,,,,,TRUE
Qubein Center,,35.9785835,-79.996547,,,,,,,,,,,TRUE
Racer Arena,,36.614533,-88.3205938,,,,,,,,,,,TRUE
Raising Cane's River Center,,30.4449107,-91.189391,,,,,,,,,,,TRUE
Ralph Engelstad Arena,,47.9275654,-97.0714027,,,,,,,,,,,TRUE
Ralph Engelstad Arena,,48.121514,-96.1920252,,,,,,,,,,,TRUE
Ramsey Center,,35.3036648,-83.182286,,,,,,,,,,,TRUE
Rec Hall,,40.7959794,-77.8693181,,,,,,,,,,,TRUE
Recreation Athletic Facility,,44.4540091,-95.7618356,,,,,,,,,,,TRUE
Reed Arena,,30.6058377,-96.3462299,,,,,,,,,,,TRUE
Reed Green Coliseum,,31.3310862,-89.3378807,,,,,,,,,,,TRUE
Reese Court,,47.491174,-117.5892448,,,,,,,,,,,TRUE
Reilly Center,,42.0794402,-78.4850514,,,,,,,,,,,TRUE
Renaissance Coliseum,,40.6992024,-89.6178013,,,,,,,,,,,TRUE
Resch Center,,44.5000714,-88.0550122,,,,,,,,,,,TRUE
Reynolds Center,,36.148878,-95.9422302,,,,,,,,,,,TRUE
Reynolds Coliseum,,35.7835502,-78.6698395,,,,,,,,,,,TRUE
Rick Case Arena,,26.0779756,-80.2439851,,,,,,,,,,,TRUE
Robins Center,,37.5806581,-77.5388646,,,,,,,,,,,TRUE
Rocket Arena,,41.4963881,-81.6880918,,,,,,,,,,,TRUE
Rogers Arena,,49.2778427,-123.108716,,,,,,,,,,,TRUE
Rogers Place,,53.5469502,-113.4977282,,,,,,,,,,,TRUE
RP Funding Center,,28.0404766,-81.963345,,,,,,,,,,,TRUE
Rupp Arena,,38.0494091,-84.5025229,,,,,,,,,,,TRUE
Ryan Center,,41.4876846,-71.535759,,,,,,,,,,,TRUE
Sadlon Arena,,44.3389820687875,-79.6779584884644,,,,,,,,,,,TRUE
Salem Civic Center,,37.2854196,-80.0393164,,,,,,,,,,,TRUE
Sandman Centre,,50.6785809,-120.3330803,,,,,,,,,,,TRUE
Sanford Center,,47.463256,-94.8535752,,,,,,,,,,,TRUE
Sanford Coyote Sports Center,,42.7901809,-96.9278133,,,,,,,,,,,TRUE
Santander Arena,,40.334752,-75.9231019,,,,,,,,,,,TRUE
SaskTel Centre,,52.1892267,-106.6792309,,,,,,,,,,,TRUE
SAP Center,,37.3326993,-121.9012284,,,,,,,,,,,TRUE
Savage Arena,,41.6601363,-83.6098623,,,,,,,,,,,TRUE
Save Mart Center,,36.8096926,-119.7385365,,,,,,,,,,,TRUE
Save-On-Foods Memorial Centre,,48.4316423,-123.3605754,,,,,,,,,,,TRUE
Schar Center,,36.107942,-79.5108683,,,,,,,,,,,TRUE
Scheels Arena,,46.835367,-96.8752313,,,,,,,,,,,TRUE
Scheels Center,,46.9003461,-96.7987293,,,,,,,,,,,TRUE
Scotiabank Centre,,44.6482233,-63.5767866,,,,,,,,,,,TRUE
Scotiabank Saddledome,,51.0372721,-114.0517545,,,,,,,,,,,TRUE
SECU Arena,,39.3874032,-76.6171047,,,,,,,,,,,TRUE
Selland Arena,,36.7329428,-119.7826749,,,,,,,,,,,TRUE
Sevier Valley Center,,38.7661555,-112.0980334,,,,,,,,,,,TRUE
ShoWare Center,,47.3874691,-122.2399378,,,,,,,,,,,TRUE
Show Me Center,,37.3199276,-89.5274269,,,,,,,,,,,TRUE
Silver Spurs Arena,,28.2988365,-81.3690941,,,,,,,,,,,TRUE
Simmons Bank Arena,,34.7551046,-92.2643584,,,,,,,,,,,TRUE
SIU Arena,,37.7083207,-89.2186618,,,,,,,,,,,TRUE
SJB Pavilion at Ole Miss,,34.362701,-89.5359457,,,,,,,,,,,TRUE
Slater Family Ice Arena,,41.3790385685742,-83.6279082298279,,,,,,,,,,,TRUE
Sleeman Centre,,43.5466896,-80.2465762,,,,,,,,,,,TRUE
Slush Puppie Centre,,45.4833918,-75.6803356,,,,,,,,,,,TRUE
Slush Puppie Place,,44.2333157,-76.479671,,,,,,,,,,,TRUE
Smith Fieldhouse,,40.2474,-111.6547716,,,,,,,,,,,TRUE
Smoothie King Center,,29.9490409,-90.0820112,,,,,,,,,,,TRUE
SNHU Arena,,42.9865359,-71.4616013,,,,,,,,,,,TRUE
Sojka Pavilion,,40.9569073,-76.8869752,,,,,,,,,,,TRUE
South Okanagan Events Centre,,49.4950857,-119.6036482,,,,,,,,,,,TRUE
Southport Fieldhouse,,39.6713936,-86.1412617,,,,,,,,,,,TRUE
Southwest Motors Events Center,,38.2498942,-104.6425717,,,,,,,,,,,TRUE
Spectrum Center,,35.2249291,-80.8391619,,,,,,,,,,,TRUE
Spokane Arena,,47.666146,-117.4228299,,,,,,,,,,,TRUE
Stabler Arena,,40.5852861,-75.3573811,,,,,,,,,,,TRUE
Stan Sheriff Center,,21.2942727,-157.8188075,,,,,,,,,,,TRUE
State Farm Arena,,33.7570732,-84.3962002,,,,,,,,,,,TRUE
State Farm Center,,40.0962199,-88.2358897,,,,,,,,,,,TRUE
State Farm Field House,,28.3373189,-81.5571409,,,,,,,,,,,TRUE
Stegeman Coliseum,,33.942817,-83.3780551,,,,,,,,,,,TRUE
Stephens Arena,,31.4371859,-100.4580939,,,,,,,,,,,TRUE
Steve Cady Arena,,39.5037344,-84.7369587,,,,,,,,,,,TRUE
St. Joseph Civic Arena,,39.7669969,-94.8560908,,,,,,,,,,,TRUE
Strahan Coliseum,,29.8885553,-97.9326761,,,,,,,,,,,TRUE
Stroh Center,,41.3750615,-83.626256,,,,,,,,,,,TRUE
Stuart C. Siegel Center,,37.5529729,-77.4529374,,,,,,,,,,,TRUE
Sudbury Community Arena,,46.488698,-80.992595,,,,,,,,,,,TRUE
Suncoast Credit Union Arena,,26.5478019,-81.8868394,,,,,,,,,,,TRUE
Sun Life Financial Coliseum,,48.4414723,-68.5204625,,,,,,,,,,,TRUE
Taffy Abel Arena,,46.4896915,-84.3659985,,,,,,,,,,,TRUE
Tahoe Blue Event Center,,38.9628877,-119.9383541,,,,,,,,,,,TRUE
Talmadge Hill Field House,,39.3423629,-76.5854251,,,,,,,,,,,TRUE
Target Center,,44.9794848,-93.2762325,,,,,,,,,,,TRUE
Taylor Center,,44.1456118,-93.9956546,,,,,,,,,,,TRUE
TD Arena,,32.787725,-79.9343392,,,,,,,,,,,TRUE
TD Coliseum,,43.2592059,-79.8723329,,,,,,,,,,,TRUE
TD Garden,,42.3662019,-71.0621989,,,,,,,,,,,TRUE
TD Place Arena,,45.3988794,-75.6840098,,,,,,,,,,,TRUE
TD Station,,45.2764644,-66.064074,,,,,,,,,,,TRUE
Tech CU Arena,,37.3185804,-121.8635254,,,,,,,,,,,TRUE
The Coliseum,,33.5759767,-85.1036864,,,,,,,,,,,TRUE
The Coliseum,,32.7063546,-100.8881539,,,,,,,,,,,TRUE
The Complex,,30.8459238,-83.2941663,,,,,,,,,,,TRUE
The Palestra,,39.9513983,-75.1887238,,,,,,,,,,,TRUE
The Pit,,35.066702,-106.6320133,,,,,,,,,,,TRUE
The Super Pit,,33.2085852,-97.1541381,,,,,,,,,,,TRUE
Thomas & Mack Center,,36.1049336,-115.144186,,,,,,,,,,,TRUE
Thomas Assembly Center,,32.532084,-92.658568,,,,,,,,,,,TRUE
Thompson Arena,,43.7009854,-72.2802008,,,,,,,,,,,TRUE
Thunderdome,,34.4137828,-119.8513502,,,,,,,,,,,TRUE
Tiger Arena,,32.0237774,-81.0658514,,,,,,,,,,,TRUE
Tingley Coliseum,,35.0824029,-106.5726435,,,,,,,,,,,TRUE
Titan Gym,,33.8818862,-117.8854359,,,,,,,,,,,TRUE
T-Mobile Arena,,36.1023808,-115.1776278,,,,,,,,,,,TRUE
T-Mobile Center,,39.0972286,-94.5799255,,,,,,,,,,,TRUE
Tom Drake Coliseum,,34.0720532,-86.788972,,,,,,,,,,,TRUE
Tony's Pizza Events Center,,38.8346182,-97.5994706,,,,,,,,,,,TRUE
Torodome,,33.8591058,-118.2597917,,,,,,,,,,,TRUE
Total Mortgage Arena,,41.1732434,-73.1869483,,,,,,,,,,,TRUE
Town Toyota Center,,47.4429137,-120.3220081,,,,,,,,,,,TRUE
Toyota Arena,,34.0729774,-117.5662315,,,,,,,,,,,TRUE
Toyota Center,,29.7507788,-95.3620577,,,,,,,,,,,TRUE
Toyota Center,,46.219793,-119.2166108,,,,,,,,,,,TRUE
Trask Coliseum,,34.2249855,-77.8783894,,,,,,,,,,,TRUE
Tribute Communities Centre,,43.8970342,-78.8591444,,,,,,,,,,,TRUE
Trinity Health Arena,,43.2346982,-86.2554163,,,,,,,,,,,TRUE
Trojan Arena,,31.802309,-85.9524608,,,,,,,,,,,TRUE
Truist Arena,,39.0320193651362,-84.4591569900513,,,,,,,,,,,TRUE
Tucker Coliseum,,35.295228,-93.1323481,,,,,,,,,,,TRUE
Tucson Arena,,32.2186286,-110.9736675,,,,,,,,,,,TRUE
Tudor Fieldhouse,,29.715181,-95.4037715,,,,,,,,,,,TRUE
Turner Arena,,36.5780583,-83.6645365,,,,,,,,,,,TRUE
UBS Arena,,40.7117724,-73.7261042,,,,,,,,,,,TRUE
UCCU Center,,40.2786581,-111.717031,,,,,,,,,,,TRUE
UCU Pavilion,,37.8407626,-122.1123612,,,,,,,,,,,TRUE
UNF Arena,,30.2734626,-81.5079225,,,,,,,,,,,TRUE
UNG Convocation Center,,34.5260404,-83.9856184,,,,,,,,,,,TRUE
University Credit Union Center,,38.5339374,-121.7647737,,,,,,,,,,,TRUE
UPMC Events Center,,40.5202718,-80.2148565,,,,,,,,,,,TRUE
United Center,,41.8804894,-87.6739883,,,,,,,,,,,TRUE
United Supermarkets Arena,,33.5812951,-101.886574,,,,,,,,,,,TRUE
United Wireless Arena,,37.766313,-100.0626505,,,,,,,,,,,TRUE
University Arena,,42.2833614,-85.6086498,,,,,,,,,,,TRUE
University Center,,30.5201249,-90.4731095,,,,,,,,,,,TRUE
University of Dayton Arena,,39.7355082,-84.1996051,,,,,,,,,,,TRUE
UPMC Cooper Fieldhouse,,40.4374417,-79.9879218,,,,,,,,,,,TRUE
Upstate Medical Arena,,43.0448368,-76.1481607,,,,,,,,,,,TRUE
Harrah's Cherokee Center,,35.597285,-82.555266,,,,,,,,,,,TRUE
USA Hockey Arena,,42.3893049,-83.5063612,,,,,,,,,,,TRUE
UW Field House,,43.0686056,-89.4126391,,,,,,,,,,,TRUE
UW-Milwaukee Panther Arena,,43.0422963,-87.9169214,,,,,,,,,,,TRUE
Value City Arena,,40.007689,-83.0251408,,,,,,,,,,,TRUE
Van Andel Arena,,42.962386,-85.6715584,,,,,,,,,,,TRUE
Van Noord Arena,,42.9334114,-85.588587,,,,,,,,,,,TRUE
Verdun Auditorium,,45.4625217,-73.5617869,,,,,,,,,,,TRUE
Veterans Memorial Coliseum,,43.0470792,-89.3789291,,,,,,,,,,,TRUE
Veterans Memorial Coliseum,,45.5321615,-122.6693058,,,,,,,,,,,TRUE
Viaero Center,,40.6668416,-99.0924525,,,,,,,,,,,TRUE
Vibrant Arena,,41.5079586,-90.520488,,,,,,,,,,,TRUE
Videotron Centre,,46.8289959,-71.2478828,,,,,,,,,,,TRUE
Videotron Coliseum,,46.3226675,-72.5917864,,,,,,,,,,,TRUE
Viejas Arena,,32.7737802,-117.0745611,,,,,,,,,,,TRUE
Visions Veterans Memorial Arena,,42.0954521,-75.9131134,,,,,,,,,,,TRUE
VisitLethbridge.com Arena,,49.6668848,-112.8055036,,,,,,,,,,,TRUE
VyStar Veterans Memorial Arena,,30.325749,-81.6447688,,,,,,,,,,,TRUE
Wachs Arena,,45.449775,-98.480469,,,,,,,,,,,TRUE
Watertown Civic Arena,,44.9032619,-97.097683,,,,,,,,,,,TRUE
Watsco Center,,25.7153414827706,-80.2794599533081,,,,,,,,,,,TRUE
Wellness and Events Center,,40.7422519,-74.1805083,,,,,,,,,,,TRUE
Welsh-Ryan Arena,,42.0669051,-87.6923991,,,,,,,,,,,TRUE
WesBanco Arena,,40.0647874,-80.7245779,,,,,,,,,,,TRUE
Western Financial Place,,49.5132789,-115.7564184,,,,,,,,,,,TRUE
Western Hall,,40.4714612,-90.6851649,,,,,,,,,,,TRUE
WFCU Centre,,42.3192008,-82.9277658,,,,,,,,,,,TRUE
W.G. Thomas Coliseum,,32.8080014,-97.2543367,,,,,,,,,,,TRUE
White Auditorium,,38.4189793,-96.1797614,,,,,,,,,,,TRUE
Whittemore Center,,43.1391602,-70.9335172,,,,,,,,,,,TRUE
Williams Arena,,44.9768324,-93.2279527,,,,,,,,,,,TRUE
Williams Athletics and Assembly Center,,32.3044637,-90.2106071,,,,,,,,,,,TRUE
William Nicks Building,,30.0922387,-95.9930849,,,,,,,,,,,TRUE
William R. Johnson Coliseum,,31.6222333,-94.6408224,,,,,,,,,,,TRUE
Wilkerson-Greines Activity Center,,32.6691794,-97.2830451,,,,,,,,,,,TRUE
Wilson Logistics Arena,,37.252594,-93.2988298,,,,,,,,,,,TRUE
Winfield Dunn Center,,36.5362606,-87.3565569,,,,,,,,,,,TRUE
Wings Event Center,,42.253696,-85.5353665,,,,,,,,,,,TRUE
Winthrop Coliseum,,34.9481201,-81.0149324,,,,,,,,,,,TRUE
Wintrust Arena,,41.853564,-87.6216853,,,,,,,,,,,TRUE
Wolstein Center,,41.499072,-81.6767943,,,,,,,,,,,TRUE
Worthen Arena,,40.2070494,-85.4062021,,,,,,,,,,,TRUE
Worthington Arena,,45.6631117,-111.0504484,,,,,,,,,,,TRUE
Yakima Valley SunDome,,46.5890912,-120.486449,,,,,,,,,,,TRUE
Xfinity Center,,38.9954232,-76.941526,,,,,,,,,,,TRUE
Xfinity Mobile Arena,,39.9012263,-75.172019,,,,,,,,,,,TRUE
Yost Ice Arena,,42.2675042,-83.7409365,,,,,,,,,,,TRUE
Yuengling Center,,28.0592185,-82.4064624,,,,,,,,,,,TRUE
Xtream Arena,,41.6814242,-91.5621046,,,,,,,,,,,TRUE
7 17 Credit Union Park,,41.0782756,-81.5222025,,,,,,,,,,,TRUE
7 17 Credit Union Field at Eastwood,,41.2190981,-80.7549298,,,,,,,,,,,TRUE
AdventHealth Stadium,,34.2860932,-85.1671207,,,,,,,,,,,TRUE
AirHogs Stadium,,32.7683314,-96.9857597,,,,,,,,,,,TRUE
Allie P. Reynolds Stadium,,36.128915,-97.0634258,,,,,,,,,,,TRUE
Alex Box Stadium,,30.4064143970667,-91.1877679824829,,,,,,,,,,,TRUE
Alex Rodriguez Park,,25.7119582431429,-80.2823781967163,,,,,,,,,,,TRUE
American Family Field,,43.0279766,-87.9710054,,,,,,,,,,,TRUE
American Family Fields of Phoenix,,33.4924841,-112.1718907,,,,,,,,,,,TRUE
Angel Stadium,,33.80011911754,-117.882957458496,,,,,,,,,,,TRUE
Arm & Hammer Park,,40.2028049,-74.760536,,,,,,,,,,,TRUE
Arsenal BG Ballpark,,38.5655659,-90.1358914,,,,,,,,,,,TRUE
Arthur W. Perdue Stadium,,38.369849,-75.5291176,,,,,,,,,,,TRUE
Arvest Ballpark,,36.1600183,-94.1939557,,,,,,,,,,,TRUE
Atrium Health Ballpark,,35.4983732,-80.6273182,,,,,,,,,,,TRUE
AutoZone Park,,35.1430204,-90.0488806,,,,,,,,,,,TRUE
Avista Stadium,,47.6611242,-117.3440695,,,,,,,,,,,TRUE
Bailey-Brayton Field,,46.7352724,-117.1553171,,,,,,,,,,,TRUE
Bank of the James Stadium,,37.3932605,-79.1654849,,,,,,,,,,,TRUE
Banner Island Ballpark,,37.954942,-121.2972379,,,,,,,,,,,TRUE
Baum-Walker Stadium,,36.0497409,-94.1822076,,,,,,,,,,,TRUE
BayCare Ballpark,,27.971729,-82.731412,,,,,,,,,,,TRUE
Baylor Ballpark,,31.5515224,-97.1076876,,,,,,,,,,,TRUE
Beiden Field,,36.8133047,-119.7553861,,,,,,,,,,,TRUE
Blue Bell Park,,30.6060178,-96.3412947,,,,,,,,,,,TRUE
Blue Cross Park,,49.8937221,-97.1321225,,,,,,,,,,,TRUE
Blue Wahoos Stadium,,30.4041011,-87.2178841,,,,,,,,,,,TRUE
Boshamer Stadium,,35.9056936,-79.0431493,,,,,,,,,,,TRUE
Bosse Field,,37.9929709,-87.5627089,,,,,,,,,,,TRUE
Bowling Green Ballpark,,36.9969146,-86.440553,,,,,,,,,,,TRUE
Brooks Field,,34.2219474,-77.8732125,,,,,,,,,,,TRUE
Busch Stadium,,38.6226712,-90.192368,,,,,,,,,,,TRUE
Bush Field,,41.308922,-72.9590786,,,,,,,,,,,TRUE
CACTI Park of the Palm Beaches,,26.7561011,-80.1166713,,,,,,,,,,,TRUE
Camelback Ranch,,33.5137226,-112.2955728,,,,,,,,,,,TRUE
Campanelli Stadium,,42.0692944,-71.0418676,,,,,,,,,,,TRUE
Canac Stadium,,46.8178006,-71.2338817,,,,,,,,,,,TRUE
CarMax Park,,37.5698208,-77.4652326,,,,,,,,,,,TRUE
CaroMont Health Park,,35.2629617,-81.1944741,,,,,,,,,,,TRUE
CarShield Field,,38.8201084,-90.6797898,,,,,,,,,,,TRUE
Cashman Field,,36.1800254,-115.1295197,,,,,,,,,,,TRUE
Centennial Field,,44.4819862,-73.1876564,,,,,,,,,,,TRUE
Charles Hawkins Field,,36.1434632,-86.807152,,,,,,,,,,,TRUE
Charles Schwab Field Omaha,,41.2666464,-95.9312654,,,,,,,,,,,TRUE
Charlotte Sports Park,,26.9992991,-82.1813715,,,,,,,,,,,TRUE
Chase Field,,33.4458377,-112.0666838,,,,,,,,,,,TRUE
Cheney Stadium,,47.2384816,-122.4971724,,,,,,,,,,,TRUE
Chickasaw Bricktown Ballpark,,35.4652489,-97.5074816,,,,,,,,,,,TRUE
CHS Field,,44.9507831,-93.0837893,,,,,,,,,,,TRUE
Chukchansi Park,,36.7319627,-119.7900295,,,,,,,,,,,TRUE
Citi Field,,40.7573026,-73.8456774,,,,,,,,,,,TRUE
Citizens Bank Park,,39.9063291,-75.16644,,,,,,,,,,,TRUE
Clark-LeClair Stadium,,35.5933674,-77.3673382,,,,,,,,,,,TRUE
Classic Park,,41.6411768,-81.4356423,,,,,,,,,,,TRUE
Clover Park,,27.3255962,-80.404467,,,,,,,,,,,TRUE
Clover Stadium,,41.1693346,-74.0386999,,,,,,,,,,,TRUE
Coca-Cola Field,,42.8800368,-78.8736337,,,,,,,,,,,TRUE
Coca-Cola Park,,40.6261271,-75.452299,,,,,,,,,,,TRUE
Comerica Park,,42.3388556,-83.0484008,,,,,,,,,,,TRUE
Condron Family Ballpark,,29.6489368,-82.3529614,,,,,,,,,,,TRUE
Constellation Field,,29.622331,-95.646522,,,,,,,,,,,TRUE
Coolray Field,,34.0404183,-83.9919806,,,,,,,,,,,TRUE
CoolToday Park,,27.0325507,-82.3198595,,,,,,,,,,,TRUE
Coors Field,,39.7565439,-104.9939668,,,,,,,,,,,TRUE
Copeland Park,,43.8367556,-91.2505424,,,,,,,,,,,TRUE
Covenant Health Park,,35.9724015,-83.9148934,,,,,,,,,,,TRUE
Crutcher Scott Field,,32.4727945,-99.7067749,,,,,,,,,,,TRUE
Dabos Park,,32.3824712,-86.3105679,,,,,,,,,,,TRUE
Daikin Park,,29.7571313,-95.3554273,,,,,,,,,,,TRUE
Dan Law Field,,33.5884186,-101.876564,,,,,,,,,,,TRUE
Danville Stadium,,40.1100395,-87.631309,,,,,,,,,,,TRUE
Darryl & Lori Schroeder Park,,29.7269211,-95.3450954,,,,,,,,,,,TRUE
David F. Couch Ballpark,,36.1301195,-80.2516723,,,,,,,,,,,TRUE
Day Air Ballpark,,39.7643214,-84.1847134,,,,,,,,,,,TRUE
Dell Diamond,,30.5279945,-97.6298332,,,,,,,,,,,TRUE
Devon Park,,35.5247443,-97.463994,,,,,,,,,,,TRUE
Dickey-Stephens Park,,34.754968,-92.272228,,,,,,,,,,,TRUE
Dick Howser Stadium,,30.4410521,-84.303503,,,,,,,,,,,TRUE
Disharoon Park,,38.0457508,-78.5131287,,,,,,,,,,,TRUE
Dobbins Stadium,,38.5415909,-121.7578804,,,,,,,,,,,TRUE
Dodd Stadium,,41.5734142,-72.1070051,,,,,,,,,,,TRUE
Dodger Stadium,,34.0740261,-118.2398629,,,,,,,,,,,TRUE
Doug Kingsmore Stadium,,34.6785174,-82.8493594,,,,,,,,,,,TRUE
Dow Diamond,,43.6089697,-84.2360616,,,,,,,,,,,TRUE
Dozer Park,,40.6877487,-89.5973897,,,,,,,,,,,TRUE
Dudy Noble Field,,33.4632525,-88.7937731,,,,,,,,,,,TRUE
Duly Health and Care Field,,41.5259934,-88.077457,,,,,,,,,,,TRUE
Dunkin' Donuts Park,,41.7716758,-72.6746356,,,,,,,,,,,TRUE
Dunn Field,,42.0797747,-76.7803573,,,,,,,,,,,TRUE
Durham Bulls Athletic Park,,35.9916448,-78.9038085,,,,,,,,,,,TRUE
East Field,,43.3161701,-73.6271739,,,,,,,,,,,TRUE
Eck Stadium,,37.7222735,-97.2876048,,,,,,,,,,,TRUE
Edinburg Baseball Stadium,,26.3126126,-98.1752872,,,,,,,,,,,TRUE
Ed Smith Stadium,,27.3474119,-82.5168085,,,,,,,,,,,TRUE
Equity Bank Park,,37.6818586,-97.3449621,,,,,,,,,,,TRUE
Erlanger Park,,35.0282815,-85.3194287,,,,,,,,,,,TRUE
ESL Ballpark,,43.1584237,-77.6189446,,,,,,,,,,,TRUE
Excite Ballpark,,37.3200727,-121.8625402,,,,,,,,,,,TRUE
Fenway Park,,42.3465319,-71.0972284,,,,,,,,,,,TRUE
Fifth Third Field,,41.6486411,-83.5380435,,,,,,,,,,,TRUE
Fifth Third Park,,34.9453882,-81.9358505,,,,,,,,,,,TRUE
FirstEnergy Stadium,,40.365659,-75.9335089,,,,,,,,,,,TRUE
First Horizon Park,,36.17282,-86.7848897,,,,,,,,,,,TRUE
First National Bank Field,,36.0767308,-79.7945595,,,,,,,,,,,TRUE
Fiscalini Field,,34.1348791,-117.2631741,,,,,,,,,,,TRUE
Five County Stadium,,35.8175261,-78.2698631,,,,,,,,,,,TRUE
Fluor Field,,34.8425669,-82.4078894,,,,,,,,,,,TRUE
FNB Field,,40.2559078,-76.8899095,,,,,,,,,,,TRUE
Foster Field,,31.4361789,-100.4532552,,,,,,,,,,,TRUE
Founders Park,,33.9863832,-81.0426234,,,,,,,,,,,TRUE
Four Winds Field,,41.670724,-86.2549871,,,,,,,,,,,TRUE
Fox Cities Stadium,,44.2836534,-88.4683513,,,,,,,,,,,TRUE
Franklin Field,,42.918655,-88.016493,,,,,,,,,,,TRUE
Franklin Properties Ballpark,,40.765559,-73.1925219,,,,,,,,,,,TRUE
Fraser Field,,42.4740832,-70.9539878,,,,,,,,,,,TRUE
Frawley Stadium,,39.732802,-75.5642867,,,,,,,,,,,TRUE
Funko Field,,47.96681,-122.2022473,,,,,,,,,,,TRUE
Gesa Stadium,,46.2658532,-119.1720378,,,,,,,,,,,TRUE
Globe Life Field,,32.7476878,-97.0840465,,,,,,,,,,,TRUE
GCU Ballpark,,33.5124703,-112.1334547,,,,,,,,,,,TRUE
GoMart Park,,38.3490356844892,-81.6251242160797,,,,,,,,,,,TRUE
Goodwin Field,,33.8872057,-117.8853446,,,,,,,,,,,TRUE
Goodyear Ballpark,,33.4293551,-112.389729,,,,,,,,,,,TRUE
Goss Stadium,,44.5629484,-123.2772544,,,,,,,,,,,TRUE
Grainger Stadium,,35.2702368,-77.5740337,,,,,,,,,,,TRUE
Great American Ball Park,,39.0970536,-84.5063209,,,,,,,,,,,TRUE
Greater Nevada Field,,39.5290197,-119.8079467,,,,,,,,,,,TRUE
Hadlock Field,,43.6571531,-70.2780604,,,,,,,,,,,TRUE
Hammond Stadium,,26.5383674,-81.8415999,,,,,,,,,,,TRUE
Harbor Park,,36.8424173,-76.2785697,,,,,,,,,,,TRUE
Harry Grove Stadium,,39.4012329,-77.4130796,,,,,,,,,,,TRUE
Haymarket Park,,40.822903,-96.7131615,,,,,,,,,,,TRUE
Heritage Financial Park,,41.5279293,-73.9600681,,,,,,,,,,,TRUE
Hi Corbett Field,,32.2126195,-110.9199965,,,,,,,,,,,TRUE
Hillsboro Ballpark,,45.5542156,-122.9086232,,,,,,,,,,,TRUE
Hinchliffe Stadium,,40.9183621,-74.1814112,,,,,,,,,,,TRUE
Hodgetown,,35.2053852,-101.831701,,,,,,,,,,,TRUE
Hohokam Stadium,,33.4388995,-111.8292171,,,,,,,,,,,TRUE
HomeTrust Park,,35.5870992,-82.5491237,,,,,,,,,,,TRUE
Hoover Metropolitan Stadium,,33.3383894,-86.8492305,,,,,,,,,,,TRUE
Huntington Park,,39.9684788,-83.0108069,,,,,,,,,,,TRUE
Impact Field,,41.9768482,-87.871694,,,,,,,,,,,TRUE
Isotopes Park,,35.0699335,-106.628859,,,,,,,,,,,TRUE
Jackson Baseball Stadium,,35.6790344,-88.769542,,,,,,,,,,,TRUE
Jackson Field,,42.7353504,-84.5455992,,,,,,,,,,,TRUE
Jack Kaiser Stadium,,40.7237219,-73.7912232,,,,,,,,,,,TRUE
Jackie Robinson Ballpark,,29.2101535,-81.0162091,,,,,,,,,,,TRUE
Jerry Uht Park,,42.127384,-80.0801074,,,,,,,,,,,TRUE
JetBlue Park,,26.5513245,-81.7616593,,,,,,,,,,,TRUE
Jim Patterson Stadium,,38.2057967,-85.7620883,,,,,,,,,,,TRUE
Joker Marchant Stadium,,28.0748581,-81.9505942,,,,,,,,,,,TRUE
Joseph L. Bruno Stadium,,42.6958892,-73.6796165,,,,,,,,,,,TRUE
"Joseph P. Riley, Jr. Park",,32.7901698,-79.9614411,,,,,,,,,,,TRUE
Kauffman Stadium,,39.0517018,-94.4802332,,,,,,,,,,,TRUE
Keesler Federal Park,,30.3953562,-88.8930309,,,,,,,,,,,TRUE
Kino Veterans Memorial Stadium,,32.1768185,-110.9333404,,,,,,,,,,,TRUE
Labatt Park,,42.9835928,-81.258198,,,,,,,,,,,TRUE
Las Vegas Ballpark,,36.1529489,-115.3298832,,,,,,,,,,,TRUE
LECOM Field,,27.4858593,-82.5701415,,,,,,,,,,,TRUE
Legends Field,,39.1248002,-94.8307228,,,,,,,,,,,TRUE
Legends Field,,38.0658907,-84.4783187,,,,,,,,,,,TRUE
LeLacheur Park,,42.6539252,-71.3175881,,,,,,,,,,,TRUE
Les Murakami Stadium,,21.2929431,-157.815814,,,,,,,,,,,TRUE
Lewis & Clark Park,,42.443625,-96.3634658,,,,,,,,,,,TRUE
Lindquist Field,,41.2243838,-111.9748235,,,,,,,,,,,TRUE
Lindsey Nelson Stadium,,35.9488285,-83.9294314,,,,,,,,,,,TRUE
LMCU Ballpark,,43.0408692,-85.6591987,,,,,,,,,,,TRUE
loanDepot Park,,25.7777885,-80.2192712,,,,,,,,,,,TRUE
LoanMart Field,,34.1031166,-117.5473487,,,,,,,,,,,TRUE
Louisville Slugger Field,,38.2567928,-85.7444823,,,,,,,,,,,TRUE
L.P. Franz Stadium,,35.7493596,-81.3784361,,,,,,,,,,,TRUE
Lupton Stadium,,32.7024771,-97.3719978,,,,,,,,,,,TRUE
Luther Williams Field,,32.829332,-83.6140627,,,,,,,,,,,TRUE
Mahaney Diamond,,44.9051541,-68.6701941,,,,,,,,,,,TRUE
Maimonides Park,,40.5741308,-73.983634,,,,,,,,,,,TRUE
Marion Stadium,,37.7475982,-88.9624277,,,,,,,,,,,TRUE
Medlar Field at Lubrano Park,,40.8122502,-77.8513098,,,,,,,,,,,TRUE
Meritus Park,,39.6398638,-77.7246969,,,,,,,,,,,TRUE
M.L. Tigue Moore Field,,30.2130546,-92.0416546,,,,,,,,,,,TRUE
Modern Woodmen Field,,37.6219648,-121.0007358,,,,,,,,,,,TRUE
Modern Woodman Park,,41.5183142,-90.5815994,,,,,,,,,,,TRUE
Momentum Bank Ballpark,,31.9870304,-102.1551597,,,,,,,,,,,TRUE
Mulcahy Stadium,,61.2051805,-149.8776769,,,,,,,,,,,TRUE
Muzzy Field,,41.6735409,-72.9599959,,,,,,,,,,,TRUE
Nat Bailey Stadium,,49.242399,-123.1068063,,,,,,,,,,,TRUE
Nationals Park,,38.8733104,-77.0073259,,,,,,,,,,,TRUE
NelsonCorp Field,,41.8490247664733,-90.1852011680603,,,,,,,,,,,TRUE
Nelson Wolff Municipal Stadium,,29.4087781,-98.60075,,,,,,,,,,,TRUE
NBT Bank Stadium,,43.0796481,-76.1653912,,,,,,,,,,,TRUE
Nettleton Stadium,,39.7304092,-121.8535924,,,,,,,,,,,TRUE
New Britain Stadium,,41.6489136,-72.7752721,,,,,,,,,,,TRUE
Newman Outdoor Field,,46.8987875,-96.8036699,,,,,,,,,,,TRUE
Northeast Delta Dental Stadium,,42.981709,-71.4659894,,,,,,,,,,,TRUE
Northwestern Medicine Field,,41.8805772,-88.2817822,,,,,,,,,,,TRUE
NYSEG Stadium,,42.1032613,-75.9048199,,,,,,,,,,,TRUE
Oakland Coliseum,,37.7515627,-122.2006077,,,,,,,,,,,TRUE
O'Brate Stadium,,36.1310502,-97.0687916,,,,,,,,,,,TRUE
Ogren Park at Allegiance Field,,46.8739813,-114.0065646,,,,,,,,,,,TRUE
ONEOK Field,,36.1597845,-95.9877419,,,,,,,,,,,TRUE
ONT Field,,34.0179272,-117.6036004,,,,,,,,,,,TRUE
Oracle Park,,37.778364,-122.3888969,,,,,,,,,,,TRUE
Oriole Park at Camden Yards,,39.2840828,-76.6214632,,,,,,,,,,,TRUE
Ottawa Stadium,,45.4202815,-75.6532145,,,,,,,,,,,TRUE
Parkview Field,,41.0746037,-85.1424551,,,,,,,,,,,TRUE
Paterson Field,,32.3821179,-86.290977,,,,,,,,,,,TRUE
Pelicans Ballpark,,33.7110607,-78.8841748,,,,,,,,,,,TRUE
Penn Medicine Park,,40.0489795,-76.3111424,,,,,,,,,,,TRUE
Peoples Natural Gas Field,,40.4734525,-78.3946394,,,,,,,,,,,TRUE
Petco Park,,32.7079209,-117.157023,,,,,,,,,,,TRUE
Pete Taylor Park,,31.3335789,-89.3379235,,,,,,,,,,,TRUE
Phil Welch Stadium,,39.7381813,-94.8267102,,,,,,,,,,,TRUE
Phoenix Municipal Stadium,,33.4494543,-111.9543421,,,,,,,,,,,TRUE
PK Park,,44.0589261,-123.0652427,,,,,,,,,,,TRUE
Plainsman Park,,32.5996051,-85.4895436,,,,,,,,,,,TRUE
Polar Park,,42.2571971,-71.8010943,,,,,,,,,,,TRUE
PNC Field,,41.3607374,-75.6836021,,,,,,,,,,,TRUE
PNC Park,,40.4467348,-80.0051773,,,,,,,,,,,TRUE
Prince George’s Stadium,,38.9460342,-76.7090319,,,,,,,,,,,TRUE
Principal Park,,41.5804369,-93.6157893,,,,,,,,,,,TRUE
Progressive Field,,41.496163,-81.6851734,,,,,,,,,,,TRUE
Raimondi Park,,37.8159402,-122.2937988,,,,,,,,,,,TRUE
Rate Field,,41.8295453,-87.6334763,,,,,,,,,,,TRUE
Reckling Park,,29.7131544,-95.4040611,,,,,,,,,,,TRUE
Regency Furniture Stadium,,38.5621936,-76.9026017,,,,,,,,,,,TRUE
Regions Field,,33.5074876,-86.810317,,,,,,,,,,,TRUE
RE/MAX Field,,53.5318076,-113.4967946,,,,,,,,,,,TRUE
Rickwood Field,,33.5020483,-86.8555712,,,,,,,,,,,TRUE
Riders Field,,33.0985703,-96.819511,,,,,,,,,,,TRUE
Ripken Stadium,,39.5306829,-76.1849069,,,,,,,,,,,TRUE
Riverfront Stadium,,42.5112098,-92.3532844,,,,,,,,,,,TRUE
Robin Roberts Stadium,,39.8176343,-89.6356273,,,,,,,,,,,TRUE
Roger Dean Stadium,,26.8912151,-80.116092,,,,,,,,,,,TRUE
Rogers Centre,,43.6413706,-79.389267,,,,,,,,,,,TRUE
Route 66 Stadium,,37.2117036,-93.2791936,,,,,,,,,,,TRUE
Salem Memorial Ballpark,,37.284997,-80.036602,,,,,,,,,,,TRUE
Sal Maglie Stadium,,43.1003248,-79.0258008,,,,,,,,,,,TRUE
Salt River Fields at Talking Stick,,33.5455438,-111.8844867,,,,,,,,,,,TRUE
Sam Suplizio Field,,39.0761263,-108.5498409,,,,,,,,,,,TRUE
San Manuel Stadium,,34.0979017,-117.29491,,,,,,,,,,,TRUE
Sargent's Stadium at the Point,,40.3288143,-78.9247191,,,,,,,,,,,TRUE
Scottsdale Stadium,,33.4892093,-111.920321,,,,,,,,,,,TRUE
Segra Park,,34.0196033,-81.0325384,,,,,,,,,,,TRUE
Segra Stadium,,35.0554458,-78.8833931,,,,,,,,,,,TRUE
Sewell-Thomas Stadium,,33.2045455,-87.5385475,,,,,,,,,,,TRUE
ShoreTown Ballpark,,40.0754608,-74.1864896,,,,,,,,,,,TRUE
Sioux Falls Stadium,,43.5592938,-96.7483413,,,,,,,,,,,TRUE
SIUH Community Park,,40.6458207,-74.0763213,,,,,,,,,,,TRUE
Skylands Stadium,,41.1268232,-74.7123849,,,,,,,,,,,TRUE
Sloan Park,,33.4315756,-111.8815577,,,,,,,,,,,TRUE
Southwest University Park,,31.7592523,-106.4924526,,,,,,,,,,,TRUE
ForeFront Field,,41.4600959,-82.0610261,,,,,,,,,,,TRUE
SRP Park,,33.4849143,-81.9761288,,,,,,,,,,,TRUE
Stanky Field,,30.6917884,-88.1842303,,,,,,,,,,,TRUE
Steinbrenner Field,,27.9803703,-82.5062191,,,,,,,,,,,TRUE
Surprise Stadium,,33.6281455,-112.3777235,,,,,,,,,,,TRUE
Sutter Health Park,,38.5807817,-121.5133381,,,,,,,,,,,TRUE
Swayze Field,,34.3624575,-89.528634,,,,,,,,,,,TRUE
Synovus Park,,32.4523539,-84.9912392,,,,,,,,,,,TRUE
Target Field,,44.9817387,-93.2772517,,,,,,,,,,,TRUE
TD Ballpark,,28.0034767,-82.7864134,,,,,,,,,,,TRUE
TD Bank Ballpark,,40.5604956,-74.5527934,,,,,,,,,,,TRUE
Tempe Diablo Stadium,,33.4013696,-111.9698453,,,,,,,,,,,TRUE
The Ballpark at America First Square,,40.5494645,-112.0224363,,,,,,,,,,,TRUE
The Corn Crib,,40.5338532,-89.0035594,,,,,,,,,,,TRUE
The Diamond,,33.6545395,-117.3017979,,,,,,,,,,,TRUE
Thomas More Stadium,,38.9824808,-84.6381569,,,,,,,,,,,TRUE
T-Mobile Park,,47.5915563,-122.3319697,,,,,,,,,,,TRUE
Toyota Field,,34.6838868,-86.7246058,,,,,,,,,,,TRUE
Trois-Rivieres Stadium,,46.3482162,-72.5565863,,,,,,,,,,,TRUE
Tropicana Field,,27.768166,-82.6534573,,,,,,,,,,,TRUE
Truist Stadium,,36.0920602,-80.2547407,,,,,,,,,,,TRUE
Truist Field,,35.2284348,-80.8483136,,,,,,,,,,,TRUE
Truist Park,,33.8907196,-84.4677437,,,,,,,,,,,TRUE
Truist Point,,35.958906,-80.0114466,,,,,,,,,,,TRUE
Trustmark Park,,32.2742161,-90.147264,,,,,,,,,,,TRUE
Turchin Stadium,,29.9462985,-90.1155764,,,,,,,,,,,TRUE
Turtle Creek Stadium,,44.682233,-85.6599069,,,,,,,,,,,TRUE
UFCU Disch-Falk Field,,30.2797677,-97.7260441,,,,,,,,,,,TRUE
U.S. Steel Yard,,41.6030165,-87.3314434,,,,,,,,,,,TRUE
Veterans Memorial Stadium,,41.9679861,-91.686101,,,,,,,,,,,TRUE
Victory Field,,39.7649232,-86.1683679,,,,,,,,,,,TRUE
Vincent-Beck Stadium,,30.0343901,-94.0745759,,,,,,,,,,,TRUE
Virginia Credit Union Stadium,,38.3173733,-77.5106093,,,,,,,,,,,TRUE
Volcanoes Stadium,,45.0155826,-122.9926085,,,,,,,,,,,TRUE
VyStar Ballpark,,30.3251564,-81.64258,,,,,,,,,,,TRUE
Wade Stadium,,46.7537846,-92.1439005,,,,,,,,,,,TRUE
War Memorial Stadium,,37.0095183,-76.3869632,,,,,,,,,,,TRUE
War Memorial Stadium,,36.0796616,-79.7771789,,,,,,,,,,,TRUE
Warner Park,,43.1306574,-89.3673956,,,,,,,,,,,TRUE
WellSpan Park,,39.9683225,-76.7281079,,,,,,,,,,,TRUE
Werner Park,,41.1520086,-96.106081,,,,,,,,,,,TRUE
Whataburger Field,,27.8098424,-97.3990452,,,,,,,,,,,TRUE
Wilson Ballpark,,35.721127,-77.9149521,,,,,,,,,,,TRUE
Wintrust Field,,41.9933165,-88.1176364,,,,,,,,,,,TRUE
Wrigley Field,,41.9481999,-87.6552773,,,,,,,,,,,TRUE
Yankee Stadium,,40.8294871,-73.9260149,,,,,,,,,,,TRUE
Yogi Berra Stadium,,40.8692293,-74.195137,,,,,,,,,,,TRUE
Abbott Memorial Alumni Stadium,,32.4248731,-85.705322,,,,,,,,,,,TRUE
Acrisure Stadium,,40.4467593,-80.0157881,,,,,,,,,,,TRUE
Acrisure Bounce House,,28.6082414,-81.1925805,,,,,,,,,,,TRUE
Aggie Memorial Stadium,,32.2796496,-106.7411041,,,,,,,,,,,TRUE
A.J. McClung Memorial Stadium,,32.4515487,-84.9849022,,,,,,,,,,,TRUE
Alamodome,,29.4168343,-98.4787631,,,,,,,,,,,TRUE
Albertsons Stadium,,43.6029101,-116.195891,,,,,,,,,,,TRUE
Alerus Center,,47.9106179849019,-97.0913529396057,,,,,,,,,,,TRUE
Alex G. Spanos Stadium,,35.2984767,-120.6650519,,,,,,,,,,,TRUE
Alfond Stadium,,44.9052073,-68.6716855,,,,,,,,,,,TRUE
Alexander Stadium,,40.1626842,-84.210067,,,,,,,,,,,TRUE
Allegacy Stadium,,36.1306351,-80.2546066,,,,,,,,,,,TRUE
Allegiant Stadium,,36.0908015,-115.1833585,,,,,,,,,,,TRUE
Allen E. Paulson Stadium,,32.4122026,-81.7831278,,,,,,,,,,,TRUE
Allianz Field,,44.952903,-93.1651008,,,,,,,,,,,TRUE
Alumni Stadium,,42.3351519,-71.166333,,,,,,,,,,,TRUE
America First Field,,40.582858,-111.8933594,,,,,,,,,,,TRUE
American Legion Memorial Stadium,,35.2182079,-80.8282004,,,,,,,,,,,TRUE
AmFirst Stadium,,33.8203193,-85.766337,,,,,,,,,,,TRUE
Amon G. Carter Stadium,,32.7096813,-97.3681355,,,,,,,,,,,TRUE
Andy Kerr Stadium,,42.8165114,-75.5457688,,,,,,,,,,,TRUE
Arizona Stadium,,32.2288939,-110.9488302,,,,,,,,,,,TRUE
Arlin Field,,40.7648933,-82.5507292,,,,,,,,,,,TRUE
Armstrong Stadium,,37.0205351,-76.333598,,,,,,,,,,,TRUE
Arrowhead Stadium,,39.0488689,-94.4839239,,,,,,,,,,,TRUE
Arthur Ashe Stadium,,40.7498579,-73.8470131,,,,,,,,,,,TRUE
ASU Stadium,,32.3642489,-86.2897861,,,,,,,,,,,TRUE
Astound Broadband Stadium,,31.9892081,-102.1539512,,,,,,,,,,,TRUE
AT&T Stadium,,32.7478322,-97.0928122,,,,,,,,,,,TRUE
Atwood Stadium,,43.0168436,-83.7018267,,,,,,,,,,,TRUE
Audi Field,,38.8688416,-77.0128942,,,,,,,,,,,TRUE
Autzen Stadium,,44.058263,-123.0684937,,,,,,,,,,,TRUE
A.W. Mumford Stadium,,30.5220104,-91.1895062,,,,,,,,,,,TRUE
Bain-Schaeffer Buffalo Stadium,,34.9865807,-101.913584,,,,,,,,,,,TRUE
Bakersfield Memorial Stadium,,35.4093583,-118.9694651,,,,,,,,,,,TRUE
Bank of America Stadium,,35.2257793,-80.8528519,,,,,,,,,,,TRUE
Bazemore-Hyder Stadium,,30.8459652,-83.2839847,,,,,,,,,,,TRUE
BC Place,,49.2767368,-123.1119347,,,,,,,,,,,TRUE
Beaver Stadium,,40.8122258,-77.8561324,,,,,,,,,,,TRUE
Ben Hill Griffin Stadium,,29.6498315,-82.3485804,,,,,,,,,,,TRUE
Bill Snyder Family Stadium,,39.2020382,-96.5938488,,,,,,,,,,,TRUE
BMO Field,,43.6331866,-79.4185889,,,,,,,,,,,TRUE
BMO Stadium,,34.0127514,-118.2845968,,,,,,,,,,,TRUE
Bobby Dodd Stadium,,33.7724766,-84.3928958,,,,,,,,,,,TRUE
Bobcat Stadium,,45.6589125,-111.0494399,,,,,,,,,,,TRUE
Boone Pickens Stadium,,36.1257,-97.0665801,,,,,,,,,,,TRUE
Bowman Gray Stadium,,36.0826834,-80.2220285,,,,,,,,,,,TRUE
Brady Street Stadium,,41.55577,-90.5671048,,,,,,,,,,,TRUE
Bragg Memorial Stadium,,30.426043,-84.2917764,,,,,,,,,,,TRUE
Braly Municipal Stadium,,34.8107467,-87.6705874,,,,,,,,,,,TRUE
Bridgeforth Stadium,,38.4352284,-78.8729525,,,,,,,,,,,TRUE
Brooks Stadium,,33.7928616,-79.0174592,,,,,,,,,,,TRUE
Brown Stadium,,41.8421753,-71.3943529,,,,,,,,,,,TRUE
Bryant-Denny Stadium,,33.2077413,-87.5504833,,,,,,,,,,,TRUE
B.T. Harvey Stadium,,33.745771,-84.4161238,,,,,,,,,,,TRUE
Caesars Superdome,,29.9509373,-90.0811958,,,,,,,,,,,TRUE
Cajun Field,,30.2158638,-92.041719,,,,,,,,,,,TRUE
California Memorial Stadium,,37.8710169,-122.250731,,,,,,,,,,,TRUE
Camping World Stadium,,28.539055,-81.4027905,,,,,,,,,,,TRUE
Camp Randall Stadium,,43.0698597,-89.4126821,,,,,,,,,,,TRUE
Canvas Stadium,,40.5702272,-105.0879729,,,,,,,,,,,TRUE
Carpenter-Haygood Stadium,,34.1346327,-93.0633751,,,,,,,,,,,TRUE
Carroll Stadium,,39.7710918,-86.1778737,,,,,,,,,,,TRUE
Carter-Finley Stadium,,35.8008119,-78.7195086,,,,,,,,,,,TRUE
Casey Stadium,,42.6808501,-73.8272453,,,,,,,,,,,TRUE
CEFCU Stadium,,37.3197911,-121.868366,,,,,,,,,,,TRUE
Central Parc Stadium,,33.7356716,-84.389441,,,,,,,,,,,TRUE
Centennial Stadium,,39.5828151,-104.8279497,,,,,,,,,,,TRUE
Centreville Bank Stadium,,41.8696763,-71.3829919,,,,,,,,,,,TRUE
Chad Richison Stadium,,35.6615327,-97.4707246,,,,,,,,,,,TRUE
Chapman Field,,40.2381265,-77.0648386,,,,,,,,,,,TRUE
Charlie W. Johnson Stadium,,34.0181271,-81.0105658,,,,,,,,,,,TRUE
Chase Stadium,,26.1931544,-80.1610735,,,,,,,,,,,TRUE
Children's Mercy Park,,39.1216373,-94.8231804,,,,,,,,,,,TRUE
Christy Mathewson-Memorial Stadium,,40.9518796,-76.8854088,,,,,,,,,,,TRUE
City Stadium,,37.5496769,-77.4867225,,,,,,,,,,,TRUE
Clarence T.C. Ching Athletics Complex,,21.2943691,-157.8170118,,,,,,,,,,,TRUE
Cleveland Browns Stadium,,41.5060223,-81.6995073,,,,,,,,,,,TRUE
Commonwealth Stadium,,53.5596468,-113.4760667,,,,,,,,,,,TRUE
Cotton Bowl,,32.7795354,-96.7595531,,,,,,,,,,,TRUE
CPKC Stadium,,39.1194053,-94.5668718,,,,,,,,,,,TRUE
Cramton Bowl,,32.3794903,-86.2929619,,,,,,,,,,,TRUE
Credit One Stadium,,32.8614296,-79.9036397,,,,,,,,,,,TRUE
DakotaDome,,42.7911493,-96.9276953,,,,,,,,,,,TRUE
Dana J. Dykhouse Stadium,,44.3210234,-96.7801202,,,,,,,,,,,TRUE
Darrell K. Royal-Texas Memorial Stadium,,30.2836034,-97.7325511,,,,,,,,,,,TRUE
DATCU Stadium,,33.2038991,-97.1592665,,,,,,,,,,,TRUE
David Booth Kansas Memorial Stadium,,38.962996,-95.2463794,,,,,,,,,,,TRUE
Davis Wade Stadium,,33.4563962,-88.7933815,,,,,,,,,,,TRUE
Daytona Stadium,,29.173494,-81.1175216,,,,,,,,,,,TRUE
Delaware Stadium,,39.6618331,-75.7488602,,,,,,,,,,,TRUE
Delray Beach Stadium,,26.4627166,-80.0755371,,,,,,,,,,,TRUE
Dick’s Sporting Goods Park,,39.8057749,-104.8918283,,,,,,,,,,,TRUE
Dick Price Stadium,,36.8469678,-76.2600303,,,,,,,,,,,TRUE
Dignity Health Sports Park,,33.8642864,-118.2610846,,,,,,,,,,,TRUE
Dix Stadium,,41.1390899,-81.3134247,,,,,,,,,,,TRUE
Doak Campbell Stadium,,30.4381892,-84.3044659,,,,,,,,,,,TRUE
Doc Wadley Stadium,,35.9286279,-94.96773,,,,,,,,,,,TRUE
Dowdy-Ficklen Stadium,,35.5964781,-77.3652507,,,,,,,,,,,TRUE
Drake Stadium,,41.604974,-93.6550356,,,,,,,,,,,TRUE
Drake Stadium,,34.071991,-118.4483027,,,,,,,,,,,TRUE
Durham County Memorial Stadium,,36.0353589,-78.9028617,,,,,,,,,,,TRUE
Eccles Coliseum,,37.6756688,-113.0769968,,,,,,,,,,,TRUE
Edwards Stadium,,37.8690011,-122.2647966,,,,,,,,,,,TRUE
E.J. Whitmire Stadium,,35.3047547,-83.1825382,,,,,,,,,,,TRUE
Elliott T. Bowers Stadium,,30.7138822,-95.5419911,,,,,,,,,,,TRUE
Empower Field at Mile High,,39.7439644,-105.0200916,,,,,,,,,,,TRUE
Energizer Park,,38.6312451,-90.2105127,,,,,,,,,,,TRUE
Estes Stadium,,35.0802197,-92.4600042,,,,,,,,,,,TRUE
Eunice Kennedy Shriver Stadium,,43.2063841,-77.951485,,,,,,,,,,,TRUE
Falcon Stadium,,38.9970407,-104.843452,,,,,,,,,,,TRUE
FargoDome,,46.9029731,-96.8016422,,,,,,,,,,,TRUE
Fifth Third Bank Stadium,,34.02894,-84.5675987,,,,,,,,,,,TRUE
Finley Stadium,,35.0362864,-85.3157258,,,,,,,,,,,TRUE
FirstBank Stadium,,36.1439744,-86.8089223,,,,,,,,,,,TRUE
Fisher Field,,40.7009268,-75.2106644,,,,,,,,,,,TRUE
Fitton Field,,42.2416004,-71.8099236,,,,,,,,,,,TRUE
Five Star Stadium,,32.8269924,-83.6521822,,,,,,,,,,,TRUE
Flagler Credit Union Stadium,,26.3761264,-80.1016188,,,,,,,,,,,TRUE
Floyd Stadium,,35.8512134,-86.3681817,,,,,,,,,,,TRUE
Folsom Field,,40.0093901,-105.2669406,,,,,,,,,,,TRUE
Ford Field,,42.3399579,-83.0456114,,,,,,,,,,,TRUE
Fortera Stadium,,36.536364,-87.352531,,,,,,,,,,,TRUE
Fort Wayne FC Park,,41.0877996,-85.2246043,,,,,,,,,,,TRUE
Foster Stadium,,37.7906928,-79.445926,,,,,,,,,,,TRUE
Franklin Field,,39.9501235,-75.1900327,,,,,,,,,,,TRUE
Gaylord Family-Oklahoma Memorial Stadium,,35.205904,-97.4423575,,,,,,,,,,,TRUE
Geodis Park,,36.1300781,-86.7660867,,,,,,,,,,,TRUE
Gerald J. Ford Stadium,,32.8378329,-96.782738,,,,,,,,,,,TRUE
Gesa Field,,46.7318383,-117.1605849,,,,,,,,,,,TRUE
Gibbs Stadium,,34.9618554,-81.9328487,,,,,,,,,,,TRUE
Gillette Stadium,,42.0910573,-71.2644267,,,,,,,,,,,TRUE
Glass Bowl,,41.6573549,-83.6135745,,,,,,,,,,,TRUE
Goodman Stadium,,40.5891156,-75.3552998,,,,,,,,,,,TRUE
Grandstand,,40.7480413,-73.8479089,,,,,,,,,,,TRUE
Greater Zion Stadium,,37.0994998,-113.5672579,,,,,,,,,,,TRUE
H.A. Chapman Stadium,,36.148956,-95.9437966,,,,,,,,,,,TRUE
Hamilton Stadium,,43.2525643,-79.8299326,,,,,,,,,,,TRUE
Hancock Stadium,,40.5123962,-88.996532,,,,,,,,,,,TRUE
Hancock-Whitney Stadium,,30.6972656,-88.1924645,,,,,,,,,,,TRUE
Hanson Field,,40.4683271,-90.6841886,,,,,,,,,,,TRUE
Harder Stadium,,34.4205093,-119.8543864,,,,,,,,,,,TRUE
Hard Rock Stadium,,25.9578903,-80.238905,,,,,,,,,,,TRUE
Harvard Stadium,,42.3666616,-71.1267115,,,,,,,,,,,TRUE
Heart Health Park,,38.5913905,-121.4380217,,,,,,,,,,,TRUE
Highmark Stadium,,42.773818,-78.7869823,,,,,,,,,,,TRUE
Historic Crew Stadium,,40.0093276,-82.9912567,,,,,,,,,,,TRUE
Hodges Stadium,,30.2751443,-81.5116239,,,,,,,,,,,TRUE
Homer Brice Stadium,,31.625641,-94.6443844,,,,,,,,,,,TRUE
Homewood Field,,39.3334386,-76.6208572,,,,,,,,,,,TRUE
Hornet Stadium,,38.5557462,-121.423012,,,,,,,,,,,TRUE
Houchens-Smith Stadium,,36.984746,-86.4594627,,,,,,,,,,,TRUE
Houck Stadium,,37.3095688,-89.5311929,,,,,,,,,,,TRUE
Hovey Field,,37.5612273,-77.4488175,,,,,,,,,,,TRUE
Hughes Stadium,,39.3439062,-76.5828932,,,,,,,,,,,TRUE
Hughes Stadium,,38.540844,-121.486516,,,,,,,,,,,TRUE
Huntington Bank Stadium,,44.9765402,-93.2246697,,,,,,,,,,,TRUE
Huskie Stadium,,41.9339389,-88.7778354,,,,,,,,,,,TRUE
Husky Stadium,,47.6502768,-122.3015213,,,,,,,,,,,TRUE
ICCU Dome,,42.8699569,-112.4286425,,,,,,,,,,,TRUE
IGA Stadium,,45.5329845,-73.6270827,,,,,,,,,,,TRUE
Independence Stadium,,32.4756548,-93.7919676,,,,,,,,,,,TRUE
Indian Wells Tennis Garden,,33.723947,-116.3059152,,,,,,,,,,,TRUE
InfoCision Stadium,,41.072622,-81.5084267,,,,,,,,,,,TRUE
Inter&Co Stadium,,28.5410625,-81.3883764,,,,,,,,,,,TRUE
Jack Trice Stadium,,42.0139816,-93.6357666,,,,,,,,,,,TRUE
Javelina Stadium,,27.5288333,-97.8800726,,,,,,,,,,,TRUE
Jayne Stadium,,38.1918933,-83.4253424,,,,,,,,,,,TRUE
Jerry Richardson Stadium,,35.3104677,-80.7400704,,,,,,,,,,,TRUE
JMA Wireless Dome,,43.0361642,-76.1363268,,,,,,,,,,,TRUE
Joan C. Edwards Stadium,,38.4249242,-82.4209143,,,,,,,,,,,TRUE
Joe Aillet Stadium,,32.5322423,-92.6559985,,,,,,,,,,,TRUE
John L. Guidry Stadium,,29.7867294,-90.8045125,,,,,,,,,,,TRUE
Johnny Unitas Stadium,,39.3886283,-76.6159701,,,,,,,,,,,TRUE
Johnson Hagood Stadium,,32.7936963,-79.955771,,,,,,,,,,,TRUE
Jones AT&T Stadium,,33.591064,-101.872884,,,,,,,,,,,TRUE
Jordan-Hare Stadium,,32.6021719,-85.4890502,,,,,,,,,,,TRUE
Kelly/Shorts Stadium,,43.577554,-84.7708511,,,,,,,,,,,TRUE
Kenan Stadium,,35.9069536,-79.0478969,,,,,,,,,,,TRUE
Kenneth P. LaValle Stadium,,40.9189851,-73.124308,,,,,,,,,,,TRUE
Keyworth Stadium,,42.392349,-83.0489316,,,,,,,,,,,TRUE
Kezar Stadium,,37.7668983,-122.4560487,,,,,,,,,,,TRUE
Kibbie Dome,,46.7262713,-117.0178699,,,,,,,,,,,TRUE
Kidd Brewer Stadium,,36.211524,-81.685474,,,,,,,,,,,TRUE
Kinnick Stadium,,41.6586776,-91.5510893,,,,,,,,,,,TRUE
Kroger Field,,38.0227569,-84.5051622,,,,,,,,,,,TRUE
Kyle Field,,30.6098822,-96.340356,,,,,,,,,,,TRUE
L&N Stadium,,38.2058305,-85.7587838,,,,,,,,,,,TRUE
Lakewood Stadium,,33.7029855,-84.3876327,,,,,,,,,,,TRUE
Lambeau Field,,44.5013494,-88.0622435,,,,,,,,,,,TRUE
Lane Stadium,,37.2200085,-80.4181303,,,,,,,,,,,TRUE
LaVell Edwards Stadium,,40.2575207,-111.6545141,,,,,,,,,,,TRUE
Lawrence A. Wien Stadium,,40.8732371,-73.9164448,,,,,,,,,,,TRUE
Legion Field,,33.5114775,-86.8426324,,,,,,,,,,,TRUE
Levi’s Stadium,,37.403203,-121.9698179,,,,,,,,,,,TRUE
Lincoln Financial Field,,39.9008065,-75.16747,,,,,,,,,,,TRUE
Lindner Family Tennis Center,,39.3489922,-84.2762733,,,,,,,,,,,TRUE
Los Angeles Memorial Coliseum,,34.0140364,-118.2879066,,,,,,,,,,,TRUE
Louis Armstrong Stadium,,40.7509389,-73.8455164,,,,,,,,,,,TRUE
Louis Crews Stadium,,34.7835495,-86.5783704,,,,,,,,,,,TRUE
Lubbers Stadium,,42.968859,-85.8947183,,,,,,,,,,,TRUE
Lucas Oil Stadium,,39.7601399,-86.163776,,,,,,,,,,,TRUE
Lumen Field,,47.595174,-122.3316371,,,,,,,,,,,TRUE
Lynn Family Stadium,,38.2595586,-85.7333029,,,,,,,,,,,TRUE
M&T Bank Stadium,,39.2779621,-76.6227722,,,,,,,,,,,TRUE
Mackay Stadium,,39.5470407,-119.8176777,,,,,,,,,,,TRUE
Malone Stadium,,32.5309126,-92.0659554,,,,,,,,,,,TRUE
Mansion Park Stadium,,40.4915117,-78.4102822,,,,,,,,,,,TRUE
Maverik Stadium,,41.7517206,-111.8116379,,,,,,,,,,,TRUE
McGuirk Stadium,,42.3773622,-72.5360085,,,,,,,,,,,TRUE
McKinney ISD Stadium,,33.1574826,-96.661505,,,,,,,,,,,TRUE
McLane Stadium,,31.5581872,-97.1156323,,,,,,,,,,,TRUE
McMahon Stadium,,51.0703516,-114.1215349,,,,,,,,,,,TRUE
Memorial Field,,43.7012414,-72.28431,,,,,,,,,,,TRUE
Memorial Stadium,,39.180851,-86.5256382,,,,,,,,,,,TRUE
Memorial Stadium,,40.0993304,-88.2359649,,,,,,,,,,,TRUE
Memorial Stadium,,34.6787291,-82.8432012,,,,,,,,,,,TRUE
Memorial Stadium,,38.9357618,-92.3332429,,,,,,,,,,,TRUE
Memorial Stadium,,33.2460724,-95.9101404,,,,,,,,,,,TRUE
Memorial Stadium,,40.8206134,-96.7056727,,,,,,,,,,,TRUE
Memorial Stadium,,39.4749783,-87.3669559,,,,,,,,,,,TRUE
Memorial Stadium,,33.8542012,-98.5824895,,,,,,,,,,,TRUE
Memorial Stadium,,32.2148964,-98.2235032,,,,,,,,,,,TRUE
Mercedes-Benz Stadium,,33.7551198,-84.40098,,,,,,,,,,,TRUE
MetLife Stadium,,40.8135168,-74.0743518,,,,,,,,,,,TRUE
Michie Stadium,,41.3876318,-73.9641666,,,,,,,,,,,TRUE
Michigan Stadium,,42.2658289,-83.748715,,,,,,,,,,,TRUE
Mihalik-Thompson Stadium,,41.0633645,-80.0375623,,,,,,,,,,,TRUE
Milam Stadium,,35.536046,-98.7108171,,,,,,,,,,,TRUE
Milan Puskar Stadium,,39.6501038,-79.9550736,,,,,,,,,,,TRUE
Mike A. Myers Stadium and Soccer Field,,30.2825472,-97.7300192,,,,,,,,,,,TRUE
Mississippi Veterans Memorial Stadium,,32.3295702,-90.1796866,,,,,,,,,,,TRUE
Mitchell Stadium,,37.2507676,-81.2440092,,,,,,,,,,,TRUE
Mosaic Stadium,,50.4526951,-104.6243262,,,,,,,,,,,TRUE
Mountain America Stadium,,33.4264271,-111.9325519,,,,,,,,,,,TRUE
Navarre Stadium,,30.1735086,-93.2103467,,,,,,,,,,,TRUE
Navy-Marine Corps Memorial Stadium,,38.9847659,-76.507094,,,,,,,,,,,TRUE
Neyland Stadium,,35.9549862,-83.9250004,,,,,,,,,,,TRUE
Nickerson Field,,42.3534777,-71.1192334,,,,,,,,,,,TRUE
Nippert Stadium,,39.1311755,-84.5161271,,,,,,,,,,,TRUE
Nissan Stadium,,36.1664367,-86.7712748,,,,,,,,,,,TRUE
Northwest Stadium,,38.9076738,-76.8644822,,,,,,,,,,,TRUE
Notre Dame Stadium,,41.6983991,-86.2339211,,,,,,,,,,,TRUE
Nottingham Field,,40.4034069,-104.705093,,,,,,,,,,,TRUE
NRG Stadium,,29.6847905172459,-95.4107236862183,,,,,,,,,,,TRUE
Nu Stadium,,25.7905499,-80.2617694,,,,,,,,,,,TRUE
O'Brien Field,,39.4807089,-88.1811995,,,,,,,,,,,TRUE
Ohio Stadium,,40.0016323,-83.019755,,,,,,,,,,,TRUE
Oliver C. Dawson Stadium,,33.49868,-80.8447248,,,,,,,,,,,TRUE
O’Kelly-Riddick Stadium,,35.973882,-78.896953,,,,,,,,,,,TRUE
Panther Stadium,,30.0910133,-95.9944475,,,,,,,,,,,TRUE
Paladin Stadium,,34.9201324,-82.437029,,,,,,,,,,,TRUE
Paycor Stadium,,39.095455,-84.5160628,,,,,,,,,,,TRUE
PayPal Park,,37.3512088,-121.9246602,,,,,,,,,,,TRUE
Peden Stadium,,39.3211017,-82.1028686,,,,,,,,,,,TRUE
Percival Molson Memorial Stadium,,45.5101214,-73.5806751,,,,,,,,,,,TRUE
Perkins Stadium,,42.8471614,-88.7448817,,,,,,,,,,,TRUE
Perry Stadium,,41.3780323,-83.6224581,,,,,,,,,,,TRUE
Phoenix Rising Soccer Stadium,,33.4456761,-111.9991099,,,,,,,,,,,TRUE
Pioneer Stadium,,42.7277534,-90.4866707,,,,,,,,,,,TRUE
Pitbull Stadium,,25.7524831,-80.377897,,,,,,,,,,,TRUE
Princess Auto Stadium,,49.8078175,-97.1430445,,,,,,,,,,,TRUE
Princeton Stadium,,40.3455138,-74.6498895,,,,,,,,,,,TRUE
Protective Stadium,,33.5278173,-86.8092,,,,,,,,,,,TRUE
Providence Park,,45.521556,-122.6917666,,,,,,,,,,,TRUE
Provost Umphrey Stadium,,30.0431111,-94.0700055,,,,,,,,,,,TRUE
Q2 Stadium,,30.3877059,-97.7195949,,,,,,,,,,,TRUE
Ratliff Stadium,,31.9207823,-102.3644847,,,,,,,,,,,TRUE
Raymond James Stadium,,27.9760118,-82.5033921,,,,,,,,,,,TRUE
Rentschler Field,,41.7596442,-72.6188136,,,,,,,,,,,TRUE
Reser Stadium,,44.5594998,-123.2813752,,,,,,,,,,,TRUE
Reynolds Razorback Stadium,,36.0679548,-94.1789783,,,,,,,,,,,TRUE
Rhodes Stadium,,36.109909,-79.5076597,,,,,,,,,,,TRUE
Rice-Eccles Stadium,,40.7600453,-111.8488562,,,,,,,,,,,TRUE
Rice Stadium,,29.7162899,-95.409329,,,,,,,,,,,TRUE
Rice-Totten Stadium,,33.5094556612883,-90.3431940078735,,,,,,,,,,,TRUE
Rip Hewes Stadium,,31.2057764,-85.4031687,,,,,,,,,,,TRUE
Robert and Janet Vackar Stadium,,26.2825793,-98.1351913,,,,,,,,,,,TRUE
Roberts Stadium,,31.3289784,-89.3312074,,,,,,,,,,,TRUE
Robert W. Plaster Stadium,,37.197715,-93.2798481,,,,,,,,,,,TRUE
Robinson-Hale Stadium,,32.3365663,-90.3337365,,,,,,,,,,,TRUE
Robinson Stadium,,32.5208534,-92.7211548,,,,,,,,,,,TRUE
Robins Stadium,,37.5809557,-77.536869,,,,,,,,,,,TRUE
Rock Creek Tennis Center,,38.9541527,-77.0382786,,,,,,,,,,,TRUE
Roos Field,,47.4927037,-117.5878287,,,,,,,,,,,TRUE
Rose Bowl,,34.1612766,-118.1676149,,,,,,,,,,,TRUE
Ross-Ade Stadium,,40.4344375,-86.918453,,,,,,,,,,,TRUE
Roy Kidd Stadium,,37.7344759,-84.2972589,,,,,,,,,,,TRUE
Roy Stewart Stadium,,36.6214435,-88.3173752,,,,,,,,,,,TRUE
Rynearson Stadium,,42.255856,-83.6473703,,,,,,,,,,,TRUE
Saluki Stadium,,37.7085583,-89.2161513,,,,,,,,,,,TRUE
Sanford Stadium,,33.9497324,-83.3733345,,,,,,,,,,,TRUE
Saputo Stadium,,45.5631025,-73.5525227,,,,,,,,,,,TRUE
S.B. Ballard Stadium,,36.8889744,-76.3049197,,,,,,,,,,,TRUE
Scheumann Stadium,,40.2161276,-85.4167914,,,,,,,,,,,TRUE
Schoellkopf Field,,42.4441593,-76.4787323,,,,,,,,,,,TRUE
Scotts Miracle-Gro Field,,39.9684866,-83.0170942,,,,,,,,,,,TRUE
Scott Stadium,,38.03109,-78.5136653,,,,,,,,,,,TRUE
SeatGeek Stadium,,41.7647499,-87.8061891,,,,,,,,,,,TRUE
SECU Stadium,,38.9902365,-76.9472766,,,,,,,,,,,TRUE
Selby Stadium,,40.2967202,-83.0634427,,,,,,,,,,,TRUE
Shell Energy Stadium,,29.7521016,-95.3522731,,,,,,,,,,,TRUE
SHI Stadium,,40.513477,-74.4653964,,,,,,,,,,,TRUE
Simmons Bank Field,,34.253421,-92.0215005,,,,,,,,,,,TRUE
Simmons Bank Liberty Stadium,,35.1210933,-89.9774265,,,,,,,,,,,TRUE
Sloan-Alumni Stadium,,33.4797689,-86.9086468,,,,,,,,,,,TRUE
Snapdragon Stadium,,32.783141,-117.1195478,,,,,,,,,,,TRUE
Sobeys Stadium,,43.7715703,-79.5120746,,,,,,,,,,,TRUE
SoFi Stadium,,33.9533687,-118.3389723,,,,,,,,,,,TRUE
Solider Field,,41.8623221,-87.6166964,,,,,,,,,,,TRUE
Spangler Stadium,,35.2456103,-81.6732431,,,,,,,,,,,TRUE
Spartan Stadium,,42.7282263,-84.4848419,,,,,,,,,,,TRUE
Spinks-Casem Stadium,,31.8735852,-91.1348964,,,,,,,,,,,TRUE
Sports Illustrated Stadium,,40.7368033,-74.1502691,,,,,,,,,,,TRUE
Spratt Memorial Stadium,,39.7618945,-94.7860947,,,,,,,,,,,TRUE
Stadium 2,,33.7234584,-116.3039116,,,,,,,,,,,TRUE
Stambaugh Stadium,,41.1094941,-80.6493473,,,,,,,,,,,TRUE
Stanford Stadium,,37.4345049,-122.1611559,,,,,,,,,,,TRUE
State Farm Stadium,,33.5274793,-112.2622705,,,,,,,,,,,TRUE
Stewart Stadium,,41.1918999,-111.9399896,,,,,,,,,,,TRUE
Sun Bowl,,31.7733636,-106.5079666,,,,,,,,,,,TRUE
Superior Dome,,46.5602767,-87.3938155,,,,,,,,,,,TRUE
Tacoma Dome,,47.2366751,-122.4270487,,,,,,,,,,,TRUE
Talen Energy Stadium,,39.8327132,-75.3783346,,,,,,,,,,,TRUE
TDECU Stadium,,29.7220296,-95.3492154,,,,,,,,,,,TRUE
TD Place Stadium,,45.3981938,-75.6834197,,,,,,,,,,,TRUE
The Dome at America's Center,,38.6329344,-90.1884271,,,,,,,,,,,TRUE
Theodore A. Wright Stadium,,32.0274794,-81.0686624,,,,,,,,,,,TRUE
The Reservation,,35.0667898,-81.6802704,,,,,,,,,,,TRUE
TIAA Bank Field,,30.3238691,-81.637323,,,,,,,,,,,TRUE
Tiger Stadium,,30.4119847,-91.1838199,,,,,,,,,,,TRUE
Titan Stadium,,33.8866536,-117.8869701,,,,,,,,,,,TRUE
Titan Stadium,,44.0236694,-88.5628617,,,,,,,,,,,TRUE
Tom Benson Hall of Fame Stadium,,40.8198015,-81.3980485,,,,,,,,,,,TRUE
Toyota Field,,29.5393461,-98.3945632,,,,,,,,,,,TRUE
Toyota Stadium,,33.1542775,-96.8351377,,,,,,,,,,,TRUE
TQL Stadium,,39.1110381,-84.5227915,,,,,,,,,,,TRUE
Truist Stadium,,36.0814651753035,-79.7700977325439,,,,,,,,,,,TRUE
Tucker Stadium,,36.1781807,-85.5061627,,,,,,,,,,,TRUE
Turpin Stadium,,31.7475111,-93.0960953,,,,,,,,,,,TRUE
UB Stadium,,42.9991234,-78.7775302,,,,,,,,,,,TRUE
UC Davis Health Stadium,,38.5365851079438,-121.762783527374,,,,,,,,,,,TRUE
UC Football Stadium,,38.3442983,-81.6150606,,,,,,,,,,,TRUE
UFCU Stadium,,29.8910622,-97.9255414,,,,,,,,,,,TRUE
UNI-Dome,,42.5156859,-92.4673749,,,,,,,,,,,TRUE
University Stadium,,33.5802316,-85.120461,,,,,,,,,,,TRUE
University Stadium,,35.0669742,-106.6282261,,,,,,,,,,,TRUE
U.S. Bank Stadium,,44.9737054,-93.257677,,,,,,,,,,,TRUE
Valley Children's Stadium,,36.8143527,-119.7579826,,,,,,,,,,,TRUE
Vaught-Hemingway Stadium,,34.3620723,-89.5341969,,,,,,,,,,,TRUE
Veterans Memorial Stadium,,31.7995781,-85.9518707,,,,,,,,,,,TRUE
Villanova Stadium,,40.0330036,-75.3367335,,,,,,,,,,,TRUE
WakeMed Soccer Park,,35.7862091,-78.7550856,,,,,,,,,,,TRUE
Waldo Stadium,,42.2857624,-85.6010377,,,,,,,,,,,TRUE
Walkup Skydome,,35.180517,-111.6527546,,,,,,,,,,,TRUE
Wallace Wade Stadium,,35.9953252,-78.9416708,,,,,,,,,,,TRUE
Walton Stadium,,38.758894,-93.7421268,,,,,,,,,,,TRUE
War Memorial Stadium,,41.3117103,-105.5683029,,,,,,,,,,,TRUE
War Memorial Stadium,,34.7497935,-92.3301315,,,,,,,,,,,TRUE
Washington-Grizzly Stadium,,46.863837,-113.9815181,,,,,,,,,,,TRUE
Weidner Field,,38.8262545,-104.8284212,,,,,,,,,,,TRUE
Welcome Stadium,,39.7368448,-84.1980601,,,,,,,,,,,TRUE
Wildcat Stadium,,32.5336714,-83.8953997,,,,,,,,,,,TRUE
Wildcat Stadium,,43.1385847,-70.939343,,,,,,,,,,,TRUE
Wildcat Stadium,,32.4730935,-99.7088565,,,,,,,,,,,TRUE
Williams Stadium,,37.3544241,-79.1750228,,,,,,,,,,,TRUE
Williams-Brice Stadium,,33.9731003,-81.0191704,,,,,,,,,,,TRUE
Yager Stadium,,39.519635,-84.7330052,,,,,,,,,,,TRUE
Yale Bowl,,41.3131367,-72.9603982,,,,,,,,,,,TRUE
Yulman Stadium,,29.944667,-90.1168317,,,,,,,,,,,TRUE
Zable Stadium,,37.2729131,-76.7143482,,,,,,,,,,,TRUE
