"Name","Latitude","Longitude","capacity"
"1st Summit Arena",40.3229087,-78.9228308,3517
"3M Arena at Mariucci",44.9780504,-93.2281029,10257
"Abbotsford Centre",49.0307232,-122.2871077,7073
"Acrisure Arena",33.7784544,-116.3390586,10087
"Addition Financial Arena",28.6073937,-81.1974192,10000
"Adirondack Bank Center",43.1048996,-75.2334094,3917
"Adventist Health Arena",37.9560164,-121.2960148,11193
"A.E. Wood Coliseum",32.3351635,-90.3322238,3500
"Agganis Arena",42.352232913662,-71.1177098751068,6150
"Air Canada Centre",43.6433504,-79.3790531,NA
"Alabama A&M Event Center",34.7867327,-86.576002,NA
"Alaska Airlines Arena",47.6520728,-122.3022455,9268
"Alaska Airlines Center",61.1886392,-149.8141837,5600
"Alex G. Spanos Center",37.976697,-121.3151336,5634
"Alfond Arena",44.904531,-68.6736381,5124
"Alico Arena",26.4710724324877,-81.7647010087967,4333
"Allen Arena",36.1036984,-86.7989606,5028
"Allen County War Memorial Coliseum",41.1156172,-85.1241517,10495
"Al Lawson Center",30.4241881,-84.2905855,9639
"Allen Fieldhouse",38.9543363,-95.2528381,15300
"Alliant Energy PowerHouse",41.9800639,-91.6674861,6800
"Allstate Arena",42.0052204,-87.8878355,16692
"Al McGuire Center",43.0399086,-87.9266202,3700
"Alumni Arena",42.9998138137038,-78.7810921669006,6783
"Alumni Hall",38.9845657658528,-76.4879107475281,5710
"Akins Ford Arena",33.9611885,-83.3708887,5500
"Amerant Bank Arena",26.1584907,-80.3255403,19250
"American Airlines Center",32.7904854437124,-96.8103539943695,18532
"AMSOIL Arena",46.7804684050275,-92.0996975898743,6756
"Anaheim Convention Center",33.8022445,-117.9198152,7500
"Angel of the Winds Arena",47.9784246,-122.203331,8149
"Appalachian Wireless Arena",37.4777956,-82.5171787,5272
"Arena-Auditorium",41.3133543,-105.5693865,NA
"Assembly Hall",39.1809507162735,-86.5224409103394,17222
"Athletics-Recreation Center",41.4644325,-87.0483296,NA
"Atlantic Union Bank Center",38.4304798,-78.8595522,8500
"Augusta Civic Center",44.3424043276655,-69.7989106178284,6777
"Ball Arena",39.7487077,-105.0076676,17809
"Bank of Springfield Center",39.8010604,-89.6444464,7700
"Bank OZK Arena",34.5096068,-93.0499614,6300
"Baptist Health Arena",37.7372843,-84.3013573,6500
"Barclays Center",40.6827290119536,-73.9755606651306,17732
"Barnhill Arena",36.0666583298427,-94.1779965162277,8500
"Bartow Arena",33.502021509423,-86.8092441558838,8500
"Baxter Arena",41.2362208,-96.0132766,7898
"Beasley Coliseum",46.7351989,-117.1580529,11671
"Beeghly Center",41.1082855,-80.6487948,4633
"Belgrade Special Events Center",45.7827585670373,-111.178658008575,4800
"Bell Centre",45.4960598,-73.569206,21288
"Bell Place",45.5558759,-73.7216038,10043
"Belk Arena",35.4992598,-80.8403849,5223
"Benchmark International Arena",27.9426448,-82.4517918,19204
"Berglund Center",37.2801782,-79.9358582,8672
"Bernard G. Johnson Coliseum",30.7128767615646,-95.5461323261261,6100
"Berry Bowl",40.7492213,-86.3311842,5873
"Berry Center",29.9048462,-95.6886113,8300
"Berry Events Center",46.5577537,-87.3926568,3802
"Bert Ogden Arena",26.2555295,-98.1647415,9324
"Bill Greehey Arena",29.4517667,-98.5643202,3800
"Bill Green Athletic Arena",40.5385891,-85.6698371,7560
"Bill Harris Arena",33.4947941,-86.8739858,5000
"Bismarck Event Center",46.8024389750884,-100.783338546753,10100
"Blue Arena",40.4441547,-104.9895036,5089
"Blue Cross Arena",43.1537434,-77.6107907,10662
"BMO Center",42.2702513,-89.0961063,5895
"Boardwalk Hall",39.354913,-74.4384149,12000
"Boart Longyear Memorial Gardens",46.3142314,-79.4489729,4250
"Bob Carpenter Center",39.6604951,-75.7486135,5000
"Bob Devaney Sports Center",40.8302502,-96.6976368,7907
"Bojangles' Coliseum",35.2050668,-80.7952273,NA
"BOK Center",36.1527418,-95.9964108,17096
"Bon Secours Wellness Arena",34.8527629038045,-82.3915600776672,13707
"Boonville High School Gym",38.0527508,-87.2794775,5650
"Bramlage Coliseum",39.2002839,-96.5939319,11010
"Bren Events Center",33.649310448126,-117.847208976746,5000
"Breslin Center",42.7281632054322,-84.4922661781311,14759
"Bridgestone Arena",36.1590828,-86.7784631,17159
"Broadview Center",42.6820016,-73.8283825,3899
"Brooks Gym",36.3026321,-82.3703492,3500
"Brookshire Grocery Arena",32.4651837,-93.6736394,11510
"Brownwood Coliseum",31.7201911680321,-98.9782762527466,4000
"Bryce Jordan Center",40.8086772,-77.8556013,15261
"Bud Walton Arena",36.0615631,-94.1781628,19200
"Budweiser Gardens",42.9825332,-81.2524688,9036
"Buford City Arena",34.128703,-83.9874421,5500
"Burns Arena",37.1014246,-113.5670149,4779
"Burton Coliseum",30.1369995,-93.211484,8500
"Butte Civic Center",46.0018954729182,-112.519279718399,6250
"CAA Arena",44.1880049,-77.3835969,4365
"CAA Centre",43.6671801,-79.7083305,5000
"Cable Dahmer Arena",39.0399946,-94.3573667,5800
"Cajundome",30.2184597,-92.0386934,12362
"Cal Farley Coliseum",35.2081963531272,-101.830183267593,4870
"Calihan Hall",42.4143876867036,-83.1360447406769,8295
"Cal U Convocation Center",40.0632272,-79.8818333,5000
"Cameron Hall",37.7885392,-79.4365275,5000
"Cameron Indoor Stadium",35.9975084,-78.9422232,9314
"Cam Henderson Center",38.4244703,-82.4250448,9043
"Canadian Tire Centre",45.296928,-75.9271789,17373
"Cannon Activities Center",21.6418121,-157.9241216,4500
"Canton Memorial Civic Center",40.8079626,-81.3728464,NA
"Canton Memorial Field House",40.8178691,-81.3975227,5280
"Capital One Arena",38.8981306,-77.0207691,18506
"CareFirst Arena",38.8467752,-76.9904223,4200
"Carlson Center",64.8422791,-147.7639139,4595
"Carmichael Arena",35.9095866,-79.0454131,6822
"Carnesecca Arena",40.724165,-73.7944955,5602
"Carver Arena",40.6918855,-89.5935595,11060
"Carver-Hawkeye Arena",41.6637032,-91.5545869,NA
"Case Arena",40.2807752,-86.4849184,5509
"Casey's Center",41.5926986,-93.6211109,NA
"Casper Events Center",42.8682269,-106.3327111,8395
"Cassell Coliseum",37.2225971,-80.4189564,9265
"CEFCU Arena",40.5106833,-88.9987743,10200
"CEI Arena",39.2528517,-76.7123795,4654
"Centennial Center",33.0766012,-83.2338917,4071
"Centrum Arena",37.675482,-113.0729521,NA
"CFG Bank Arena",39.2887054,-76.6187227,13000
"CFSB Center",36.6226577,-88.3199823,8600
"Chaifetz Arena",38.632486,-90.227859,10600
"Charles E. Smith Center",38.8978174,-77.04934,4057
"Charles Koch Arena",37.7217049,-97.29736,10506
"Charleston Civic Center",38.3559096,-81.6396834,12337
"Chartway Arena",36.8841217,-76.3014114,8472
"Chase Center",37.7678774,-122.3874542,18064
"Chase Family Arena",41.7989656,-72.7112076,3507
"CHI Health Center Omaha",41.2626383,-95.9281218,17352
"Chiles Center",45.5750895,-122.7284753,4852
"Chilliwack Coliseum",49.1696465,-121.9690776,5058
"Christl Arena",41.3863962,-73.9656258,5043
"Cintas Center",39.1502227,-84.4718922,10224
"Cleveland Public Auditorium",41.5036739,-81.6930473,6500
"Climate Pledge Arena",47.6220922,-122.3540655,17100
"Clune Arena",39.0129067,-104.8868716,5508
"Coca-Cola Coliseum",43.6355627,-79.4150162,NA
"Coleman Coliseum",33.2030015,-87.5396982,13474
"College Park Center",32.7307397,-97.1083047,7000
"Colonial Life Arena",33.9948251,-81.0373021,18000
"Columbus Civic Center",32.450272,-84.987681,7259
"Comerica Center",33.1005971,-96.8199671,4500
"Compton Family Ice Arena",41.6938368,-86.230756,5022
"Conte Forum",42.3350211,-71.1676688,8606
"Corbin Arena",36.9133256,-84.1248884,4966
"Corbett Sports Center",36.0767222,-79.768805,5700
"Corteva Coliseum",39.8275926,-86.1350228,6800
"Coussoulis Arena",34.1827623,-117.3196399,4140
"Covelli Center",40.0138491,-83.0280145,3700
"Covelli Centre",41.0961627,-80.6479847,5700
"Credit Union 1 Arena",41.8748177,-87.6561838,8000
"Credit Union of Texas Event Center",33.1274167626235,-96.6548180580139,6200
"Crisler Center",42.2650033,-83.7466658,12707
"Cross Insurance Arena",43.6555241,-70.2592451,5327
"Cross Insurance Center",44.789092,-68.7791348,5800
"Crown Coliseum",35.0151654,-78.891728,8500
"Crypto.com Arena",34.0430587,-118.2672107,19079
"CU Events Center",40.004706,-105.2605248,11064
"Curb Event Center",36.1323032,-86.7946315,5000
"Curtis Culwell Center",32.9593006,-96.6419865,6800
"Dahlberg Arena",46.8638443,-113.983326,7322
"Davey L. Whitney Complex",31.8732482,-91.1332387,NA
"David R. Stopher Gym",29.7923417,-90.8013529,3800
"DCU Center",42.2649676,-71.7989641,12135
"Dean E. Smith Center",35.8994363,-79.0440078,21750
"Dee Events Center",41.1823281,-111.9450402,11500
"Dee Glen Smith Spectrum",41.7475984,-111.8119276,10270
"Delmar Fieldhouse",29.8027837,-95.4571664,5000
"Delta Center",40.7682811,-111.9012022,18175
"Denny Sanford Premier Center",43.5607554,-96.7516565,10678
"Denver Coliseum",39.7791355,-104.9707228,9340
"Desert Diamond Arena",33.531939,-112.2616902,17125
"Desert Financial Arena",33.424484,-111.9310606,14198
"Dickies Arena",32.7409071,-97.3698005,13300
"Dignity Health Arena",35.3719749,-119.0134549,8751
"D.L. Ligon Coliseum",33.8718587,-98.5197151,3640
"Donald L. Tucker Center",30.4376851,-84.2866588,11500
"Don Haskins Center",31.7773813,-106.5055257,11892
"Dort Federal Event Center",43.0109236,-83.6418021,4339
"Dow Event Center",43.4360194,-83.937006,4213
"Dunkin' Donuts Center",41.8236692,-71.4183426,NA
"Dunn-Oliver Acadome",32.3618202,-86.2930477,NA
"E.A. Diddle Arena",36.9862629,-86.457628,7523
"EagleBank Arena",38.8266574,-77.309525,7688
"Hooper Eblen Center",36.1784406,-85.5098963,7500
"Echols Hall",36.8476031,-76.2612748,4500
"Ector County Coliseum",31.8840123,-102.3869348,4725
"Ed and Rae Schollmaier Arena",32.7088236,-97.3666979,6800
"Ed Lumley Arena",45.0143766,-74.7233177,4828
"Ed Robson Arena",38.8460628,-104.8223718,3400
"Elam Center",36.3435534,-88.8680542,4300
"Ellis Davis Field House",32.6373421,-96.8422723,7500
"Ellis T. Johnson Arena",38.1903417,-83.4257877,6500
"Enmarket Arena",32.0740544,-81.1115351,6876
"Enterprise Center",38.6267951,-90.2026784,18096
"Erie Insurance Arena",42.1280126,-80.0809014,6500
"Events Center",42.0934995,-75.9718993,4421
"ExtraMile Arena",43.6036014,-116.1989379,12480
"F&M Bank Arena",36.5294462,-87.3602213,NA
"Fair Park Coliseum",32.7792981,-96.757219,5768
"Family Arena",38.7477493,-90.5092764,10000
"Fant-Ewing Coliseum",32.5310573,-92.0694315,NA
"Farris Center",35.0818484,-92.4594945,5500
"FedEx Forum",35.1381248,-90.0505972,18400
"Felix Event Center",34.1338047,-117.8833437,3500
"Felton J. Capel Arena",35.075799,-78.8957405,5000
"Ferrell Center",31.5479292,-97.1056008,10284
"Fertitta Center",29.724685,-95.3469837,7035
"F.G. Clark Activity Center",30.5217608,-91.1854076,7500
"Fifth Third Arena",39.1311672,-84.5141316,12012
"Findlay Toyota Center",34.5891633,-112.3361921,5100
"Finneran Pavilion",40.0340591,-75.3365082,6501
"First Bank & Trust Arena",44.3185096,-96.7787683,5000
"First Horizon Coliseum",36.0597852,-79.8256732,22000
"First Interstate Arena",45.800295,-108.477559,8700
"First Interstate Bank Center",44.2356504,-121.1839539,4000
"First National Bank Arena",35.8454216,-90.6704664,10038
"First United Bank Center",34.9809421,-101.9039869,4700
"Fiserv Forum",43.0451583,-87.917431,17341
"Fishers Event Center",39.9474538,-86.0036005,7500
"Fitzgerald Field House",40.4434851,-79.9641824,4122
"Fleet Farm Arena",42.4913558,-96.4072931,5800
"Florence Civic Center",34.1854648,-79.8377538,7526
"Fogelman Arena",29.9390935,-90.1207155,NA
"Food City Center",35.9511214,-83.9250219,21678
"Forbes Arena",33.7484809,-84.4170839,6000
"Ford Arena",30.0110135,-94.1796614,8500
"Ford Center",37.9719608,-87.5675905,8930
"Ford Idaho Center",43.6080375,-116.507982,12657
"Foster Auditorium",33.2077267,-87.5439334,3800
"Foster Pavilion",31.5562473,-97.121077,7500
"Fowler Events Center",33.926833,-117.4223572,5050
"Frank G. Lumpkin Jr. Center",32.5024509,-84.940179,4500
"Freedom Hall Civic Center",36.3243402,-82.3749948,6000
"Freeman Coliseum",29.4270603,-98.4394046,9000
"Frericks Center",39.7388745,-84.1790057,5000
"Frontwave Arena",33.2075872,-117.3147584,6190
"Frost Bank Center",29.4269831,-98.4374785,18418
"Gainbridge Fieldhouse",39.7639336363685,-86.1554503440857,17274
"Galen Center",34.0209817,-118.2798761,10258
"Gallagher-Iba Arena",36.1256913,-97.0650029,NA
"Gampel Pavilion",41.8052698,-72.2543979,10244
"Garrett Coliseum",32.4029865,-86.2712212,8500
"Gas South Arena",33.9914093,-84.0939796,9200
"Gateway Center Arena",33.6467689,-84.4597362,3500
"Gene Polisseni Center",43.0872489,-77.6819874,4000
"Gentile Arena",42.0004129,-87.6588821,4486
"Gentry Center",36.1690438,-86.829468,NA
"George Gervin GameAbove Center",42.2542281,-83.6473918,8754
"Georges-Vézina Centre",48.4197669,-71.0600639,NA
"Georgia State Convocation Center",33.7422867,-84.3882301,7300
"Georgia State Sports Arena",33.7515962,-84.3863323,3854
"Gersten Pavilion",33.9676772,-118.4156173,4156
"Gervais Auto Centre",46.5477122,-72.7450061,4350
"GFL Memorial Gardens",46.5135156,-84.3367624,4409
"Giant Center",40.2863108,-76.6689063,10500
"Gill Coliseum",44.5611203,-123.2804525,9604
"Global Credit Union Arena",33.5100819,-112.1289003,7000
"Golden1 Center",38.5808401,-121.4997553,17608
"Grand Casino Arena",44.9447691,-93.1012559,18300
"Great Southern Bank Arena",37.2020477,-93.2830882,11000
"Greenfield Central HS Gym",39.7917364,-85.7811327,4620
"Greensburg High School Gym",39.3413937,-85.4681657,5041
"Gregory Gym",30.2841963,-97.7364778,4000
"Greyhound Arena",34.1801662,-103.3514893,4800
"Groniger Arena",39.4804356,-88.1788552,4200
"Grossinger Motors Arena",40.4781374,-88.9961755,5667
"Gross Memorial Coliseum",38.8717317,-99.3483675,6814
"Gutterson Fieldhouse",44.4692895,-73.194201,4007
"GVSU Fieldhouse Arena",42.9669434,-85.8897615,4200
"Haas Pavilion",37.8693653,-122.2623611,11858
"Hagan Arena",39.9952379,-75.2347505,3800
"Halenbeck Hall",45.5475815,-94.1524887,6927
"Hammons Student Center",37.202193,-93.2844615,8846
"Hanner Fieldhouse",32.4277076,-81.7792332,4325
"Harding Mazzotti Arena",43.3081449,-73.6418027,NA
"Hart Center",42.2351148,-71.8060827,3536
"Halton Arena",35.3062301,-80.7344377,9105
"Health and Physical Education Arena",29.7229985,-95.365609,NA
"Health and Sports Center",40.7001541,-99.1001451,5100
"Hearnes Center",38.9342846,-92.3306251,13661
"Heartland Events Center",40.905475,-98.3298552,6000
"Heartland Credit Union Arena",37.8310469,-97.3313533,5000
"HEB Center at Cedar Park",30.5414031,-97.8201521,NA
"Herb Brooks Arena",44.284193,-73.9850932,7700
"Herb Brooks National Hockey Center",45.5467625,-94.1524136,5159
"Heritage Bank Center",39.0980278,-84.5043897,12823
"Hersheypark Arena",40.2881174,-76.6565734,7286
"Hertz Arena",26.4401242,-81.7786593,7181
"Hill Convocation Center",32.4063324,-81.7829837,5500
"Hilliard Center",27.8072326848586,-97.3934769630432,8100
"Hilton Coliseum",42.0209958,-93.6348224,14267
"Hinkle Fieldhouse",39.8436369,-86.1673863,9100
"Hirsch Coliseum",32.4766685,-93.7894034,4000
"Hitachi Energy Arena",36.9339301,-80.9894952,3650
"Hobdy Assembly Center",32.5203831,-92.7237458,7600
"Holmes Center",36.2104418,-81.6757,8325
"Honda Center",33.8076345,-117.876327,17732
"Hope Coliseum",39.6493191,-79.9815845,14000
"Houston Field House",42.7320485,-73.6694992,4780
"HPE Complex",32.5327489,-83.8975454,5500
"HPER Complex",33.5105515,-90.3409732,5000
"Huff Hall",40.1035321,-88.2327569,4536
"Hulman Center",39.4685101,-87.4050808,9000
"Humphrey Coliseum",33.4616772,-88.7940359,9100
"Huntington Center",41.6511022,-83.5367131,7389
"Huron Arena",44.3605213,-98.2165986,4848
"Hutchinson Sports Arena",38.065612,-97.9160465,6500
"ICCU Arena",46.7274439,-117.0174105,4200
"Ice Arena at The Monument",44.0870533,-103.2252324,5119
"Ice Box",40.8328641,-96.6973042,4212
"Idaho Central Arena",43.614248,-116.2043078,5006
"ImOn Ice Arena",41.9658484,-91.6885258,3733
"Ingalls Rink",41.3168355,-72.925036,3500
"INTRUST Bank Arena",37.6833618,-97.3319685,13302
"Intuit Dome",33.9437591,-118.3422231,17927
"Island Federal Credit Union Arena",40.917392,-73.1259978,NA
"Jack Stephens Center",34.7284312,-92.3406136,5600
"Jadwin Gymnasium",40.3433878,-74.6486449,6854
"James A. Rhodes Arena",41.0738436,-81.5084482,5500
"James Center Arena",32.4309631,-85.710327,NA
"James S. Trent Arena",39.6982884,-84.1662276,3650
"Jamestown Civic Center",46.9101124,-98.7048305,5269
"Jenison Field House",42.7308585,-84.4900292,4900
"Jenny Craig Pavilion",32.7744568,-117.1838021,5100
"Jersey Mike's Arena",40.5252541,-74.4412619,NA
"John A. Wilson Complex",35.6016273,-105.224331,4250
"John D. Millett Hall",39.5172348,-84.7345555,NA
"John Paul Jones Arena",38.0459619,-78.5065842,14623
"Johnson Center",35.0825157,-106.6182697,4800
"John Wooden Gymnasium",39.419927,-86.4104493,5500
"Jones Convocation Center",41.716525,-87.6083493,7000
"Jon M. Huntsman Center",40.7620404,-111.8387175,15000
"Kaplan Arena",37.2734595,-76.719667,8600
"Kaseya Arena",25.7813824,-80.1876211,19600
"Kay Yeager Coliseum",33.9157674,-98.4976118,6400
"KeyBank Center",42.8748241,-78.8763642,18690
"KFC Yum! Center",38.2577363,-85.7539129,22090
"Kia Center",28.5391587,-81.3839293,18486
"Kitchener Memorial Auditorium",43.4470539,-80.4676867,7131
"Knapp Center",41.6046452,-93.6522031,6424
"Knoxville Civic Coliseum",35.9654637,-83.9116538,4973
"Kohl Center",43.0693737,-89.3966317,16838
"Kolf Sports Center",44.0241669,-88.5519075,5600
"Kovalchick Complex",40.6143026,-79.1614591,5000
"Kress Events Center",44.5303496,-87.9162053,NA
"KSU Convocation Center",34.0369065,-84.5804438,4600
"Lakefront Arena",30.0301637,-90.0503933,8785
"Landers Center",34.9270467,-89.9962878,9000
"Landon Arena",39.0340258,-95.6860547,7773
"Langley Events Centre",49.1460503,-122.6661301,4922
"Laredo Energy Arena",27.5582755,-99.4525337,8665
"Lawlor Events Center",39.5450717,-119.8182786,11536
"Lawrence Joel Coliseum",36.1278145,-80.2575731,14665
"Lawson Arena",42.2758719,-85.6178069,3667
"LBS Pyramid",33.7874136,-118.1144536,4200
"Leavey Center",37.3491555,-121.9351691,4700
"LECOM Event Center",42.0885024,-76.8079565,3784
"Lee and Penny Anderson Arena",44.9398861,-93.1945855,5300
"Lee's Family Forum",36.0192976,-115.0814813,NA
"Legacy Arena",33.523848,-86.8129027,17654
"Legacy Center",30.1758088,-93.209563,4200
"Leo D. Mahoney Arena",41.1598416,-73.2566495,3500
"Leopold Drolet Sports Palace",45.4103968,-71.8834269,3707
"Liacouras Center",39.9798578,-75.1585221,10206
"Liberty First Credit Union Arena",41.2069755,-96.0269237,4000
"LionTree Arena",32.8852769,-117.23912,4000
"Little Caesars Arena",42.3411236,-83.05516,19515
"Littlejohn Coliseum",34.6803524,-82.8464734,9000
"Lloyd E. Scott Gym",38.9552784,-85.9070069,8228
"Lloyd Noble Center",35.1874267,-97.4442887,11562
"Lynah Rink",42.4457073,-76.4773644,4267
"M&T Bank Center",41.4138956,-72.9105521,NA
"Mabee Center",36.048032,-95.9558451,8781
"MacInnes Student Ice Arena",47.112479,-88.5457814,4466
"Mackey Arena",40.4333024,-86.9161034,14876
"Mack Sports Complex",40.7196644,-73.5968865,4712
"Maclellan Gym",35.0481975,-85.2998149,4177
"Macon Coliseum",32.8421959,-83.6196578,7182
"Madison Square Garden",40.7505569,-73.9934778,18006
"Magness Arena",39.6823627,-104.9617589,6026
"Maples Pavilion",37.429538,-122.1605229,7233
"Marriott Center",40.2540491,-111.6493106,17978
"Martire Family Arena",41.215974,-73.2539276,3600
"Martz Hall",40.6822144,-76.2125498,4100
"Massari Arena",38.3095168,-104.5756334,3900
"MassMutual Center",42.1021708,-72.5870132,6793
"Matthew Knight Arena",44.0446685,-123.0659831,12364
"Matthews Arena",42.3411713,-71.0845577,4757
"Maturi Pavilion",44.9772574,-93.228929,5840
"Maverik Center",40.7027487,-111.950469,10207
"Mayo Civic Center",44.0228778,-92.4597679,5200
"Mayo Clinic Health System Event Center",44.166283,-94.004463,4832
"McAlister Field House",32.7984852,-79.9625302,6000
"McAnally Center",39.6422201,-86.8425926,5280
"McCamish Pavilion",33.7806633,-84.3927885,8600
"McCarthey Athletic Center",47.6653801,-117.3992157,6000
"McCasland Field House",35.2081755,-97.4422844,4640
"McGonigle Hall",39.9806059,-75.1578408,3900
"McGuirk Arena",43.5815139,-84.7740591,5300
"McKale Center",32.2303687,-110.9460622,14688
"McKenzie Arena",35.0501651,-85.300802,10995
"McLeod Center",42.5141755,-92.4671495,6650
"Memorial Athletic and Convocation Center",41.1481732,-81.3440421,6327
"Memorial Coliseum",38.0394558,-84.5005059,7000
"Memorial Fieldhouse",47.2594126,-122.4812454,5400
"Memorial Gym",31.7756073,-106.5047237,5200
"Memorial Gymnasium",36.1445722,-86.8073666,14316
"Memorial Hall",40.599114,-75.5095898,3529
"Meridian Centre",43.1562166,-79.2440844,5300
"Michelob Ultra Arena",36.0906471,-115.1789743,12000
"Michigan City High School Gym",41.6778923,-86.8625871,7304
"Mid-America Center",41.2374743,-95.8903249,NA
"Minges Coliseum",35.5973724,-77.3670423,7100
"Minot State Dome",48.2481331,-101.3003826,6000
"Mississippi Coast Coliseum",30.3935653,-88.9744824,9150
"Mississippi Coliseum",32.3001017,-90.1719833,6812
"Mitchell Center",30.6922497,-88.1796169,10041
"Mizzou Arena",38.9324652,-92.3337365,15061
"Moby Arena",40.5755242,-105.0929726,8093
"M.O. Campbell Educational Center",29.9323853,-95.3599837,6400
"Moda Center",45.5315152,-122.6667309,19980
"Mohegan Arena",41.2405048,-75.8485472,7500
"Mohegan Sun Arena",41.4911324,-72.0897853,9323
"Monroe Civic Center",32.5025469,-92.1080051,5600
"Moody Center",30.2809536,-97.7306253,10763
"Mortgage Matchup Center",33.445963,-112.0711684,18422
"MTI Center",41.6306906,-85.0146639,3500
"Mullett Arena",33.4268666,-111.9285073,5000
"Mullins Center",42.3894476,-72.5334979,9493
"Multipurpose Building",38.7571705,-93.744117,6500
"Multipurpose Center",37.239938,-77.4250102,5200
"Municipal Auditorium",39.0978697,-94.5864111,9721
"Munn Ice Arena",42.728234,-84.4893158,6114
"Murphy Center",35.8523178,-86.3694799,11520
"MVP Arena",42.6484567,-73.7547183,15229
"Nassau Veterans Memorial Coliseum",40.7229006,-73.5906959,13917
"Nationwide Arena",39.9691036,-83.0058289,18500
"Neal S. Blaisdell Center",21.298951,-157.8512836,7775
"Neches Arena",30.0440583,-94.0707565,10080
"Neville Arena",32.6027774274405,-85.4925048351288,9121
"New Castle Fieldhouse",39.9113595,-85.3771905,7829
"Newman Arena",42.4458023,-76.4759911,3500
"Nicoson Hall",39.7088828,-86.1317826,4000
"NIU Convocation Center",41.9352637,-88.7855602,9100
"Norfolk Scope Arena",36.8532608,-76.286906,8701
"North Charleston Coliseum",32.8656383,-80.0222737,10537
"North Side Gymnasium",41.7017487,-85.9753366,7373
"NOW Arena",42.0693182,-88.2128871,10000
"Nutter Center",39.7818687,-84.0523946,10400
"Ocean Bank Convocation Center",25.7569764,-80.3796673,5000
"Ocean Center",29.2285084,-81.0110275,8020
"OceanFirst Bank Center",40.2794274,-74.0075004,4100
"O'Connell Center",29.6493278,-82.3510856,10151
"OG&E Coliseum",35.4694389,-97.5716132,4500
"Orleans Arena",36.1058611,-115.2021968,7051
"Oshkosh Arena",44.0070768,-88.5374933,3500
"OU Credit Union O’rena",42.6740588,-83.2129651,4000
"Owensboro Sportscenter",37.7626787,-87.1262223,4817
"Pacific Coliseum",49.2859411,-123.0428475,14958
"Pacific Steel & Recycling Arena",47.5144472,-111.3200856,5054
"Pan American Center",32.2840216,-106.7422199,12575
"Paoli Gymnasium",38.5498184,-86.4771039,4200
"Paramount Fine Foods Centre",43.6319752,-79.6537864,5311
"Paul E. Tsongas Center",42.6503112,-71.3132751,NA
"Pauley Pavilion",34.0703291,-118.4469134,13800
"Paycom Center",35.4634663,-97.5150669,18203
"Pechanga Arena",32.7552673,-117.2121692,12920
"Pegula Ice Arena",40.8065739,-77.857039,5704
"Pelham Civic Complex",33.3293516,-86.7891269,4000
"Pensacola Bay Center",30.4163425,-87.2088826,8150
"PeoplesBank Arena",41.768395,-72.6769586,15635
"Pete Hanna Center",33.4638164,-86.7971179,5000
"Pete Maravich Assembly Center",30.414233,-91.1844849,13215
"Pete Mathews Coliseum",33.8241206,-85.7734878,3500
"Peterborough Memorial Centre",44.288542,-78.3156163,3694
"Petersen Events Center",40.4437872,-79.962337,12508
"Physical Education Complex",39.3152502,-76.6572332,4100
"Pinnacle Bank Arena",40.8179584,-96.712625,15000
"Pioneer Cellular Event Center",35.5348411,-98.7109566,3500
"PNG Field",35.8033005,-78.7217188,7210
"PPG Paints Arena",40.4395984,-79.9894381,18187
"PPL Center",40.6025248,-75.4727054,8420
"Progressive Auto Sales Arena",42.9773449,-82.3477221,4118
"Propst Arena",34.7266413,-86.5902366,6000
"Provident Credit Union Event Center",37.3353608,-121.8797761,5000
"Prudential Center",40.7336979,-74.1712546,17625
"Purcell Pavilion",41.6979385,-86.2313247,9149
"Qubein Center",35.9785835,-79.996547,4500
"Racer Arena",36.614533,-88.3205938,5500
"Raising Cane’s River Center",30.4449107,-91.189391,8167
"Ramsey Center",35.3036648,-83.182286,7826
"Rec Hall",40.7959794,-77.8693181,5812
"Recreation Athletic Facility",44.4540091,-95.7618356,4000
"Reed Arena",30.6058377,-96.3462299,12989
"Reed Green Coliseum",31.3310862,-89.3378807,8095
"Reese Court",47.491174,-117.5892448,5000
"Reilly Center",42.0794402,-78.4850514,4850
"Renaissance Coliseum",40.6992024,-89.6178013,4200
"Resch Center",44.5000714,-88.0550122,8384
"Reynolds Center",36.148878,-95.9422302,8355
"Reynolds Coliseum",35.7835502,-78.6698395,5500
"Rick Case Arena",26.0779756,-80.2439851,4500
"Robins Center",37.5806581,-77.5388646,7201
"Rocket Arena",41.4963881,-81.6880918,19432
"Rogers Arena",49.2778427,-123.108716,18865
"RP Funding Center",28.0404766,-81.963345,4872
"Rupp Arena",38.0494091,-84.5025229,20500
"Ryan Center",41.4876846,-71.535759,8000
"Sadlon Arena",44.3389820687875,-79.6779584884644,4195
"Salem Civic Center",37.2854196,-80.0393164,5000
"Sanford Center",47.463256,-94.8535752,4373
"Sanford Coyote Sports Center",42.7901809,-96.9278133,6003
"Santander Arena",40.334752,-75.9231019,7200
"SAP Center",37.3326993,-121.9012284,17562
"Savage Arena",41.6601363,-83.6098623,7014
"Save Mart Center",36.8096926,-119.7385365,15596
"Save-On-Foods Memorial Centre",48.4316423,-123.3605754,NA
"Schar Center",36.107942,-79.5108683,5100
"Scheels Arena",46.835367,-96.8752313,4000
"Scheels Center",46.9003461,-96.7987293,5460
"SECU Arena",39.3874032,-76.6171047,5200
"Selland Arena",36.7329428,-119.7826749,8317
"Sevier Valley Center",38.7661555,-112.0980334,4144
"ShoWare Center",47.3874691,-122.2399378,6150
"Show Me Center",37.3199276,-89.5274269,7000
"Silver Spurs Arena",28.2988365,-81.3690941,8000
"Simmons Bank Arena",34.7551046,-92.2643584,18000
"SIU Arena",37.7083207,-89.2186618,8284
"SJB Pavilion at Ole Miss",34.362701,-89.5359457,9500
"Slater Family Ice Arena",41.3790385685742,-83.6279082298279,5000
"Sleeman Centre",43.5466896,-80.2465762,4715
"Slush Puppie Centre",45.4833918,-75.6803356,4628
"Slush Puppie Place",44.2333157,-76.479671,5522
"Smith Fieldhouse",40.2474,-111.6547716,5000
"Smoothie King Center",29.9490409,-90.0820112,16211
"SNHU Arena",42.9865359,-71.4616013,10019
"Sojka Pavilion",40.9569073,-76.8869752,4000
"Southport Fieldhouse",39.6713936,-86.1412617,7124
"Southwest Motors Events Center",38.2498942,-104.6425717,5242
"Spectrum Center",35.2249291,-80.8391619,17500
"Spokane Arena",47.666146,-117.4228299,10366
"Stabler Arena",40.5852861,-75.3573811,5600
"Stan Sheriff Center",21.2942727,-157.8188075,10300
"State Farm Arena",33.7570732,-84.3962002,16888
"State Farm Center",40.0962199,-88.2358897,15544
"State Farm Field House",28.3373189,-81.5571409,5000
"Stegeman Coliseum",33.942817,-83.3780551,10523
"Stephens Arena",31.4371859,-100.4580939,5500
"Steve Cady Arena",39.5037344,-84.7369587,3642
"St. Joseph Civic Arena",39.7669969,-94.8560908,3800
"Strahan Arena",29.8885553,-97.9326761,10000
"Stroh Center",41.3750615,-83.626256,4347
"Stuart C. Siegel Center",37.5529729,-77.4529374,NA
"Sudbury Community Arena",46.488698,-80.992595,4854
"Suncoast Credit Union Arena",26.5478019,-81.8868394,3500
"Sun Life Financial Coliseum",48.4414723,-68.5204625,3778
"Taffy Abel Arena",46.4896915,-84.3659985,4000
"Tahoe Blue Event Center",38.9628877,-119.9383541,3898
"Talmadge Hill Field House",39.3423629,-76.5854251,NA
"Target Center",44.9794848,-93.2762325,18798
"Taylor Center",44.1456118,-93.9956546,4521
"TD Arena",32.787725,-79.9343392,5100
"TD Coliseum",43.2592059,-79.8723329,18000
"TD Garden",42.3662019,-71.0621989,17850
"TD Place Arena",45.3988794,-75.6840098,9862
"Tech CU Arena",37.3185804,-121.8635254,4200
"The Complex",30.8459238,-83.2941663,5350
"The Palestra",39.9513983,-75.1887238,8722
"The Pit",35.066702,-106.6320133,15411
"The Super Pit",33.2085852,-97.1541381,10500
"Thomas & Mack Center",36.1049336,-115.144186,18000
"Thomas Assembly Center",32.532084,-92.658568,8000
"Thompson Arena",43.7009854,-72.2802008,3500
"Thunderdome",34.4137828,-119.8513502,6000
"Tiger Arena",32.0237774,-81.0658514,6000
"Tingley Coliseum",35.0824029,-106.5726435,9286
"Titan Gym",33.8818862,-117.8854359,4000
"T-Mobile Arena",36.1023808,-115.1776278,17500
"T-Mobile Center",39.0972286,-94.5799255,18630
"Tom Drake Coliseum",34.0720532,-86.788972,5080
"Tony’s Pizza Event Center",38.8346182,-97.5994706,4965
"Torodome",33.8591058,-118.2597917,4200
"Total Mortgage Arena",41.1732434,-73.1869483,8412
"Town Toyota Center",47.4429137,-120.3220081,4300
"Toyota Arena",34.0729774,-117.5662315,9491
"Trask Coliseum",34.2249855,-77.8783894,5122
"Tribute Communities Centre",43.8970342,-78.8591444,5180
"Trinity Health Arena",43.2346982,-86.2554163,3500
"Trojan Arena",31.802309,-85.9524608,5200
"Truist Arena",39.0320193651362,-84.4591569900513,8427
"Tucker Coliseum",35.295228,-93.1323481,3500
"Tucson Arena",32.2186286,-110.9736675,6521
"Tudor Fieldhouse",29.715181,-95.4037715,5208
"Turner Arena",36.5780583,-83.6645365,5009
"UBS Arena",40.7117724,-73.7261042,17255
"UCCU Center",40.2786581,-111.717031,8500
"UCU Pavilion",37.8407626,-122.1123612,3500
"UNF Arena",30.2734626,-81.5079225,5400
"UNG Convocation Center",34.5260404,-83.9856184,3600
"University Credit Union Center",38.5339374,-121.7647737,6003
"UPMC Events Center",40.5202718,-80.2148565,4000
"United Center",41.8804894,-87.6739883,19717
"United Supermarkets Arena",33.5812951,-101.886574,15098
"United Wireless Arena",37.766313,-100.0626505,4050
"University Arena",42.2833614,-85.6086498,5421
"University Center",30.5201249,-90.4731095,7500
"University of Dayton Arena",39.7355082,-84.1996051,NA
"UPMC Cooper Fieldhouse",40.4374417,-79.9879218,3500
"Upstate Medical Arena",43.0448368,-76.1481607,6150
"Harrah's Cherokee Center",35.597285,-82.555266,NA
"USA Hockey Arena",42.3893049,-83.5063612,3504
"UW Field House",43.0686056,-89.4126391,10600
"UWM Panther Arena",43.0422963,-87.9169214,9450
"Value City Arena",40.007689,-83.0251408,NA
"Van Andel Arena",42.962386,-85.6715584,10834
"Van Noord Arena",42.9334114,-85.588587,5000
"Verdun Auditorium",45.4625217,-73.5617869,3500
"Viaero Center",40.6668416,-99.0924525,4745
"Vibrant Arena",41.5079586,-90.520488,9000
"Videotron Centre",46.8289959,-71.2478828,18259
"Videotron Coliseum",46.3226675,-72.5917864,4500
"Viejas Arena",32.7737802,-117.0745611,12414
"Visions Veterans Memorial Arena",42.0954521,-75.9131134,4897
"VyStar Veterans Memorial Arena",30.325749,-81.6447688,12609
"Wachs Arena",45.449775,-98.480469,8000
"Watertown Civic Arena",44.9032619,-97.097683,4500
"Watsco Center",25.7153414827706,-80.2794599533081,7972
"Wellness and Events Center",40.7422519,-74.1805083,3500
"Welsh-Ryan Arena",42.0669051,-87.6923991,NA
"WesBanco Arena",40.0647874,-80.7245779,4700
"Western Hall",40.4714612,-90.6851649,5139
"WFCU Centre",42.3192008,-82.9277658,6450
"W.G. Thomas Coliseum",32.8080014,-97.2543367,5000
"White Auditorium",38.4189793,-96.1797614,5000
"Whittemore Center",43.1391602,-70.9335172,6501
"Williams Arena",44.9768324,-93.2279527,14625
"Williams Athletics and Assembly Center",32.3044637,-90.2106071,8000
"William Nicks Building",30.0922387,-95.9930849,4000
"William R Johnson Coliseum",31.6222333,-94.6408224,7203
"Wilkerson-Greines Activity Center",32.6691794,-97.2830451,NA
"Wilson Logistics Arena",37.252594,-93.2988298,4500
"Winfield Dunn Center",36.5362606,-87.3565569,7257
"Wings Event Center",42.253696,-85.5353665,5113
"Winthrop Coliseum",34.9481201,-81.0149324,6100
"Wintrust Arena",41.853564,-87.6216853,10387
"Wolstein Center",41.499072,-81.6767943,13610
"Worthen Arena",40.2070494,-85.4062021,11500
"Worthington Arena",45.6631117,-111.0504484,6772
"Yakima Valley SunDome",46.5890912,-120.486449,5549
"Xfinity Center",38.9954232,-76.941526,17950
"Xfinity Mobile Arena",39.9012263,-75.172019,19600
"Yost Ice Arena",42.2675042,-83.7409365,5800
"Yuengling Center",28.0592185,-82.4064624,10411
"Xtream Arena",41.6814242,-91.5621046,5100
"7 17 Credit Union Park",41.0782756,-81.5222025,7630
"7 17 Credit Union Field at Eastwood",41.2190981,-80.7549298,NA
"AdventHealth Stadium",34.2860932,-85.1671207,5105
"AirHogs Stadium",32.7683314,-96.9857597,NA
"Allie P. Reynolds Stadium",36.128915,-97.0634258,NA
"Alex Box Stadium",30.4064143970667,-91.1877679824829,10326
"Alex Rodriguez Park",25.7119582431429,-80.2823781967163,3552
"American Family Field",43.0279766,-87.9710054,41900
"American Family Fields of Phoenix",33.4924841,-112.1718907,8000
"Angel Stadium",33.80011911754,-117.882957458496,45447
"Arm & Hammer Park",40.2028049,-74.760536,NA
"Arsenal BG Ballpark",38.5655659,-90.1358914,NA
"Arthur W. Perdue Stadium",38.369849,-75.5291176,5200
"Arvest Ballpark",36.1600183,-94.1939557,6500
"Atrium Health Ballpark",35.4983732,-80.6273182,4930
"AutoZone Park",35.1430204,-90.0488806,13480
"Avista Stadium",47.6611242,-117.3440695,6752
"Bailey-Brayton Field",46.7352724,-117.1553171,NA
"Bank of the James Stadium",37.3932605,-79.1654849,4281
"Banner Island Ballpark",37.954942,-121.2972379,5200
"Baum-Walker Stadium",36.0497409,-94.1822076,NA
"BayCare Ballpark",27.971729,-82.731412,7000
"Baylor Ballpark",31.5515224,-97.1076876,4000
"Beiden Field",36.8133047,-119.7553861,NA
"Blue Bell Park",30.6060178,-96.3412947,6100
"Blue Wahoos Stadium",30.4041011,-87.2178841,5038
"Boshamer Stadium",35.9056936,-79.0431493,4100
"Bosse Field",37.9929709,-87.5627089,5110
"Bowling Green Ballpark",36.9969146,-86.440553,4559
"Brooks Field",34.2219474,-77.8732125,3500
"Busch Stadium",38.6226712,-90.192368,45529
"Bush Field",41.308922,-72.9590786,5000
"CACTI Park of the Palm Beaches",26.7561011,-80.1166713,6500
"Camelback Ranch",33.5137226,-112.2955728,10500
"Campanelli Stadium",42.0692944,-71.0418676,4750
"Canac Stadium",46.8178006,-71.2338817,4300
"CarMax Park",37.5698208,-77.4652326,7200
"CaroMont Health Park",35.2629617,-81.1944741,5000
"CarShield Field",38.8201084,-90.6797898,4989
"Cashman Field",36.1800254,-115.1295197,9334
"Centennial Field",44.4819862,-73.1876564,4415
"Charles Hawkins Field",36.1434632,-86.807152,3626
"Charles Schwab Field Omaha",41.2666464,-95.9312654,24000
"Charlotte Sports Park",26.9992991,-82.1813715,6000
"Chase Field",33.4458377,-112.0666838,48686
"Cheney Stadium",47.2384816,-122.4971724,6800
"Chickasaw Bricktown Ballpark",35.4652489,-97.5074816,13066
"CHS Field",44.9507831,-93.0837893,7000
"Chukchansi Park",36.7319627,-119.7900295,10650
"Citi Field",40.7573026,-73.8456774,41922
"Citizens Bank Park",39.9063291,-75.16644,43035
"Clark-LeClair Stadium",35.5933674,-77.3673382,NA
"Classic Park",41.6411768,-81.4356423,6940
"Clover Park",27.3255962,-80.404467,7160
"Clover Stadium",41.1693346,-74.0386999,4500
"Coca-Cola Field",42.8800368,-78.8736337,NA
"Coca-Cola Park",40.6261271,-75.452299,NA
"Comerica Park",42.3388556,-83.0484008,41083
"Condron Family Ballpark",29.6489368,-82.3529614,4700
"Constellation Field",29.622331,-95.646522,7500
"Coolray Field",34.0404183,-83.9919806,7777
"CoolToday Park",27.0325507,-82.3198595,6200
"Coors Field",39.7565439,-104.9939668,50398
"Copeland Park",43.8367556,-91.2505424,3550
"Covenant Health Park",35.9724015,-83.9148934,7000
"Crutcher Scott Field",32.4727945,-99.7067749,4000
"Dabos Park",32.3824712,-86.3105679,6000
"Daikin Park",29.7571313,-95.3554273,41168
"Dan Law Field",33.5884186,-101.876564,4432
"Danville Stadium",40.1100395,-87.631309,4500
"Darryl & Lori Schroeder Park",29.7269211,-95.3450954,3500
"David F. Couch Ballpark",36.1301195,-80.2516723,3823
"Day Air Ballpark",39.7643214,-84.1847134,6831
"Dell Diamond",30.5279945,-97.6298332,8631
"Devon Park",35.5247443,-97.463994,NA
"Dickey-Stephens Park",34.754968,-92.272228,NA
"Dick Howser Stadium",30.4410521,-84.303503,6700
"Disharoon Park",38.0457508,-78.5131287,5919
"Dobbins Stadium",38.5415909,-121.7578804,3500
"Dodd Stadium",41.5734142,-72.1070051,6270
"Dodger Stadium",34.0740261,-118.2398629,56000
"Doug Kingsmore Stadium",34.6785174,-82.8493594,6272
"Dow Diamond",43.6089697,-84.2360616,3500
"Dozer Park",40.6877487,-89.5973897,7500
"Dudy Noble Field",33.4632525,-88.7937731,15000
"Duly Health and Care Field",41.5259934,-88.077457,6229
"Dunkin' Donuts Park",41.7716758,-72.6746356,NA
"Dunn Field",42.0797747,-76.7803573,4486
"Durham Bulls Athletic Park",35.9916448,-78.9038085,10000
"East Field",43.3161701,-73.6271739,7000
"Eck Stadium",37.7222735,-97.2876048,8153
"Edinburg Baseball Stadium",26.3126126,-98.1752872,NA
"Ed Smith Stadium",27.3474119,-82.5168085,7428
"Equity Bank Park",37.6818586,-97.3449621,7000
"Erlanger Park",35.0282815,-85.3194287,8032
"ESL Ballpark",43.1584237,-77.6189446,10840
"Excite Ballpark",37.3200727,-121.8625402,5200
"Fenway Park",42.3465319,-71.0972284,37731
"Fifth Third Field",41.6486411,-83.5380435,8943
"Fifth Third Park",34.9453882,-81.9358505,3500
"FirstEnergy Stadium",40.365659,-75.9335089,9000
"First Horizon Park",36.17282,-86.7848897,8500
"First National Bank Field",36.0767308,-79.7945595,5820
"Fiscalini Field",34.1348791,-117.2631741,3600
"Five County Stadium",35.8175261,-78.2698631,6500
"Fluor Field",34.8425669,-82.4078894,5700
"FNB Field",40.2559078,-76.8899095,6187
"Foster Field",31.4361789,-100.4532552,4200
"Founders Park",33.9863832,-81.0426234,6400
"Four Winds Field",41.670724,-86.2549871,5000
"Fox Cities Stadium",44.2836534,-88.4683513,5900
"Franklin Properties Ballpark",40.765559,-73.1925219,NA
"Fraser Field",42.4740832,-70.9539878,3804
"Frawley Stadium",39.732802,-75.5642867,6404
"Funko Field",47.96681,-122.2022473,3682
"Gesa Stadium",46.2658532,-119.1720378,3700
"Globe Life Field",32.7476878,-97.0840465,40300
"GCU Ballpark",33.5124703,-112.1334547,4000
"GoMart Park",38.3490356844892,-81.6251242160797,4500
"Goodwin Field",33.8872057,-117.8853446,3500
"Goodyear Ballpark",33.4293551,-112.389729,8500
"Goss Stadium",44.5629484,-123.2772544,3587
"Grainger Stadium",35.2702368,-77.5740337,3500
"Great American Ball Park",39.0970536,-84.5063209,42319
"Greater Nevada Field",39.5290197,-119.8079467,9013
"Hadlock Field",43.6571531,-70.2780604,7368
"Hammond Stadium",26.5383674,-81.8415999,9300
"Harbor Park",36.8424173,-76.2785697,11856
"Harry Grove Stadium",39.4012329,-77.4130796,5400
"Haymarket Park",40.822903,-96.7131615,4500
"Heritage Financial Park",41.5279293,-73.9600681,4494
"Hi Corbett Field",32.2126195,-110.9199965,9000
"Hillsboro Ballpark",45.5542156,-122.9086232,4700
"Hinchliffe Stadium",40.9183621,-74.1814112,10000
"Hodgetown",35.2053852,-101.831701,7000
"Hohokam Stadium",33.4388995,-111.8292171,7400
"HomeTrust Park",35.5870992,-82.5491237,NA
"Hoover Metropolitan Stadium",33.3383894,-86.8492305,10800
"Huntington Park",39.9684788,-83.0108069,10100
"Impact Field",41.9768482,-87.871694,6300
"Isotopes Park",35.0699335,-106.628859,11124
"Jackson Baseball Stadium",35.6790344,-88.769542,6000
"Jackson Field",42.7353504,-84.5455992,7300
"Jack Kaiser Stadium",40.7237219,-73.7912232,3500
"Jackie Robinson Ballpark",29.2101535,-81.0162091,4200
"Jerry Uht Park",42.127384,-80.0801074,NA
"JetBlue Park",26.5513245,-81.7616593,10823
"Jim Patterson Stadium",38.2057967,-85.7620883,4000
"Joker Marchant Stadium",28.0748581,-81.9505942,8500
"Joseph L. Bruno Stadium",42.6958892,-73.6796165,4500
"Joseph P. Riley, Jr. Park",32.7901698,-79.9614411,5549
"Kauffman Stadium",39.0517018,-94.4802332,37903
"Keesler Federal Park",30.3953562,-88.8930309,5000
"Kino Veterans Memorial Stadium",32.1768185,-110.9333404,8000
"Labatt Park",42.9835928,-81.258198,5200
"Las Vegas Ballpark",36.1529489,-115.3298832,8000
"LECOM Field",27.4858593,-82.5701415,NA
"LeLacheur Park",42.6539252,-71.3175881,4767
"Les Murakami Stadium",21.2929431,-157.815814,4312
"Lewis & Clark Park",42.443625,-96.3634658,3800
"Lindquist Field",41.2243838,-111.9748235,6700
"Lindsey Nelson Stadium",35.9488285,-83.9294314,8012
"LMCU Ballpark",43.0408692,-85.6591987,7696
"loanDepot Park",25.7777885,-80.2192712,36742
"LoanMart Field",34.1031166,-117.5473487,6588
"Louisville Slugger Field",38.2567928,-85.7444823,11522
"L.P. Franz Stadium",35.7493596,-81.3784361,NA
"Lupton Stadium",32.7024771,-97.3719978,4500
"Luther Williams Field",32.829332,-83.6140627,3500
"Mahaney Diamond",44.9051541,-68.6701941,4400
"Maimonides Park",40.5741308,-73.983634,7500
"Marion Stadium",37.7475982,-88.9624277,3500
"Medlar Field at Lubrano Park",40.8122502,-77.8513098,5406
"Meritus Park",39.6398638,-77.7246969,4023
"M.L. Tigue Moore Field",30.2130546,-92.0416546,6015
"Modern Woodmen Field",37.6219648,-121.0007358,NA
"Modern Woodman Park",41.5183142,-90.5815994,4024
"Momentum Bank Ballpark",31.9870304,-102.1551597,4709
"Mulcahy Stadium",61.2051805,-149.8776769,3500
"Muzzy Field",41.6735409,-72.9599959,4900
"Nat Bailey Stadium",49.242399,-123.1068063,5132
"Nationals Park",38.8733104,-77.0073259,41546
"NelsonCorp Field",41.8490247664733,-90.1852011680603,4000
"Nelson Wolff Municipal Stadium",29.4087781,-98.60075,6200
"NBT Bank Stadium",43.0796481,-76.1653912,11071
"Nettleton Stadium",39.7304092,-121.8535924,4200
"New Britain Stadium",41.6489136,-72.7752721,6146
"Newman Outdoor Field",46.8987875,-96.8036699,4513
"Northeast Delta Dental Stadium",42.981709,-71.4659894,NA
"Northwestern Medicine Field",41.8805772,-88.2817822,7400
"NYSEG Stadium",42.1032613,-75.9048199,NA
"Oakland Coliseum",37.7515627,-122.2006077,63000
"O’Brate Stadium",36.1310502,-97.0687916,3500
"Ogren Park at Allegiance Field",46.8739813,-114.0065646,3500
"ONEOK Field",36.1597845,-95.9877419,7833
"ONT Field",34.0179272,-117.6036004,4500
"Oracle Park",37.778364,-122.3888969,41915
"Oriole Park at Camden Yards",39.2840828,-76.6214632,45971
"Ottawa Stadium",45.4202815,-75.6532145,10332
"Parkview Field",41.0746037,-85.1424551,6516
"Paterson Field",32.3821179,-86.290977,7000
"Pelicans Ballpark",33.7110607,-78.8841748,4800
"Penn Medicine Park",40.0489795,-76.3111424,6000
"Peoples Natural Gas Field",40.4734525,-78.3946394,NA
"Petco Park",32.7079209,-117.157023,40209
"Pete Taylor Park",31.3335789,-89.3379235,3434
"Phil Welch Stadium",39.7381813,-94.8267102,3600
"Phoenix Municipal Stadium",33.4494543,-111.9543421,5300
"PK Park",44.0589261,-123.0652427,4000
"Plainsman Park",32.5996051,-85.4895436,4096
"Polar Park",42.2571971,-71.8010943,6000
"PNC Field",41.3607374,-75.6836021,7115
"PNC Park",40.4467348,-80.0051773,38362
"Prince George’s Stadium",38.9460342,-76.7090319,10000
"Principal Park",41.5804369,-93.6157893,11500
"Progressive Field",41.496163,-81.6851734,35031
"Raimondi Park",37.8159402,-122.2937988,4000
"Rate Field",41.8295453,-87.6334763,40615
"Reckling Park",29.7131544,-95.4040611,6193
"Regency Furniture Stadium",38.5621936,-76.9026017,4200
"Regions Field",33.5074876,-86.810317,7017
"Rickwood Field",33.5020483,-86.8555712,10000
"Riders Field",33.0985703,-96.819511,7600
"Ripken Stadium",39.5306829,-76.1849069,5800
"Riverfront Stadium",42.5112098,-92.3532844,5000
"Robin Roberts Stadium",39.8176343,-89.6356273,5200
"Roger Dean Stadium",26.8912151,-80.116092,6600
"Rogers Centre",43.6413706,-79.389267,39150
"Route 66 Stadium",37.2117036,-93.2791936,NA
"Salem Memorial Ballpark",37.284997,-80.036602,6300
"Sal Maglie Stadium",43.1003248,-79.0258008,4000
"Salt River Fields at Talking Stick",33.5455438,-111.8844867,7000
"Sam Suplizio Field",39.0761263,-108.5498409,6949
"San Manuel Stadium",34.0979017,-117.29491,5000
"Sargent’s Stadium at the Point",40.3288143,-78.9247191,7500
"Scottsdale Stadium",33.4892093,-111.920321,8188
"Segra Park",34.0196033,-81.0325384,7501
"Segra Stadium",35.0554458,-78.8833931,5290
"Sewell-Thomas Stadium",33.2045455,-87.5385475,NA
"ShoreTown Ballpark",40.0754608,-74.1864896,6588
"Sioux Falls Stadium",43.5592938,-96.7483413,4462
"SIUH Community Park",40.6458207,-74.0763213,7171
"Skylands Stadium",41.1268232,-74.7123849,4200
"Sloan Park",33.4315756,-111.8815577,10800
"Southwest University Park",31.7592523,-106.4924526,7500
"ForeFront Field",41.4600959,-82.0610261,NA
"SRP Park",33.4849143,-81.9761288,4782
"Stanky Field",30.6917884,-88.1842303,3775
"Steinbrenner Field",27.9803703,-82.5062191,11000
"Surprise Stadium",33.6281455,-112.3777235,7500
"Sutter Health Park",38.5807817,-121.5133381,11448
"Swayze Field",34.3624575,-89.528634,11477
"Synovus Park",32.4523539,-84.9912392,5500
"Target Field",44.9817387,-93.2772517,38885
"TD Ballpark",28.0034767,-82.7864134,5509
"TD Bank Ballpark",40.5604956,-74.5527934,6100
"Tempe Diablo Stadium",33.4013696,-111.9698453,7015
"The Ballpark at America First Square",40.5494645,-112.0224363,6500
"The Corn Crib",40.5338532,-89.0035594,4200
"The Diamond",33.6545395,-117.3017979,6066
"Thomas More Stadium",38.9824808,-84.6381569,4500
"T-Mobile Park",47.5915563,-122.3319697,47898
"Trois-Rivieres Stadium",46.3482162,-72.5565863,NA
"Tropicana Field",27.768166,-82.6534573,25114
"Truist Field",35.2284348,-80.8483136,10200
"Truist Park",33.8907196,-84.4677437,41149
"Truist Point",35.958906,-80.0114466,3900
"Trustmark Park",32.2742161,-90.147264,8480
"Turchin Stadium",29.9462985,-90.1155764,5000
"Turtle Creek Stadium",44.682233,-85.6599069,3518
"UFCU Disch-Falk Field",30.2797677,-97.7260441,NA
"U.S. Steel Yard",41.6030165,-87.3314434,6139
"Victory Field",39.7649232,-86.1683679,12230
"Vincent-Beck Stadium",30.0343901,-94.0745759,NA
"Virginia Credit Union Stadium",38.3173733,-77.5106093,5000
"Volcanoes Stadium",45.0155826,-122.9926085,4254
"VyStar Ballpark",30.3251564,-81.64258,10000
"Wade Stadium",46.7537846,-92.1439005,4200
"Warner Park",43.1306574,-89.3673956,6750
"WellSpan Park",39.9683225,-76.7281079,5200
"Werner Park",41.1520086,-96.106081,9023
"Whataburger Field",27.8098424,-97.3990452,5050
"Wilson Ballpark",35.721127,-77.9149521,3700
"Wintrust Field",41.9933165,-88.1176364,6465
"Wrigley Field",41.9481999,-87.6552773,41160
"Yankee Stadium",40.8294871,-73.9260149,47422
"Yogi Berra Stadium",40.8692293,-74.195137,3784
"Abbott Memorial Alumni Stadium",32.4248731,-85.705322,10000
"Acrisure Stadium",40.4467593,-80.0157881,68400
"Acrisure Bounce House",28.6082414,-81.1925805,44206
"Aggie Memorial Stadium",32.2796496,-106.7411041,28853
"A.J. McClung Memorial Stadium",32.4515487,-84.9849022,NA
"Alamodome",29.4168343,-98.4787631,62834
"Albertsons Stadium",43.6029101,-116.195891,32796
"Alerus Center",47.9106179849019,-97.0913529396057,12283
"Alex G. Spanos Stadium",35.2984767,-120.6650519,11075
"Alfond Stadium",44.9052073,-68.6716855,10000
"Alexander Stadium",40.1626842,-84.210067,8200
"Allegacy Stadium",36.1306351,-80.2546066,31500
"Allegiant Stadium",36.0908015,-115.1833585,65000
"Allen E. Paulson Stadium",32.4122026,-81.7831278,25000
"Allianz Field",44.952903,-93.1651008,19400
"Alumni Stadium",42.3351519,-71.166333,44500
"Alumni Stadium",42.3351519,-71.166333,8500
"America First Field",40.582858,-111.8933594,20000
"American Legion Memorial Stadium",35.2182079,-80.8282004,NA
"AmFirst Stadium",33.8203193,-85.766337,22500
"Amon G. Carter Stadium",32.7096813,-97.3681355,46000
"Andy Kerr Stadium",42.8165114,-75.5457688,10221
"Arizona Stadium",32.2288939,-110.9488302,50800
"Arlin Field",40.7648933,-82.5507292,14000
"Armstrong Stadium",37.0205351,-76.333598,9000
"Arrowhead Stadium",39.0488689,-94.4839239,76416
"Arthur Ashe Stadium",40.7498579,-73.8470131,23771
"ASU Stadium",32.3642489,-86.2897861,26500
"Astound Broadband Stadium",31.9892081,-102.1539512,15000
"AT&T Stadium",32.7478322,-97.0928122,85000
"Atwood Stadium",43.0168436,-83.7018267,11000
"Audi Field",38.8688416,-77.0128942,20000
"Autzen Stadium",44.058263,-123.0684937,54000
"A.W. Mumford Stadium",30.5220104,-91.1895062,25500
"Bain-Schaeffer Buffalo Stadium",34.9865807,-101.913584,NA
"Bakersfield Memorial Stadium",35.4093583,-118.9694651,20000
"Bank of America Stadium",35.2257793,-80.8528519,74867
"Bazemore-Hyder Stadium",30.8459652,-83.2839847,NA
"BC Place",49.2767368,-123.1119347,54500
"Beaver Stadium",40.8122258,-77.8561324,106572
"Ben Hill Griffin Stadium",29.6498315,-82.3485804,88548
"Bill Snyder Family Stadium",39.2020382,-96.5938488,50000
"BMO Field",43.6331866,-79.4185889,30000
"BMO Stadium",34.0127514,-118.2845968,22000
"Bobby Dodd Stadium",33.7724766,-84.3928958,51913
"Bobcat Stadium",45.6589125,-111.0494399,17777
"Boone Pickens Stadium",36.1257,-97.0665801,52314
"Bowman Gray Stadium",36.0826834,-80.2220285,15000
"Brady Street Stadium",41.55577,-90.5671048,10000
"Bragg Memorial Stadium",30.426043,-84.2917764,19633
"Braly Municipal Stadium",34.8107467,-87.6705874,14215
"Bridgeforth Stadium",38.4352284,-78.8729525,24877
"Brooks Stadium",33.7928616,-79.0174592,20000
"Brown Stadium",41.8421753,-71.3943529,20000
"Bryant-Denny Stadium",33.2077413,-87.5504833,NA
"B.T. Harvey Stadium",33.745771,-84.4161238,9000
"Caesars Superdome",29.9509373,-90.0811958,73208
"Cajun Field",30.2158638,-92.041719,NA
"California Memorial Stadium",37.8710169,-122.250731,52428
"Camping World Stadium",28.539055,-81.4027905,60219
"Camp Randall Stadium",43.0698597,-89.4126821,76030
"Canvas Stadium",40.5702272,-105.0879729,36500
"Carpenter-Haygood Stadium",34.1346327,-93.0633751,NA
"Carroll Stadium",39.7710918,-86.1778737,12111
"Carter-Finley Stadium",35.8008119,-78.7195086,NA
"Casey Stadium",42.6808501,-73.8272453,8500
"CEFCU Stadium",37.3197911,-121.868366,19000
"Central Parc Stadium",33.7356716,-84.389441,25000
"Centennial Stadium",39.5828151,-104.8279497,12000
"Centreville Bank Stadium",41.8696763,-71.3829919,10700
"Chad Richison Stadium",35.6615327,-97.4707246,12000
"Chapman Field",40.2381265,-77.0648386,8045
"Charlie W. Johnson Stadium",34.0181271,-81.0105658,11000
"Chase Stadium",26.1931544,-80.1610735,21500
"Children's Mercy Park",39.1216373,-94.8231804,NA
"Christy Mathewson-Memorial Stadium",40.9518796,-76.8854088,NA
"City Stadium",37.5496769,-77.4867225,22611
"Clarence T.C. Ching Athletics Complex",21.2943691,-157.8170118,15194
"Cleveland Browns Stadium",41.5060223,-81.6995073,NA
"Cotton Bowl",32.7795354,-96.7595531,92100
"CPKC Stadium",39.1194053,-94.5668718,11500
"Cramton Bowl",32.3794903,-86.2929619,21000
"Credit One Stadium",32.8614296,-79.9036397,11000
"DakotaDome",42.7911493,-96.9276953,9100
"Dana J. Dykhouse Stadium",44.3210234,-96.7801202,19340
"Darrell K. Royal-Texas Memorial Stadium",30.2836034,-97.7325511,NA
"DATCU Stadium",33.2038991,-97.1592665,30850
"David Booth Kansas Memorial Stadium",38.962996,-95.2463794,41525
"Davis Wade Stadium",33.4563962,-88.7933815,60331
"Daytona Stadium",29.173494,-81.1175216,9601
"Delaware Stadium",39.6618331,-75.7488602,18077
"Delray Beach Stadium",26.4627166,-80.0755371,8200
"Dick’s Sporting Goods Park",39.8057749,-104.8918283,18061
"Dick Price Stadium",36.8469678,-76.2600303,30000
"Dignity Health Sports Park",33.8642864,-118.2610846,27000
"Dix Stadium",41.1390899,-81.3134247,25319
"Doak Campbell Stadium",30.4381892,-84.3044659,79560
"Doc Wadley Stadium",35.9286279,-94.96773,8300
"Dowdy-Ficklen Stadium",35.5964781,-77.3652507,NA
"Durham County Memorial Stadium",36.0353589,-78.9028617,8000
"Eccles Coliseum",37.6756688,-113.0769968,8500
"Edwards Stadium",37.8690011,-122.2647966,22000
"E.J. Whitmire Stadium",35.3047547,-83.1825382,13790
"Elliott T. Bowers Stadium",30.7138822,-95.5419911,14000
"Empower Field at Mile High",39.7439644,-105.0200916,76125
"Energizer Park",38.6312451,-90.2105127,22500
"Estes Stadium",35.0802197,-92.4600042,10000
"Eunice Kennedy Shriver Stadium",43.2063841,-77.951485,11000
"Falcon Stadium",38.9970407,-104.843452,39441
"FargoDome",46.9029731,-96.8016422,NA
"Fifth Third Bank Stadium",34.02894,-84.5675987,10200
"Finley Stadium",35.0362864,-85.3157258,20668
"Finley Stadium",35.0362864,-85.3157258,56919
"FirstBank Stadium",36.1439744,-86.8089223,35000
"Fisher Field",40.7009268,-75.2106644,NA
"Fitton Field",42.2416004,-71.8099236,23500
"Five Star Stadium",32.8269924,-83.6521822,10200
"Flagler Credit Union Stadium",26.3761264,-80.1016188,29495
"Floyd Stadium",35.8512134,-86.3681817,27303
"Folsom Field",40.0093901,-105.2669406,51400
"Ford Field",42.3399579,-83.0456114,65000
"Fortera Stadium",36.536364,-87.352531,10000
"Fort Wayne FC Park",41.0877996,-85.2246043,9500
"Foster Stadium",37.7906928,-79.445926,10000
"Gaylord Family-Oklahoma Memorial Stadium",35.205904,-97.4423575,NA
"Geodis Park",36.1300781,-86.7660867,30000
"Gerald J. Ford Stadium",32.8378329,-96.782738,33200
"Gesa Field",46.7318383,-117.1605849,32952
"Gibbs Stadium",34.9618554,-81.9328487,13000
"Gillette Stadium",42.0910573,-71.2644267,64628
"Glass Bowl",41.6573549,-83.6135745,26038
"Goodman Stadium",40.5891156,-75.3552998,16000
"Grandstand",40.7480413,-73.8479089,8125
"Greater Zion Stadium",37.0994998,-113.5672579,8291
"H.A. Chapman Stadium",36.148956,-95.9437966,30000
"Hamilton Stadium",43.2525643,-79.8299326,NA
"Hancock Stadium",40.5123962,-88.996532,12440
"Hancock-Whitney Stadium",30.6972656,-88.1924645,NA
"Hanson Field",40.4683271,-90.6841886,12368
"Harder Stadium",34.4205093,-119.8543864,17000
"Hard Rock Stadium",25.9578903,-80.238905,65326
"Harvard Stadium",42.3666616,-71.1267115,30323
"Heart Health Park",38.5913905,-121.4380217,11442
"Highmark Stadium",42.773818,-78.7869823,71608
"Historic Crew Stadium",40.0093276,-82.9912567,19968
"Hodges Stadium",30.2751443,-81.5116239,9400
"Homer Brice Stadium",31.625641,-94.6443844,NA
"Homewood Field",39.3334386,-76.6208572,8500
"Hornet Stadium",38.5557462,-121.423012,21195
"Houchens-Smith Stadium",36.984746,-86.4594627,NA
"Houck Stadium",37.3095688,-89.5311929,10000
"Hovey Field",37.5612273,-77.4488175,10000
"Huntington Bank Stadium",44.9765402,-93.2246697,50805
"Huskie Stadium",41.9339389,-88.7778354,23595
"Husky Stadium",47.6502768,-122.3015213,70138
"ICCU Dome",42.8699569,-112.4286425,10500
"IGA Stadium",45.5329845,-73.6270827,11715
"Independence Stadium",32.4756548,-93.7919676,49565
"Indian Wells Tennis Garden",33.723947,-116.3059152,16100
"InfoCision Stadium",41.072622,-81.5084267,27881
"Inter&Co Stadium",28.5410625,-81.3883764,25500
"Jack Trice Stadium",42.0139816,-93.6357666,61500
"Javelina Stadium",27.5288333,-97.8800726,12500
"Jayne Stadium",38.1918933,-83.4253424,10000
"Jerry Richardson Stadium",35.3104677,-80.7400704,15314
"JMA Wireless Dome",43.0361642,-76.1363268,42774
"Joan C. Edwards Stadium",38.4249242,-82.4209143,30475
"Joe Aillet Stadium",32.5322423,-92.6559985,28562
"John L. Guidry Stadium",29.7867294,-90.8045125,10500
"Johnny Unitas Stadium",39.3886283,-76.6159701,11198
"Johnson Hagood Stadium",32.7936963,-79.955771,11427
"Jones AT&T Stadium",33.591064,-101.872884,60229
"Jordan-Hare Stadium",32.6021719,-85.4890502,NA
"Kelly/Shorts Stadium",43.577554,-84.7708511,30255
"Kenan Stadium",35.9069536,-79.0478969,50500
"Kenneth P. LaValle Stadium",40.9189851,-73.124308,12300
"Keyworth Stadium",42.392349,-83.0489316,7933
"Kezar Stadium",37.7668983,-122.4560487,9044
"Kibbie Dome",46.7262713,-117.0178699,15250
"Kidd Brewer Stadium",36.211524,-81.685474,30000
"Kinnick Stadium",41.6586776,-91.5510893,69250
"Kroger Field",38.0227569,-84.5051622,61000
"Kyle Field",30.6098822,-96.340356,102733
"L&N Stadium",38.2058305,-85.7587838,59823
"Lakewood Stadium",33.7029855,-84.3876327,10000
"Lambeau Field",44.5013494,-88.0622435,81435
"Lane Stadium",37.2200085,-80.4181303,65632
"LaVell Edwards Stadium",40.2575207,-111.6545141,62073
"Lawrence A. Wien Stadium",40.8732371,-73.9164448,17000
"Legion Field",33.5114775,-86.8426324,71594
"Levi’s Stadium",37.403203,-121.9698179,68500
"Lincoln Financial Field",39.9008065,-75.16747,69596
"Lindner Family Tennis Center",39.3489922,-84.2762733,11435
"Los Angeles Memorial Coliseum",34.0140364,-118.2879066,71349
"Louis Armstrong Stadium",40.7509389,-73.8455164,14053
"Louis Crews Stadium",34.7835495,-86.5783704,21000
"Lubbers Stadium",42.968859,-85.8947183,10444
"Lucas Oil Stadium",39.7601399,-86.163776,63000
"Lumen Field",47.595174,-122.3316371,67000
"Lynn Family Stadium",38.2595586,-85.7333029,11600
"M&T Bank Stadium",39.2779621,-76.6227722,71008
"Mackay Stadium",39.5470407,-119.8176777,30000
"Malone Stadium",32.5309126,-92.0659554,30000
"Mansion Park Stadium",40.4915117,-78.4102822,10400
"Maverik Stadium",41.7517206,-111.8116379,25100
"McGuirk Stadium",42.3773622,-72.5360085,17000
"McKinney ISD Stadium",33.1574826,-96.661505,12000
"McLane Stadium",31.5581872,-97.1156323,45140
"Memorial Field",43.7012414,-72.28431,11000
"Mercedes-Benz Stadium",33.7551198,-84.40098,NA
"MetLife Stadium",40.8135168,-74.0743518,82500
"Michie Stadium",41.3876318,-73.9641666,30000
"Michigan Stadium",42.2658289,-83.748715,107601
"Mihalik-Thompson Stadium",41.0633645,-80.0375623,NA
"Milam Stadium",35.536046,-98.7108171,8600
"Milan Puskar Stadium",39.6501038,-79.9550736,60000
"Mike A. Myers Stadium and Soccer Field",30.2825472,-97.7300192,20000
"Mississippi Veterans Memorial Stadium",32.3295702,-90.1796866,60000
"Mitchell Stadium",37.2507676,-81.2440092,10000
"Mountain America Stadium",33.4264271,-111.9325519,53599
"Navarre Stadium",30.1735086,-93.2103467,20000
"Navy-Marine Corps Memorial Stadium",38.9847659,-76.507094,NA
"Neyland Stadium",35.9549862,-83.9250004,101915
"Nickerson Field",42.3534777,-71.1192334,9871
"Nippert Stadium",39.1311755,-84.5161271,38088
"Nissan Stadium",36.1664367,-86.7712748,69143
"Northwest Stadium",38.9076738,-76.8644822,67617
"Notre Dame Stadium",41.6983991,-86.2339211,80795
"Nottingham Field",40.4034069,-104.705093,8533
"NRG Stadium",29.6847905172459,-95.4107236862183,71795
"Nu Stadium",25.7905499,-80.2617694,26700
"O'Brien Field",39.4807089,-88.1811995,10000
"Ohio Stadium",40.0016323,-83.019755,102780
"Oliver C. Dawson Stadium",33.49868,-80.8447248,22000
"O’Kelly-Riddick Stadium",35.973882,-78.896953,10000
"Panther Stadium",30.0910133,-95.9944475,15000
"Paladin Stadium",34.9201324,-82.437029,14518
"Paycor Stadium",39.095455,-84.5160628,65515
"PayPal Park",37.3512088,-121.9246602,18000
"Peden Stadium",39.3211017,-82.1028686,27000
"Percival Molson Memorial Stadium",45.5101214,-73.5806751,23420
"Perkins Stadium",42.8471614,-88.7448817,13500
"Perry Stadium",41.3780323,-83.6224581,NA
"Phoenix Rising Soccer Stadium",33.4456761,-111.9991099,10000
"Pioneer Stadium",42.7277534,-90.4866707,10000
"Pitbull Stadium",25.7524831,-80.377897,20000
"Princeton Stadium",40.3455138,-74.6498895,27800
"Protective Stadium",33.5278173,-86.8092,42354
"Providence Park",45.521556,-122.6917666,25218
"Provost Umphrey Stadium",30.0431111,-94.0700055,16000
"Q2 Stadium",30.3877059,-97.7195949,20500
"Ratliff Stadium",31.9207823,-102.3644847,17931
"Raymond James Stadium",27.9760118,-82.5033921,65890
"Rentschler Field",41.7596442,-72.6188136,38066
"Reser Stadium",44.5594998,-123.2813752,35548
"Reynolds Razorback Stadium",36.0679548,-94.1789783,76000
"Rhodes Stadium",36.109909,-79.5076597,14000
"Rice-Eccles Stadium",40.7600453,-111.8488562,NA
"Rice Stadium",29.7162899,-95.409329,47000
"Rice-Totten Stadium",33.5094556612883,-90.3431940078735,NA
"Rip Hewes Stadium",31.2057764,-85.4031687,10000
"Robert and Janet Vackar Stadium",26.2825793,-98.1351913,13498
"Roberts Stadium",31.3289784,-89.3312074,NA
"Robert W. Plaster Stadium",37.197715,-93.2798481,17500
"Robinson-Hale Stadium",32.3365663,-90.3337365,NA
"Robinson Stadium",32.5208534,-92.7211548,NA
"Robins Stadium",37.5809557,-77.536869,8200
"Rock Creek Tennis Center",38.9541527,-77.0382786,7500
"Roos Field",47.4927037,-117.5878287,8600
"Rose Bowl Stadium",34.1612766,-118.1676149,91136
"Ross-Ade Stadium",40.4344375,-86.918453,NA
"Roy Kidd Stadium",37.7344759,-84.2972589,20000
"Roy Stewart Stadium",36.6214435,-88.3173752,16800
"Rynearson Stadium",42.255856,-83.6473703,30200
"Saluki Stadium",37.7085583,-89.2161513,15000
"Sanford Stadium",33.9497324,-83.3733345,93033
"Saputo Stadium",45.5631025,-73.5525227,20801
"S.B. Ballard Stadium",36.8889744,-76.3049197,21944
"Scheumann Stadium",40.2161276,-85.4167914,22500
"Schoellkopf Field",42.4441593,-76.4787323,21500
"Scotts Miracle-Gro Field",39.9684866,-83.0170942,NA
"Scott Stadium",38.03109,-78.5136653,61500
"SeatGeek Stadium",41.7647499,-87.8061891,20000
"SECU Stadium",38.9902365,-76.9472766,46185
"Selby Stadium",40.2967202,-83.0634427,9100
"Shell Energy Stadium",29.7521016,-95.3522731,21000
"SHI Stadium",40.513477,-74.4653964,52454
"Simmons Bank Field",34.253421,-92.0215005,16000
"Simmons Bank Liberty Stadium",35.1210933,-89.9774265,58318
"Sloan-Alumni Stadium",33.4797689,-86.9086468,NA
"Snapdragon Stadium",32.783141,-117.1195478,35000
"Sobeys Stadium",43.7715703,-79.5120746,10876
"SoFi Stadium",33.9533687,-118.3389723,70240
"Solider Field",41.8623221,-87.6166964,61500
"Spangler Stadium",35.2456103,-81.6732431,8500
"Spartan Stadium",42.7282263,-84.4848419,74866
"Spinks-Casem Stadium",31.8735852,-91.1348964,NA
"Sports Illustrated Stadium",40.7368033,-74.1502691,25000
"Spratt Memorial Stadium",39.7618945,-94.7860947,10000
"Stadium 2",33.7234584,-116.3039116,8000
"Stambaugh Stadium",41.1094941,-80.6493473,20630
"Stanford Stadium",37.4345049,-122.1611559,50424
"State Farm Stadium",33.5274793,-112.2622705,63400
"Stewart Stadium",41.1918999,-111.9399896,13441
"Sun Bowl",31.7733636,-106.5079666,45971
"Superior Dome",46.5602767,-87.3938155,8000
"Tacoma Dome",47.2366751,-122.4270487,20722
"Talen Energy Stadium",39.8327132,-75.3783346,NA
"TDECU Stadium",29.7220296,-95.3492154,40000
"TD Place Stadium",45.3981938,-75.6834197,24000
"The Dome at America’s Center",38.6329344,-90.1884271,67277
"Theodore A. Wright Stadium",32.0274794,-81.0686624,8500
"The Reservation",35.0667898,-81.6802704,8250
"TIAA Bank Field",30.3238691,-81.637323,67246
"Tiger Stadium",30.4119847,-91.1838199,102321
"Tom Benson Hall of Fame Stadium",40.8198015,-81.3980485,22375
"Toyota Stadium",33.1542775,-96.8351377,19096
"TQL Stadium",39.1110381,-84.5227915,26000
"Tucker Stadium",36.1781807,-85.5061627,16500
"Turpin Stadium",31.7475111,-93.0960953,15971
"UB Stadium",42.9991234,-78.7775302,30270
"UC Davis Health Stadium",38.5365851079438,-121.762783527374,10743
"UC Stadium at Laidley Field",38.3442983,-81.6150606,18500
"UFCU Stadium",29.8910622,-97.9255414,28000
"UNI-Dome",42.5156859,-92.4673749,NA
"U.S. Bank Stadium",44.9737054,-93.257677,66665
"Valley Children’s Stadium",36.8143527,-119.7579826,40727
"Vaught-Hemingway Stadium",34.3620723,-89.5341969,NA
"Villanova Stadium",40.0330036,-75.3367335,12000
"WakeMed Soccer Park",35.7862091,-78.7550856,10000
"Waldo Stadium",42.2857624,-85.6010377,30200
"Walkup Skydome",35.180517,-111.6527546,10000
"Wallace Wade Stadium",35.9953252,-78.9416708,31500
"Walton Stadium",38.758894,-93.7421268,12000
"Washington-Grizzly Stadium",46.863837,-113.9815181,NA
"Weidner Field",38.8262545,-104.8284212,8000
"Welcome Stadium",39.7368448,-84.1980601,11000
"Williams Stadium",37.3544241,-79.1750228,25000
"Williams-Brice Stadium",33.9731003,-81.0191704,NA
"Yager Stadium",39.519635,-84.7330052,24286
"Yale Bowl",41.3131367,-72.9603982,61446
"Yulman Stadium",29.944667,-90.1168317,30000
"Zable Stadium",37.2729131,-76.7143482,11646
"Convocation Center",33.574779,-81.7739118,3600
"Convocation Center",39.3232432,-82.1055831,13080
"Convocation Center",29.5823191,-98.6215721,4080
"Convocation Center",37.0197812,-76.331023,7200
"Liberty Arena",37.349491,-79.1800551,NA
"Liberty Arena",37.9620472,-87.6746662,NA
"Moody Coliseum",32.4703506,-99.7091138,3600
"Moody Coliseum",32.8403662,-96.7805064,7000
"Ralph Engelstad Arena",47.9275654,-97.0714027,NA
"Ralph Engelstad Arena",48.121514,-96.1920252,NA
"The Coliseum",33.5759767,-85.1036864,7000
"The Coliseum",32.7063546,-100.8881539,3890
"Toyota Center",29.7507788,-95.3620577,18023
"Toyota Center",46.219793,-119.2166108,5785
"Veterans Memorial Coliseum",43.0470792,-89.3789291,7890
"Veterans Memorial Coliseum",45.5321615,-122.6693058,9122
"Franklin Field",42.918655,-88.016493,NA
"Legends Field",39.1248002,-94.8307228,NA
"Legends Field",38.0658907,-84.4783187,NA
"Toyota Field",34.6838868,-86.7246058,5500
"Truist Stadium",36.0920602,-80.2547407,5500
"Veterans Memorial Stadium",41.9679861,-91.686101,5300
"War Memorial Stadium",37.0095183,-76.3869632,3750
"War Memorial Stadium",36.0796616,-79.7771789,7500
"Drake Stadium",41.604974,-93.6550356,NA
"Drake Stadium",34.071991,-118.4483027,NA
"Franklin Field",39.9501235,-75.1900327,NA
"Hughes Stadium",39.3439062,-76.5828932,NA
"Hughes Stadium",38.540844,-121.486516,NA
"Memorial Stadium",39.180851,-86.5256382,52626
"Memorial Stadium",40.0993304,-88.2359649,60670
"Memorial Stadium",34.6787291,-82.8432012,81500
"Memorial Stadium",38.9357618,-92.3332429,62621
"Memorial Stadium",33.2460724,-95.9101404,12764
"Memorial Stadium",40.8206134,-96.7056727,90000
"Memorial Stadium",39.4749783,-87.3669559,12764
"Memorial Stadium",33.8542012,-98.5824895,11526
"Memorial Stadium",32.2148964,-98.2235032,14500
"Titan Stadium",33.8866536,-117.8869701,10000
"Titan Stadium",44.0236694,-88.5628617,9800
"Toyota Field",29.5393461,-98.3945632,8400
"Truist Stadium",36.0814651753035,-79.7700977325439,21500
"University Stadium",33.5802316,-85.120461,10000
"University Stadium",35.0669742,-106.6282261,37440
"Veterans Memorial Stadium",31.7995781,-85.9518707,30000
"War Memorial Stadium",41.3117103,-105.5683029,29181
"War Memorial Stadium",34.7497935,-92.3301315,54120
"Wildcat Stadium",32.5336714,-83.8953997,10000
"Wildcat Stadium",43.1385847,-70.939343,11015
"Wildcat Stadium",32.4730935,-99.7088565,12000
